,index,code,name,grade,type,d_price,price,benefit,region_L,region_S,code_L,code_S,lat,lon
0,0,72130,κ΄‘μ£Ό μƒλ¬΄ λ”λΈ”μ  λΌμ΄μ§€νΈν…” (W LOUNGE HOTEL),λ¨ν…”,motel,50000,0,β™¥μ†μ†λ…μ  λΉ„μΉ/μ‹ μΆ…μ½”λ΅λ‚ λ€λΉ„ μƒμ‹λ°©μ—­/μƒλ¬΄μ§€κµ¬ μ½”λ΅λ‚ μ•μ‹¬μ™μ†β™¥,κ΄‘μ£Ό,μ„κµ¬ / μƒλ¬΄ / μ μ¤ν€μ–΄,300000026,200000280,35.14997994517692,126.85072697044463
1,1,97692,κ΄‘μ£Ό ν’μ•”λ™ λΈλΌμ΄λ„νΈ ν’μ•”μ ,λ¨ν…”,motel,50000,0,,κ΄‘μ£Ό,μ„κµ¬ / μƒλ¬΄ / μ μ¤ν€μ–΄,300000026,200000280,35.126172604064934,126.87921303047482
2,2,99398,κ΄‘μ£Ό ν’μ•”λ™ λ„λ²„25 κ΄‘μ£Όν’μ•”μ ,λ¨ν…”,motel,45000,0,,κ΄‘μ£Ό,μ„κµ¬ / μƒλ¬΄ / μ μ¤ν€μ–΄,300000026,200000280,35.12624635361674,126.8794590436625
3,3,99879,κ΄‘μ£Ό κΈνΈ H Avenue κ΄‘μ£ΌκΈνΈμ ,λ¨ν…”,motel,58000,136000,,κ΄‘μ£Ό,μ„κµ¬ / μƒλ¬΄ / μ μ¤ν€μ–΄,300000026,200000280,35.13155746323417,126.8588842358129
4,4,81382,κ΄‘μ£Ό μ νƒ‘ λ¶€ν‹°ν¬ νΈν…”&λ μ§€λμ¤,νΈν…”,hotel,105000,105000,"β…λ‹¨λ… νΉκ°€ μ§„ν–‰ μ¤‘ !
β…κ΄‘μ£Ό μ—¬ν–‰ κ°•λ ¥ μ¶”μ² νΈν…”
β…κΈ°μ•„ μ±”ν”Όμ–Έμ¤ ν•„λ“ μ°¨λ‰ 10λ¶„ μ†μ”",κ΄‘μ£Ό,μ„κµ¬ / μƒλ¬΄ / μ μ¤ν€μ–΄,300000026,200000280,35.153184,126.851156
5,5,75617,ν™€λ¦¬λ°μ΄μΈ κ΄‘μ£Ό,4μ„±κΈ‰,hotel,0,0,#μ „κ°μ‹¤ ννƒ #μμμ¥ λ¬΄λ£μ΄μ©,κ΄‘μ£Ό,μ„κµ¬ / μƒλ¬΄ / μ μ¤ν€μ–΄,300000026,200000280,35.147479,126.838571
6,6,74430,λ‘λ°”μ΄ λΉ„μ¦λ‹μ¤ κ΄‘μ£ΌνΈν…”,νΈν…”,hotel,0,0,,κ΄‘μ£Ό,μ„κµ¬ / μƒλ¬΄ / μ μ¤ν€μ–΄,300000026,200000280,35.154041,126.852824
7,7,74680,κ΄‘μ£Ό μ¤ν…μ΄ 53 νΈν…”,νΈν…”,hotel,72000,132000,,κ΄‘μ£Ό,μ„κµ¬ / μƒλ¬΄ / μ μ¤ν€μ–΄,300000026,200000280,35.148743,126.850541
8,8,88612,μƒλ¬΄ λΈλΌμ΄λ„νΈ νΈν…”,νΈν…”,hotel,70000,187000,,κ΄‘μ£Ό,μ„κµ¬ / μƒλ¬΄ / μ μ¤ν€μ–΄,300000026,200000280,35.15087725623061,126.84948915484186
9,9,79287,κ΄‘μ£Ό μ–΄λ°λΌμ΄ν”„ νΈν…”,νΈν…”,hotel,65000,158000,,κ΄‘μ£Ό,μ„κµ¬ / μƒλ¬΄ / μ μ¤ν€μ–΄,300000026,200000280,35.160457,126.884596
10,10,74456,κ΄‘μ£Ό νΈν…”B,νΈν…”,hotel,88000,176000,,κ΄‘μ£Ό,μ„κµ¬ / μƒλ¬΄ / μ μ¤ν€μ–΄,300000026,200000280,35.153626,126.852432
11,11,86622,λΌλ§λ‹¤ ν”λΌμ κ΄‘μ£Ό νΈν…”,4μ„±κΈ‰,hotel,0,0,,κ΄‘μ£Ό,μ„κµ¬ / μƒλ¬΄ / μ μ¤ν€μ–΄,300000026,200000280,35.152045,126.850567
12,12,76736,κ΄‘μ£Ό λ°λ νƒ€μΈνΈν…”,νΈν…”,hotel,65000,130000,,κ΄‘μ£Ό,μ„κµ¬ / μƒλ¬΄ / μ μ¤ν€μ–΄,300000026,200000280,35.160455,126.884725
13,13,70073,κ΄‘μ£Ό λ³ΌνΌνΈν…”,νΈν…”,hotel,70000,70000,,κ΄‘μ£Ό,μ„κµ¬ / μƒλ¬΄ / μ μ¤ν€μ–΄,300000026,200000280,35.15103,126.849968
14,14,74703,κ΄‘μ£Ό λ²¤μ² νΈν…”,νΈν…”,hotel,99000,99000,,κ΄‘μ£Ό,μ„κµ¬ / μƒλ¬΄ / μ μ¤ν€μ–΄,300000026,200000280,35.150653,126.849513
15,15,70217,νΈν…” λ” λ©”μ΄ κ΄‘μ£Ό,νΈν…”,hotel,66000,88000,,κ΄‘μ£Ό,μ„κµ¬ / μƒλ¬΄ / μ μ¤ν€μ–΄,300000026,200000280,35.154517,126.852774
16,16,76579,κ΄‘μ£Ό κ°¤λ¬λ¦¬νΈν…”,νΈν…”,hotel,100000,100000,,κ΄‘μ£Ό,μ„κµ¬ / μƒλ¬΄ / μ μ¤ν€μ–΄,300000026,200000280,35.14945,126.853233
17,17,78339,κ΄‘μ£Ό μƒλ¬΄μ§€κµ¬ νΈν…” λ©”μ΄ν‚Ή,νΈν…”,hotel,59000,59000,,κ΄‘μ£Ό,μ„κµ¬ / μƒλ¬΄ / μ μ¤ν€μ–΄,300000026,200000280,35.148941,126.850533
18,18,82291,κ΄‘μ£Ό CS νΈν…”,3μ„±κΈ‰,hotel,90000,90000,,κ΄‘μ£Ό,μ„κµ¬ / μƒλ¬΄ / μ μ¤ν€μ–΄,300000026,200000280,35.149228,126.852551
19,19,83397,νΈν…” λ” μ•„λΌλ³΄λ‹¤,νΈν…”,hotel,75000,75000,,κ΄‘μ£Ό,μ„κµ¬ / μƒλ¬΄ / μ μ¤ν€μ–΄,300000026,200000280,35.158095,126.877955
20,20,92548,κ΄‘μ£Ό μƒλ¬΄ μ—μ΄μΉμ—λΉ„λ‰΄,νΈν…”,hotel,75000,95000,λ€ν•140μΈμΉ λΉ”ν”„λ΅μ νΈ μ„¤μΉ & ALL NEW λ¦¬λ¨λΈλ§ ν”„λ¦¬λ―Έμ—„ νΈν…” H AVENUEβ™¥,κ΄‘μ£Ό,μ„κµ¬ / μƒλ¬΄ / μ μ¤ν€μ–΄,300000026,200000280,35.15079743458995,126.85441623350205
21,21,70220,λ¶€λ λ„ νΈν…” μ™€μΈ,νΈν…”,hotel,65000,160000,,κ΄‘μ£Ό,μ„κµ¬ / μƒλ¬΄ / μ μ¤ν€μ–΄,300000026,200000280,35.149751,126.853688
22,22,87854,κ΄‘μ£Ό μƒλ¬΄ λΈλΌμ΄λ„νΈ κ΄‘μ£Όμƒλ¬΄μ ,λ¨ν…”,motel,70000,0,,κ΄‘μ£Ό,μ„κµ¬ / μƒλ¬΄ / μ μ¤ν€μ–΄,300000026,200000280,35.15087725623061,126.84948915484186
23,23,99068,κ΄‘μ£Ό ν’μ•”λ™ λΈλΌμ΄λ„νΈνΈν…”,νΈν…”,hotel,75000,100000,,κ΄‘μ£Ό,μ„κµ¬ / μƒλ¬΄ / μ μ¤ν€μ–΄,300000026,200000280,35.126172604064934,126.87921303047482
24,24,85102,κ΄‘μ£Ό μƒλ¬΄ νΈν…” μ„ΈλΈλΈλ¦­μ¤(HOTEL 7 BRICKS),λ¨ν…”,motel,55000,0,,κ΄‘μ£Ό,μ„κµ¬ / μƒλ¬΄ / μ μ¤ν€μ–΄,300000026,200000280,35.1530906,126.8507976
25,25,91163,κ΄‘μ£Ό λ†μ„±λ™ μ΄νΈν•,λ¨ν…”,motel,30000,35000,,κ΄‘μ£Ό,μ„κµ¬ / μƒλ¬΄ / μ μ¤ν€μ–΄,300000026,200000280,35.151926875798026,126.88824622123742
26,26,74622,κ΄‘μ£Ό μƒλ¬΄ λ³ΌνΌνΈν…”,λ¨ν…”,motel,60000,0,"β­οΈμ „κ°μ‹¤ OTT λ„·ν”λ¦­μ¤,λ””μ¦λ‹+,μ• ν”tv,ν‹°λΉ™,μ νλΈ/ μµκ³ μ‚¬μ–‘PC /μ΅°μ‹μ κ³µβ­οΈ",κ΄‘μ£Ό,μ„κµ¬ / μƒλ¬΄ / μ μ¤ν€μ–΄,300000026,200000280,35.1510563,126.8499324
27,27,82874,κ΄‘μ£Ό μƒλ¬΄ YAJA κ΄‘μ£Όμƒλ¬΄μ ,λ¨ν…”,motel,60000,0,,κ΄‘μ£Ό,μ„κµ¬ / μƒλ¬΄ / μ μ¤ν€μ–΄,300000026,200000280,35.14891851180864,126.84958021844476
28,28,91913,κ΄‘μ£Ό μƒλ¬΄ μ—μ΄μΉμ—λΉ„λ‰΄ (H Avenue) κ΄‘μ£Όμƒλ¬΄μ ,λ¨ν…”,motel,70000,0,,κ΄‘μ£Ό,μ„κµ¬ / μƒλ¬΄ / μ μ¤ν€μ–΄,300000026,200000280,35.15079743458995,126.85441623350205
29,29,69291,κ΄‘μ£Ό μƒλ¬΄ μ‹ λΌ,λ¨ν…”,motel,50000,0,,κ΄‘μ£Ό,μ„κµ¬ / μƒλ¬΄ / μ μ¤ν€μ–΄,300000026,200000280,35.1496177,126.85234630000002
30,30,68760,κ΄‘μ£Ό μƒλ¬΄ λ­μ…”λ¦¬ νΈν…”,λ¨ν…”,motel,50000,0,,κ΄‘μ£Ό,μ„κµ¬ / μƒλ¬΄ / μ μ¤ν€μ–΄,300000026,200000280,35.148857411,126.851030423
31,31,68444,κ΄‘μ£Ό ν™”μ •λ™ νΈν…” λ”μ•„λΌλ³΄λ‹¤(HOTEL THE ARABODA),λ¨ν…”,motel,65000,0,,κ΄‘μ£Ό,μ„κµ¬ / μƒλ¬΄ / μ μ¤ν€μ–΄,300000026,200000280,35.1580928,126.87795549999998
32,32,78171,κ΄‘μ£Ό μƒλ¬΄ νΈν…” μ‹μ• ν‹€(HOTEL SEATTLE),λ¨ν…”,motel,50000,0,"μΌμ”μΌ  λ¬΄ν•λ€μ‹¤ (40,000μ›)",κ΄‘μ£Ό,μ„κµ¬ / μƒλ¬΄ / μ μ¤ν€μ–΄,300000026,200000280,35.1484408,126.84942879999994
33,33,85466,κ΄‘μ£Ό μƒλ¬΄ νΈν…” λ“€ (DοΌ‡you Hotel),λ¨ν…”,motel,65000,0,,κ΄‘μ£Ό,μ„κµ¬ / μƒλ¬΄ / μ μ¤ν€μ–΄,300000026,200000280,35.14998353112416,126.85090447079963
34,34,69192,κ΄‘μ£Ό λ†μ„±λ™ νΈν…” λ°λ νƒ€μΈ(HOTEL BALLANTINE),λ¨ν…”,motel,64000,0,μ±”ν•„κΉμ§€ λ„λ³΄10λ¶„κ±°λ¦¬!  #Boutique HOTEL λ°λ νƒ€μΈ #365μΌ μ΅°μ‹μ κ³µ,κ΄‘μ£Ό,μ„κµ¬ / μƒλ¬΄ / μ μ¤ν€μ–΄,300000026,200000280,35.1604697,126.88469809999992
35,35,68770,κ΄‘μ£Ό λ†μ„±λ™ λ“λΌλ§,λ¨ν…”,motel,24000,0,,κ΄‘μ£Ό,μ„κµ¬ / μƒλ¬΄ / μ μ¤ν€μ–΄,300000026,200000280,35.1504316,126.8873225
36,36,76414,κ΄‘μ£Ό κΈνΈ HOTEL HONEY25,λ¨ν…”,motel,45000,0,2021 ν•κµ­μ†λΉ„μ ν‰κ°€ μ°μ μ™λ°•μ‹μ„¤  μ„ μ •,κ΄‘μ£Ό,μ„κµ¬ / μƒλ¬΄ / μ μ¤ν€μ–΄,300000026,200000280,35.1327565,126.85873889999993
37,37,80796,κ΄‘μ£Ό μƒλ¬΄ κ¶,λ¨ν…”,motel,45000,0,"λ‹¤μ–‘ν• λ¨Ήκ±°λ¦¬, μ „κ°μ‹¤ λ„·ν”λ¦­μ¤(λ¬΄λ£κ³„μ •)",κ΄‘μ£Ό,μ„κµ¬ / μƒλ¬΄ / μ μ¤ν€μ–΄,300000026,200000280,35.149462,126.85288420000006
38,38,69489,κ΄‘μ£Ό μƒλ¬΄ νΈν…” μ¤ν…μ΄53,λ¨ν…”,motel,66000,0,β¤ μ „ κ°μ‹¤ μ¤νƒ€μΌλ¬ κµ¬λΉ„ /  λ„·ν”λ¦­μ¤ λ¬΄λ£ μ‹μ²­ κ°€λ¥                                                                        λ„“κ³  κΉ¨λ—ν• κ°μ‹¤...μ΄ λ³΄λ‹¤ μ™„λ²½ν•  μ μ—†λ‹¤.. β¤,κ΄‘μ£Ό,μ„κµ¬ / μƒλ¬΄ / μ μ¤ν€μ–΄,300000026,200000280,35.1487743,126.8505113
39,39,84346,κ΄‘μ£Ό κΈνΈ ν”Όμ•„λ…Έ(PIANO),λ¨ν…”,motel,40000,0,,κ΄‘μ£Ό,μ„κµ¬ / μƒλ¬΄ / μ μ¤ν€μ–΄,300000026,200000280,35.13133001194423,126.8584154103751
40,40,68758,κ΄‘μ£Ό μƒλ¬΄ νΈν…” μ¤μ…(HOTEL OCEAN),λ¨ν…”,motel,0,0,,κ΄‘μ£Ό,μ„κµ¬ / μƒλ¬΄ / μ μ¤ν€μ–΄,300000026,200000280,35.14961771466494,126.85212177749236
41,41,69338,κ΄‘μ£Ό μƒλ¬΄ νΈν…” λ§¨ν•νƒ„,λ¨ν…”,motel,25000,0,"[μ²­κ²°&κ°€μ„±λΉ„ μµκ³ δΉƒ] λ§¤μΌλ§¤μΌ μ„ μ°©μ νΉκ°€μ΄λ²¤νΈ, μ•λ§μμ&μ¤νƒ€μΌλ¬λΉ„μΉ, λ§¨ν•νƒ„μΌλ΅ μ»΄μ¨ :)",κ΄‘μ£Ό,μ„κµ¬ / μƒλ¬΄ / μ μ¤ν€μ–΄,300000026,200000280,35.1547292,126.84994719999997
42,42,85119,κ΄‘μ£Ό μƒλ¬΄ CSνΈν…”,λ¨ν…”,motel,0,0,,κ΄‘μ£Ό,μ„κµ¬ / μƒλ¬΄ / μ μ¤ν€μ–΄,300000026,200000280,35.14923353824497,126.85255470666233
43,43,82059,κ΄‘μ£Ό μƒλ¬΄ νΈν…” λ§μ¤ν„°μ¤,λ¨ν…”,motel,35000,35000,β­οΈμµλ€ 1λ§μ› μ¦‰μ‹ν• μΈ μΏ ν°!! λ€μ‹¤/μ™λ°• κµ¬λ¶„μ—†μ΄ ν• μΈ λ°›κ³  μμ•½ν•κΈ°β­οΈ,κ΄‘μ£Ό,μ„κµ¬ / μƒλ¬΄ / μ μ¤ν€μ–΄,300000026,200000280,35.15225575930599,126.85052010752608
44,44,79817,κ΄‘μ£Ό κΈνΈ λ…ν’ (1νΈμ ),λ¨ν…”,motel,40000,0,,κ΄‘μ£Ό,μ„κµ¬ / μƒλ¬΄ / μ μ¤ν€μ–΄,300000026,200000280,35.133036,126.8589402
45,45,69188,κ΄‘μ£Ό μƒλ¬΄ λ²¤μ²νΈν…”,λ¨ν…”,motel,130000,0,"βοΈμ¤νƒ€μΌλ¬, κ³µκΈ°μ²­μ •κΈ° κµ¬λΉ„ (μ „ κ°μ‹¤)βοΈ",κ΄‘μ£Ό,μ„κµ¬ / μƒλ¬΄ / μ μ¤ν€μ–΄,300000026,200000280,35.15067629854991,126.8494999307653
46,46,73316,κ΄‘μ£Ό κΈνΈ YAM κ΄‘μ£ΌκΈνΈμ ,λ¨ν…”,motel,45000,0,β…μ¦κΈΈκ±°λ¦¬ λ§μ€ κΈνΈμ§€κµ¬ λ¨Ήμκ³¨λ© ν•«ν”λ μ΄μ¤β…,κ΄‘μ£Ό,μ„κµ¬ / μƒλ¬΄ / μ μ¤ν€μ–΄,300000026,200000280,35.1327557,126.85850270000003
47,47,68759,κ΄‘μ£Ό κΈνΈ μ„ μƒ¤μΈ,λ¨ν…”,motel,30000,0,μ΄λ²¤νΈ#μ„ μ°©μμΏ ν° #μ „ κ°μ‹¤ λ„·ν”λ¦­μ¤&λΉ„λ° μ΄μ©κ°€λ¥ #λ§¤μΌμ‚΄κ· μ†λ…,κ΄‘μ£Ό,μ„κµ¬ / μƒλ¬΄ / μ μ¤ν€μ–΄,300000026,200000280,35.13324421474752,126.85889567179328
48,48,76285,κ΄‘μ£Ό μƒλ¬΄ νΈν…” μΉ΄λ¥΄λ§,λ¨ν…”,motel,45000,0,μ „κ°μ‹¤λ„·ν”λ¦­μ¤ λ¬΄λ£#μ ν¬λΈ#λ°°κ·ΈPC#μ¤νƒ€μΌλ¬#μ„μΉδΉƒ   #κ²μ„κ°€λ¥ 2PCλ£Έ.1PCλ£Έ.μ–΄λ©”λ‹ν‹°λ¬΄λ£μ κ³µ,κ΄‘μ£Ό,μ„κµ¬ / μƒλ¬΄ / μ μ¤ν€μ–΄,300000026,200000280,35.154370699640786,126.8527476498498
49,49,69440,κ΄‘μ£Ό μƒλ¬΄ νΈν…” ν•λ°”λ‚(HOTEL HAVANA),λ¨ν…”,motel,45000,0,,κ΄‘μ£Ό,μ„κµ¬ / μƒλ¬΄ / μ μ¤ν€μ–΄,300000026,200000280,35.1536502,126.8507682
50,50,78985,κ΄‘μ£Ό μƒλ¬΄ μ•¨λ¦¬μ¤ λΉ„μ¦λ‹μ¤ νΈν…”,λ¨ν…”,motel,32000,32000,,κ΄‘μ£Ό,μ„κµ¬ / μƒλ¬΄ / μ μ¤ν€μ–΄,300000026,200000280,35.1545688,126.84995600000002
51,51,68029,κ΄‘μ£Ό ν’μ•”λ™ λ‹¤μ΄μ•„,λ¨ν…”,motel,40000,45000,μ „κΈ°μ°¨ μ¶©μ „κΈ° μ„¤μΉ μ—…μ†,κ΄‘μ£Ό,μ„κµ¬ / μƒλ¬΄ / μ μ¤ν€μ–΄,300000026,200000280,35.1264124,126.87910050000005
52,52,79144,κ΄‘μ£Ό μƒλ¬΄ EQ,λ¨ν…”,motel,45000,50000,,κ΄‘μ£Ό,μ„κµ¬ / μƒλ¬΄ / μ μ¤ν€μ–΄,300000026,200000280,35.1506082,126.8544323
53,53,66825,κ΄‘μ£Ό μƒλ¬΄ ν(Q),λ¨ν…”,motel,35000,35000,β— λ€μ‹¤ 6μ‹κ°„ μ΄λ²¤νΈ - μμ„Έν• μ‚¬ν•­μ€ μ”κΈμμ™Έμ‚¬ν•­μ„ μ°Έκ³ ν•΄μ£Όμ„Έμ”!,κ΄‘μ£Ό,μ„κµ¬ / μƒλ¬΄ / μ μ¤ν€μ–΄,300000026,200000280,35.1520303,126.86565969999992
54,54,79262,κ΄‘μ£Ό μƒλ¬΄ λ²¤ν‹€λ¦¬ λΉ„μ¦λ‹μ¤νΈν…”,λ¨ν…”,motel,55000,0,,κ΄‘μ£Ό,μ„κµ¬ / μƒλ¬΄ / μ μ¤ν€μ–΄,300000026,200000280,35.1490467,126.8522988
55,55,69749,κ΄‘μ£Ό μƒλ¬΄ νΈν…” μ(HOTEL SU),λ¨ν…”,motel,50000,0,,κ΄‘μ£Ό,μ„κµ¬ / μƒλ¬΄ / μ μ¤ν€μ–΄,300000026,200000280,35.1544849,126.85274679999998
56,56,76230,κ΄‘μ£Ό μƒλ¬΄ νΈν…” λ©”μ΄ν‚Ή(HOTEL MAKING),λ¨ν…”,motel,50000,0,,κ΄‘μ£Ό,μ„κµ¬ / μƒλ¬΄ / μ μ¤ν€μ–΄,300000026,200000280,35.1489407,126.85053340000002
57,57,69237,κ΄‘μ£Ό μƒλ¬΄ νΈν…” λ΅λ―Έμ¤(HOTEL ROMEO),λ¨ν…”,motel,50000,0,,κ΄‘μ£Ό,μ„κµ¬ / μƒλ¬΄ / μ μ¤ν€μ–΄,300000026,200000280,35.15425559056005,126.85274185970775
58,58,67151,κ΄‘μ£Ό μƒλ¬΄ μ²,λ¨ν…”,motel,30000,0,,κ΄‘μ£Ό,μ„κµ¬ / μƒλ¬΄ / μ μ¤ν€μ–΄,300000026,200000280,35.14910651862939,126.85099041834921
59,59,79836,κ΄‘μ£Ό μƒλ¬΄ νΈν…” λ„¤λ¨ (HOTEL NEMO),λ¨ν…”,motel,45000,0,μν™” μλ§¤κ¶ λ¬΄λ£μ¦μ • μ΄λ²¤νΈ(1λ§¤)/μΌ~λ© ν•΄λ‹Ή μ΄λ²¤νΈ κ°μ‹¤ μμ•½μ‹,κ΄‘μ£Ό,μ„κµ¬ / μƒλ¬΄ / μ μ¤ν€μ–΄,300000026,200000280,35.1536264,126.8508539
60,60,68156,κ΄‘μ£Ό μƒλ¬΄ μƒ¤μΈνΈν…”,λ¨ν…”,motel,35000,0,β­οΈμµλ€ 1λ§μ› μ¦‰μ‹ν• μΈ μΏ ν°!! λ€μ‹¤/μ™λ°• κµ¬λ¶„μ—†μ΄ ν• μΈ λ°›κ³  μμ•½ν•κΈ°β­οΈ,κ΄‘μ£Ό,μ„κµ¬ / μƒλ¬΄ / μ μ¤ν€μ–΄,300000026,200000280,35.1524918,126.85052229999997
61,61,68763,κ΄‘μ£Ό μƒλ¬΄ νΈν…” κ°¤λ¬λ¦¬(HOTEL GALLERY),λ¨ν…”,motel,60000,0,,κ΄‘μ£Ό,μ„κµ¬ / μƒλ¬΄ / μ μ¤ν€μ–΄,300000026,200000280,35.14946806396565,126.85320215229072
62,62,87903,κ΄‘μ£Ό μƒλ¬΄ λΌμ¤λ² κ°€μ¤,λ¨ν…”,motel,40000,0,"[μ²­κ²°,μΉμ  μΈμ¦ μ¶”μ²μ™μ†δΉƒ] μ „ κ°μ‹¤ λ„·ν”λ¦­μ¤&λ””μ¦λ‹&μ νλΈ λ¬΄λ£μ‹μ²­κ°€λ¥, μ‚Όμ„± μ¤λ§νΈ65μΈμΉ TV κµ¬λΉ„β”οΈ",κ΄‘μ£Ό,μ„κµ¬ / μƒλ¬΄ / μ μ¤ν€μ–΄,300000026,200000280,35.150156885992466,126.85498191613503
63,63,82329,κ΄‘μ£Ό μƒλ¬΄ λ¶€λ λ„νΈν…”μ™€μΈ,λ¨ν…”,motel,77000,0,,κ΄‘μ£Ό,μ„κµ¬ / μƒλ¬΄ / μ μ¤ν€μ–΄,300000026,200000280,35.14975257343586,126.85369080477204
64,64,74336,κ΄‘μ£Ό μƒλ¬΄ SνΈν…”,λ¨ν…”,motel,45000,0,,κ΄‘μ£Ό,μ„κµ¬ / μƒλ¬΄ / μ μ¤ν€μ–΄,300000026,200000280,35.1483479,126.8501567
65,65,72089,κ΄‘μ£Ό μƒλ¬΄ λ°λ μ‹μ•„,λ¨ν…”,motel,30000,30000,,κ΄‘μ£Ό,μ„κµ¬ / μƒλ¬΄ / μ μ¤ν€μ–΄,300000026,200000280,35.1484649,126.84989589999998
66,66,92824,κ΄‘μ£Ό μƒλ¬΄ M,λ¨ν…”,motel,35000,0,,κ΄‘μ£Ό,μ„κµ¬ / μƒλ¬΄ / μ μ¤ν€μ–΄,300000026,200000280,35.14935498991744,126.85276184059266
67,67,69405,κ΄‘μ£Ό ν’μ•”λ™ S,λ¨ν…”,motel,40000,50000,,κ΄‘μ£Ό,μ„κµ¬ / μƒλ¬΄ / μ μ¤ν€μ–΄,300000026,200000280,35.12651650954248,126.87932893870388
68,68,80718,κ΄‘μ£Ό μƒλ¬΄ μ²΄λ¦¬,λ¨ν…”,motel,35000,0,,κ΄‘μ£Ό,μ„κµ¬ / μƒλ¬΄ / μ μ¤ν€μ–΄,300000026,200000280,35.15235671534784,126.84993921918728
69,70,79689,κ΄‘μ£Ό λ†μ„±λ™ νΈν…” μ–΄λ°λΌμ΄ν”„(LIFE&BUSINESS HOTEL),λ¨ν…”,motel,65000,0,"Urbanμ—μ„ μ κ³µν•λ” μ•„λ©”λ¦¬μΉ΄λ…Έ / KT Ai κΈ°κ°€μ§€λ‹ μ„¤μΉ(λ„·ν”λ¦­μ¤,μ νλΈ λ“± λ‹¤μ–‘ν• μ»¨ν…μΈ  μ κ³µ)",κ΄‘μ£Ό,μ„κµ¬ / μƒλ¬΄ / μ μ¤ν€μ–΄,300000026,200000280,35.1604569,126.8845958
70,71,79023,κ΄‘μ£Ό μƒλ¬΄ νΈν…” λ” λ©”μ΄,λ¨ν…”,motel,66000,0,,κ΄‘μ£Ό,μ„κµ¬ / μƒλ¬΄ / μ μ¤ν€μ–΄,300000026,200000280,35.1545171,126.85277410000003
71,72,69206,κ΄‘μ£Ό κΈνΈ μ›”λ“,λ¨ν…”,motel,40000,0,"μμ•½ν• κΉ λ§κΉ κ³ λ―Όν•λ” λ‹Ήμ‹ μ„ μ„ν• λ¬΄ν•μΏ ν°λ£Έ 50%λ‹¨κ³¨λ°κ°’μΏ ν° + μ¦‰μ‹ν• μΈ + 2,000μ› μΏ ν° μ΄λ²¤νΈ",κ΄‘μ£Ό,μ„κµ¬ / μƒλ¬΄ / μ μ¤ν€μ–΄,300000026,200000280,35.1336848,126.85855809999998
72,73,67458,κ΄‘μ£Ό μƒλ¬΄ μ• ν”,λ¨ν…”,motel,35000,40000,β™¥λ¬΄ν•μΏ ν°λ£Έ μ΄μ©μ‹ λ‹¤μλ²μ— μ‚¬μ©ν•  μ μλ” 50% μΏ ν° μ κ³µβ™¥,κ΄‘μ£Ό,μ„κµ¬ / μƒλ¬΄ / μ μ¤ν€μ–΄,300000026,200000280,35.1520133,126.86538109999992
73,74,69311,κ΄‘μ£Ό κΈνΈ λ“λ¦Ό,λ¨ν…”,motel,30000,0,,κ΄‘μ£Ό,μ„κµ¬ / μƒλ¬΄ / μ μ¤ν€μ–΄,300000026,200000280,35.1315384,126.85855939999999
74,75,73129,κ΄‘μ£Ό μƒλ¬΄ ν΄,λ¨ν…”,motel,45000,0,,κ΄‘μ£Ό,μ„κµ¬ / μƒλ¬΄ / μ μ¤ν€μ–΄,300000026,200000280,35.1507486,126.8570841
75,76,80944,κ΄‘μ£Ό μ–‘λ™ μ§,λ¨ν…”,motel,35000,40000,,κ΄‘μ£Ό,μ„κµ¬ / μƒλ¬΄ / μ μ¤ν€μ–΄,300000026,200000280,35.1499076,126.90611050000007
76,77,73085,κ΄‘μ£Ό μƒλ¬΄ ν—λ‹λ¬Έ,λ¨ν…”,motel,35000,0,,κ΄‘μ£Ό,μ„κµ¬ / μƒλ¬΄ / μ μ¤ν€μ–΄,300000026,200000280,35.1519606,126.8640206
77,78,87092,κ΄‘μ£Ό μƒλ¬΄ κ¶μ „,λ¨ν…”,motel,35000,0,,κ΄‘μ£Ό,μ„κµ¬ / μƒλ¬΄ / μ μ¤ν€μ–΄,300000026,200000280,35.15165927079785,126.85741248839142
78,79,69178,κ΄‘μ£Ό μƒλ¬΄ T,λ¨ν…”,motel,30000,0,,κ΄‘μ£Ό,μ„κµ¬ / μƒλ¬΄ / μ μ¤ν€μ–΄,300000026,200000280,35.14912144633042,126.85075915615658
79,80,76744,κ΄‘μ£Ό μƒλ¬΄ νΈν…” μ ν† ν”Όμ•„,λ¨ν…”,motel,30000,30000,λ§¤μΌλ§¤μΌ μ„ μ°©μ ν• μΈμΏ ν° 15% μ΄λ²¤νΈ & μ „ κ°μ‹¤ λ„·ν”λ¦­μ¤ μ‹μ²­κ°€λ¥ν•©λ‹λ‹¤.,κ΄‘μ£Ό,μ„κµ¬ / μƒλ¬΄ / μ μ¤ν€μ–΄,300000026,200000280,35.154622,126.85051939999994
80,81,67923,κ΄‘μ£Ό λ†μ„±λ™ ν¬λ¦¬μ¤νƒ,λ¨ν…”,motel,30000,0,,κ΄‘μ£Ό,μ„κµ¬ / μƒλ¬΄ / μ μ¤ν€μ–΄,300000026,200000280,35.1529565,126.88701000000003
81,82,66989,κ΄‘μ£Ό ν™”μ •λ™ μ¤ν€μ–΄,λ¨ν…”,motel,40000,0,β™¥λ¬΄ν•μΏ ν°λ£Έ μ΄μ©μ‹ λ‹¤μλ²μ— μ‚¬μ©ν• μ μλ” 50%μΏ ν° μ κ³µβ™¥ + 10% μ¦‰μ‹ν• μΈ μΏ ν°κΉμ§€ κΌ­ λ†“μΉμ§€ λ§μ„Έμ”!,κ΄‘μ£Ό,μ„κµ¬ / μƒλ¬΄ / μ μ¤ν€μ–΄,300000026,200000280,35.1578897,126.87974499999996
82,83,67175,κ΄‘μ£Ό κ΄‘μ²λ™ H λ¬΄μΈν…”,λ¨ν…”,motel,40000,50000,,κ΄‘μ£Ό,μ„κµ¬ / μƒλ¬΄ / μ μ¤ν€μ–΄,300000026,200000280,35.1621818,126.8846199
83,84,79342,κ΄‘μ£Ό μƒλ¬΄ μƒμ§€νΈν…”,λ¨ν…”,motel,40000,0,,κ΄‘μ£Ό,μ„κµ¬ / μƒλ¬΄ / μ μ¤ν€μ–΄,300000026,200000280,35.1527077,126.8505518
84,85,80157,κ΄‘μ£Ό ν™”μ •λ™ λ…ΈλΈ”λ μ¤ λΉ„μ§€λ‹μ¤,λ¨ν…”,motel,33000,0,,κ΄‘μ£Ό,μ„κµ¬ / μƒλ¬΄ / μ μ¤ν€μ–΄,300000026,200000280,35.1582,126.880019
85,86,80243,κ΄‘μ£Ό κ΄‘μ²λ™ μ€ν•μ,λ¨ν…”,motel,30000,0,,κ΄‘μ£Ό,μ„κµ¬ / μƒλ¬΄ / μ μ¤ν€μ–΄,300000026,200000280,35.1623385,126.8827766
86,87,67100,κ΄‘μ£Ό μƒλ¬΄ S1 λ¬΄μΈν…”,λ¨ν…”,motel,39000,0,,κ΄‘μ£Ό,μ„κµ¬ / μƒλ¬΄ / μ μ¤ν€μ–΄,300000026,200000280,35.1485122,126.85010579999994
87,88,81883,κ΄‘μ£Ό μƒλ¬΄ μ”¨μ—ν”„(cf),λ¨ν…”,motel,40000,0,,κ΄‘μ£Ό,μ„κµ¬ / μƒλ¬΄ / μ μ¤ν€μ–΄,300000026,200000280,35.1520248,126.8674309
88,89,82561,κ΄‘μ£Ό λ†μ„±λ™ μ‹μ•,λ¨ν…”,motel,35000,0,"1μΈµλ΅λΉ„μ— μ»¤ν”Ό,λ‹¤κ³Ό,μλ£,μ–Όμμ •μκΈ° μ΄μ©κ°€λ¥",κ΄‘μ£Ό,μ„κµ¬ / μƒλ¬΄ / μ μ¤ν€μ–΄,300000026,200000280,35.152500599531514,126.88440354786627
89,90,98975,κ΄‘μ£Ό μƒλ¬΄ λ„λ²„25 κ΄‘μ£Όμƒλ¬΄μ ,λ¨ν…”,motel,50000,45000,,κ΄‘μ£Ό,μ„κµ¬ / μƒλ¬΄ / μ μ¤ν€μ–΄,300000026,200000280,35.15024294014507,126.85515715904812
90,91,72288,κ΄‘μ£Ό μƒλ¬΄ κ·Έλ¦°,λ¨ν…”,motel,35000,0,,κ΄‘μ£Ό,μ„κµ¬ / μƒλ¬΄ / μ μ¤ν€μ–΄,300000026,200000280,35.1500146,126.8594161
91,92,100473,κ΄‘μ£Ό H Avenue κ΄‘μ£ΌκΈνΈμ ,νΈν…”,hotel,58000,136000,,κ΄‘μ£Ό,μ„κµ¬ / μƒλ¬΄ / μ μ¤ν€μ–΄,300000026,200000280,35.13155746323417,126.8588842358129
92,0,82629,κ΄‘μ£Ό ν•λ‚¨ νΈν…” H-EVIAN (μ—μ΄μΉμ—λΉ„μ•™),λ¨ν…”,motel,60000,0,,κ΄‘μ£Ό,κ΄‘μ‚°κµ¬ / μ²¨λ‹¨ / μ†΅μ •μ—­ / ν•λ‚¨,300000026,200000281,35.16094057791262,126.80291438729888
93,1,86565,κ΄‘μ£Ό μ²¨λ‹¨ λΈλΌμ΄λ„νΈ κ΄‘μ£Όμ²¨λ‹¨μ ,λ¨ν…”,motel,100000,0,,κ΄‘μ£Ό,κ΄‘μ‚°κµ¬ / μ²¨λ‹¨ / μ†΅μ •μ—­ / ν•λ‚¨,300000026,200000281,35.219629580518024,126.84942874978897
94,2,67235,κ΄‘μ£Ό ν•λ‚¨ νΈν…” λ”λ©”μΆ…,λ¨ν…”,motel,45000,45000,#λ°°ν‹€κ·ΈλΌμ΄λ“ κ°€λ¥ κ²μ„λ£Έ κµ¬λΉ„(μµκ³ μ‚¬μ–‘ PC) #μ „ κ°μ‹¤ λ°λ§μ‚¬μ§€κΈ° #75μΈμΉ TV κµ¬λΉ„λμ–΄ μλ” κ°μ‹¤ λ³΄μ ,κ΄‘μ£Ό,κ΄‘μ‚°κµ¬ / μ²¨λ‹¨ / μ†΅μ •μ—­ / ν•λ‚¨,300000026,200000281,35.1608553,126.80401280000001
95,3,81023,κ΄‘μ£Ό μ²¨λ‹¨ μ• ν”λ¬΄μΈνΈν…”,λ¨ν…”,motel,35000,0,β¤οΈμ „ κ°μ‹¤ λ„·ν”λ¦­μ¤ μ‹μ²­ κ°€λ¥ / λΉ λ¥Έ μ…μ‹¤ μƒν’ λ³΄μ β¤οΈ,κ΄‘μ£Ό,κ΄‘μ‚°κµ¬ / μ²¨λ‹¨ / μ†΅μ •μ—­ / ν•λ‚¨,300000026,200000281,35.220346071528525,126.8510699741703
96,4,78690,κ΄‘μ£Ό λ…ΈλΈ”μ¤ν…μ΄ νΈν…”,νΈν…”,hotel,91950,230000,,κ΄‘μ£Ό,κ΄‘μ‚°κµ¬ / μ²¨λ‹¨ / μ†΅μ •μ—­ / ν•λ‚¨,300000026,200000281,35.216773,126.849347
97,5,85928,κ΄‘μ£Ό νΈν…” ν•μ΄λΈμΈ,νΈν…”,hotel,100000,400000,,κ΄‘μ£Ό,κ΄‘μ‚°κµ¬ / μ²¨λ‹¨ / μ†΅μ •μ—­ / ν•λ‚¨,300000026,200000281,35.220173,126.848453
98,6,72973,κ΄‘μ£Ό λ”μ΅΄νΈν…”,νΈν…”,hotel,71000,111000,,κ΄‘μ£Ό,κ΄‘μ‚°κµ¬ / μ²¨λ‹¨ / μ†΅μ •μ—­ / ν•λ‚¨,300000026,200000281,35.215878,126.847716
99,7,79799,κ΄‘μ£Ό μ²¨λ‹¨ λ”μλΌ λ¬΄μΈνΈν…”,λ¨ν…”,motel,45000,0,,κ΄‘μ£Ό,κ΄‘μ‚°κµ¬ / μ²¨λ‹¨ / μ†΅μ •μ—­ / ν•λ‚¨,300000026,200000281,35.22093576475377,126.85191130859835
100,8,79290,κ΄‘μ£Ό μ²¨λ‹¨ Soul νΈν…”,λ¨ν…”,motel,60000,0,,κ΄‘μ£Ό,κ΄‘μ‚°κµ¬ / μ²¨λ‹¨ / μ†΅μ •μ—­ / ν•λ‚¨,300000026,200000281,35.2203483,126.8524196
101,9,70542,κ΄‘μ£Ό ν•λ‚¨ MVP λΉ„μ§€λ‹μ¤ νΈν…”,λ¨ν…”,motel,45000,50000,,κ΄‘μ£Ό,κ΄‘μ‚°κµ¬ / μ²¨λ‹¨ / μ†΅μ •μ—­ / ν•λ‚¨,300000026,200000281,35.160957075841125,126.80318176396028
102,10,74565,νƒ‘ν΄λΌμ°λ“ νΈν…” κ΄‘μ£Ό,νΈν…”,hotel,90000,195000,,κ΄‘μ£Ό,κ΄‘μ‚°κµ¬ / μ²¨λ‹¨ / μ†΅μ •μ—­ / ν•λ‚¨,300000026,200000281,35.220438,126.848198
103,12,73427,κ΄‘μ£Ό λ§λ“λ¦¬λ“ νΈν…”,νΈν…”,hotel,127000,198000,,κ΄‘μ£Ό,κ΄‘μ‚°κµ¬ / μ²¨λ‹¨ / μ†΅μ •μ—­ / ν•λ‚¨,300000026,200000281,35.138613,126.793498
104,14,89214,κ΄‘μ£Ό λΈλΌμ΄λ„νΈ νΈν…” μ²¨λ‹¨μ ,νΈν…”,hotel,0,0,,κ΄‘μ£Ό,κ΄‘μ‚°κµ¬ / μ²¨λ‹¨ / μ†΅μ •μ—­ / ν•λ‚¨,300000026,200000281,35.219629580518024,126.84942874978897
105,15,73995,κ΄‘μ£Ό μ•„μ°λΌ νΈν…”,νΈν…”,hotel,104000,198000,,κ΄‘μ£Ό,κ΄‘μ‚°κµ¬ / μ²¨λ‹¨ / μ†΅μ •μ—­ / ν•λ‚¨,300000026,200000281,35.138344,126.79286
106,16,87194,κ΄‘μ£Ό νΈν…” μ¨λ°‹,νΈν…”,hotel,69000,180000,,κ΄‘μ£Ό,κ΄‘μ‚°κµ¬ / μ²¨λ‹¨ / μ†΅μ •μ—­ / ν•λ‚¨,300000026,200000281,35.160712,126.802219
107,17,81072,νΈν…” μ—¬κΈ°μ–΄λ• κ΄‘μ£Όν•λ‚¨μ ,νΈν…”,hotel,0,0,,κ΄‘μ£Ό,κ΄‘μ‚°κµ¬ / μ²¨λ‹¨ / μ†΅μ •μ—­ / ν•λ‚¨,300000026,200000281,35.160779,126.804965
108,18,75661,μ— νμ΄μ–΄κ΄€κ΄‘νΈν…”,2μ„±κΈ‰,hotel,80000,100000,,κ΄‘μ£Ό,κ΄‘μ‚°κµ¬ / μ²¨λ‹¨ / μ†΅μ •μ—­ / ν•λ‚¨,300000026,200000281,35.216047,126.846272
109,19,98851,λ„λ²„25 κ΄‘μ£Ό μ²¨λ‹¨μ ,νΈν…”,hotel,70000,90000,,κ΄‘μ£Ό,κ΄‘μ‚°κµ¬ / μ²¨λ‹¨ / μ†΅μ •μ—­ / ν•λ‚¨,300000026,200000281,35.22051724055119,126.84775860207013
110,20,78201,κ΄‘μ£Ό μΌλ²μ§€ λΉ„μ¦λ‹μ¤ νΈν…”,νΈν…”,hotel,47000,47000,,κ΄‘μ£Ό,κ΄‘μ‚°κµ¬ / μ²¨λ‹¨ / μ†΅μ •μ—­ / ν•λ‚¨,300000026,200000281,35.220495,126.843475
111,22,76237,κ΄‘μ£Ό κ΄‘μ‚°κµ¬ ν•λ‚¨ ν•μ΄λ“νΈν…”,νΈν…”,hotel,95000,95000,,κ΄‘μ£Ό,κ΄‘μ‚°κµ¬ / μ²¨λ‹¨ / μ†΅μ •μ—­ / ν•λ‚¨,300000026,200000281,35.179428,126.803476
112,23,85876,κ΄‘μ£Ό μ²¨λ‹¨ νΈν…” ν•μ΄λΈ μΈ,λ¨ν…”,motel,90000,0,β£οΈ 2022.03 GRAND OPEN β£οΈ λ„·ν”λ¦­μ¤/λ„ν•μ¤μ•λ§μμ/μ¤νƒ€μΌλ¬/μ•μ΅°/κ°μ‹¤λ¶€λ¶„λΉ„μΉ,κ΄‘μ£Ό,κ΄‘μ‚°κµ¬ / μ²¨λ‹¨ / μ†΅μ •μ—­ / ν•λ‚¨,300000026,200000281,35.22016981817685,126.84844995552226
113,24,78439,κ΄‘μ£Ό μ²¨λ‹¨ μμ™„,λ¨ν…”,motel,60000,0,,κ΄‘μ£Ό,κ΄‘μ‚°κµ¬ / μ²¨λ‹¨ / μ†΅μ •μ—­ / ν•λ‚¨,300000026,200000281,35.185459981094496,126.83632584029988
114,25,87318,κ΄‘μ£Ό ν•λ‚¨ HOTEL SUMMIT (νΈν…” μ¨λ°‹),λ¨ν…”,motel,69000,0,,κ΄‘μ£Ό,κ΄‘μ‚°κµ¬ / μ²¨λ‹¨ / μ†΅μ •μ—­ / ν•λ‚¨,300000026,200000281,35.16069561592501,126.80222356747285
115,27,85921,κ΄‘μ£Ό ν•λ‚¨ λ² μ¤νΈμ„ΈλΈ νΈν…”,λ¨ν…”,motel,35000,0,μ†λ°©μ•μ „μ› κµμ΅μƒ μ™λ°• ν• μΈ νΉμ „,κ΄‘μ£Ό,κ΄‘μ‚°κµ¬ / μ²¨λ‹¨ / μ†΅μ •μ—­ / ν•λ‚¨,300000026,200000281,35.160992211939856,126.80246784627798
116,28,80755,κ΄‘μ£Ό μ²¨λ‹¨ HOTEL W,λ¨ν…”,motel,50000,0,μ•Όκ°„ λ€μ‹¤ μ΄λ²¤νΈ μ§„ν–‰ μ¤‘!,κ΄‘μ£Ό,κ΄‘μ‚°κµ¬ / μ²¨λ‹¨ / μ†΅μ •μ—­ / ν•λ‚¨,300000026,200000281,35.2187138,126.8480174
117,29,69766,κ΄‘μ£Ό μ†΅μ •μ—­ νΈν…” λ”μ†”,λ¨ν…”,motel,77000,0,λ¨λ“  μ™λ°• μ΄μ© κ³ κ°λ‹μ—κ² μ΅°μ‹μ΄ μ λ£ν™”λ΅ μ κ³µλ©λ‹λ‹¤,κ΄‘μ£Ό,κ΄‘μ‚°κµ¬ / μ²¨λ‹¨ / μ†΅μ •μ—­ / ν•λ‚¨,300000026,200000281,35.142153,126.79457330000002
118,30,78834,κ΄‘μ£Ό μ†΅μ •λ™ λ§λ“λ¦¬λ“ νΈν…”,λ¨ν…”,motel,123000,0,,κ΄‘μ£Ό,κ΄‘μ‚°κµ¬ / μ²¨λ‹¨ / μ†΅μ •μ—­ / ν•λ‚¨,300000026,200000281,35.1387674,126.79353600000002
119,31,79677,κ΄‘μ£Ό ν•λ‚¨ μΌλ²μ§€ λΉ„μ§€λ‹μ¤ νΈν…”,λ¨ν…”,motel,0,0,"*λ€μ‹¤μ„ μ΄μν•μ§€ μ•λ” ν”„λ¦¬λ―Έμ—„ λΉ„μ§€λ‹μ¤ νΈν…”, μΌλ²μ§€ #μ „ κ°μ‹¤ μ¤νƒ€μΌλ¬ κµ¬λΉ„ #νΈν…”μ‹ μ΄μ #μ „ κ°μ‹¤ LG ν“¨λ¦¬μΌ€μ–΄ κ³µκΈ°μ²­μ •κΈ° μ„¤μΉ",κ΄‘μ£Ό,κ΄‘μ‚°κµ¬ / μ²¨λ‹¨ / μ†΅μ •μ—­ / ν•λ‚¨,300000026,200000281,35.1625766,126.8033581
120,32,69763,κ΄‘μ£Ό μ²¨λ‹¨ λ”νΈν…”,λ¨ν…”,motel,0,0,Lg μ¤νƒ€μΌλ¬.μµκ³ κΈ‰ μ‹λ¬μ¤ ν”„λ¦¬λ―Έμ—„ λ§¤νΈλ¦¬μ¤,κ΄‘μ£Ό,κ΄‘μ‚°κµ¬ / μ²¨λ‹¨ / μ†΅μ •μ—­ / ν•λ‚¨,300000026,200000281,35.2198391,126.84519410000007
121,33,89386,κ΄‘μ£Ό ν•λ‚¨ ν•μ΄λ“ κ΄‘μ£Όν•λ‚¨,λ¨ν…”,motel,60000,0,,κ΄‘μ£Ό,κ΄‘μ‚°κµ¬ / μ²¨λ‹¨ / μ†΅μ •μ—­ / ν•λ‚¨,300000026,200000281,35.17948505647778,126.80345238305794
122,34,97776,κ΄‘μ£Ό μ²¨λ‹¨ νΈν…” ν† λ§ν† (Hotel Tomato),λ¨ν…”,motel,40000,40000,,κ΄‘μ£Ό,κ΄‘μ‚°κµ¬ / μ²¨λ‹¨ / μ†΅μ •μ—­ / ν•λ‚¨,300000026,200000281,35.21906231074089,126.84698470776848
123,35,79465,κ΄‘μ£Ό ν•λ‚¨ μΈ λΉ„μ§€λ‹μ¤ νΈν…”,λ¨ν…”,motel,65000,0,,κ΄‘μ£Ό,κ΄‘μ‚°κµ¬ / μ²¨λ‹¨ / μ†΅μ •μ—­ / ν•λ‚¨,300000026,200000281,35.1790965,126.8039171
124,36,78938,κ΄‘μ£Ό μ²¨λ‹¨ μλΌ νΈν…”,λ¨ν…”,motel,55000,0,"μ „κ°μ‹¤ λ„·ν”λ¦­μ¤ μ‹μ²­κ°€λ¥,μ™λ°•μ‹ μ΅°μ‹ μ κ³µ",κ΄‘μ£Ό,κ΄‘μ‚°κµ¬ / μ²¨λ‹¨ / μ†΅μ •μ—­ / ν•λ‚¨,300000026,200000281,35.219463,126.84548359999997
125,37,73696,κ΄‘μ£Ό μ²¨λ‹¨ ν¬κ·Έλ‹,λ¨ν…”,motel,40000,0,,κ΄‘μ£Ό,κ΄‘μ‚°κµ¬ / μ²¨λ‹¨ / μ†΅μ •μ—­ / ν•λ‚¨,300000026,200000281,35.2164026,126.84766790000003
126,38,72419,κ΄‘μ£Ό ν•λ‚¨ YAJA κ΄‘μ£Όν•λ‚¨μ  (κ΄‘μ£Όκ΄‘μ—­μ‹),λ¨ν…”,motel,50000,0,,κ΄‘μ£Ό,κ΄‘μ‚°κµ¬ / μ²¨λ‹¨ / μ†΅μ •μ—­ / ν•λ‚¨,300000026,200000281,35.160683,126.80198859999996
127,39,79495,κ΄‘μ£Ό μ†΅μ •λ™ μ•„μ°λΌ νΈν…”,λ¨ν…”,motel,100000,0,,κ΄‘μ£Ό,κ΄‘μ‚°κµ¬ / μ²¨λ‹¨ / μ†΅μ •μ—­ / ν•λ‚¨,300000026,200000281,35.1383439,126.7928602
128,40,80967,κ΄‘μ£Ό μ²¨λ‹¨ W λ¬΄μΈνΈν…”,λ¨ν…”,motel,70000,70000,# ν¬μΈνΈμ λ¦½ μ΄λ²¤νΈ,κ΄‘μ£Ό,κ΄‘μ‚°κµ¬ / μ²¨λ‹¨ / μ†΅μ •μ—­ / ν•λ‚¨,300000026,200000281,35.2151611,126.84538329999998
129,41,92008,κ΄‘μ£Ό μ²¨λ‹¨ λ„λ²„25 κ΄‘μ£Όμ²¨λ‹¨μ ,λ¨ν…”,motel,55000,0,,κ΄‘μ£Ό,κ΄‘μ‚°κµ¬ / μ²¨λ‹¨ / μ†΅μ •μ—­ / ν•λ‚¨,300000026,200000281,35.22051724055119,126.84775860207013
130,42,82132,κ΄‘μ£Ό μ²¨λ‹¨ λ²¤ν‹€λ¦¬ νΈν…”,λ¨ν…”,motel,70000,0,β¨μ „κ°μ‹¤ λ„·ν”λ¦­μ¤&μ¤νμ›”ν’€ μ•μ΅°&μ¤νƒ€μΌλ¬ μ΄μ© κ°€λ¥β¨,κ΄‘μ£Ό,κ΄‘μ‚°κµ¬ / μ²¨λ‹¨ / μ†΅μ •μ—­ / ν•λ‚¨,300000026,200000281,35.22074403117818,126.851524104012
131,43,74197,κ΄‘μ£Ό ν•λ‚¨ νΈν…” λ”ν…λΌμ¤,λ¨ν…”,motel,50000,60000,"ν΄κ°€ μ¥λ³‘ μ™λ°•λΉ„ 10%(ν† μ”μΌ μ μ™Έ) ν• μΈ,μ―λ¶ λ°”λ² ν κ°€λ¥, μ¤νƒ€μΌλ¬ μ™„λΉ„  + λ§¥λ„λ‚ λ“ λ§¥λ¨λ‹ μ΅°μ‹ μ κ³µ (ν† ,μΌ,κ³µν΄μΌμ μ™Έ) - μ²΄ν¬μΈ μ‹ ν”„λ΅ νΈλ΅ κΌ­ λ¬Έμλ°”λλ‹λ‹¤.",κ΄‘μ£Ό,κ΄‘μ‚°κµ¬ / μ²¨λ‹¨ / μ†΅μ •μ—­ / ν•λ‚¨,300000026,200000281,35.1604793,126.80416790000004
132,44,78588,κ΄‘μ£Ό ν•λ‚¨ μ–΄λ°μ¤ν…μ΄ νΈν…”,λ¨ν…”,motel,50000,50000,,κ΄‘μ£Ό,κ΄‘μ‚°κµ¬ / μ²¨λ‹¨ / μ†΅μ •μ—­ / ν•λ‚¨,300000026,200000281,35.1610209,126.80607510000004
133,45,73213,κ΄‘μ£Ό ν•λ‚¨ μ¬λ λΉ„μ§€λ‹μ¤νΈν…”,λ¨ν…”,motel,0,0,"μ „κ°μ‹¤ λ°©μ—­ / ν•μ‹λ·”ν μ κ³µ / λ“λΌμ΄λΈ(1μ£Όμ°¨1κ°μ‹¤) λ€μ‹¤,μ™λ°• μμ•½κ°€λ¥",κ΄‘μ£Ό,κ΄‘μ‚°κµ¬ / μ²¨λ‹¨ / μ†΅μ •μ—­ / ν•λ‚¨,300000026,200000281,35.1626654,126.80355899999995
134,46,74370,κ΄‘μ£Ό μ²¨λ‹¨ λ” μ‹ν‹°νΈν…”,λ¨ν…”,motel,45000,55000,μ΄λ―Έμ„Έλ¨Όμ§€ μ „κ°μ‹¤ κ³µκΈ°μ²­μ •κΈ° μ΅°μ‹μ κ³µ(λ¬΄ν•μ κ³µ)/λ¬΄ν•λ€μ‹¤,κ΄‘μ£Ό,κ΄‘μ‚°κµ¬ / μ²¨λ‹¨ / μ†΅μ •μ—­ / ν•λ‚¨,300000026,200000281,35.2202857,126.84816539999997
135,47,73028,κ΄‘μ£Ό μ²¨λ‹¨ λ”μ΅΄νΈν…”,λ¨ν…”,motel,71000,0,κ΄‘μ£Όκµ­λ¦½κ³Όν•™κ΄€ λ° κ΄‘μ£ΌλΉ„μ—”λ‚ λ ν–‰μ‚¬μ¥ μ°¨λ‰ 20λ¶„ λ‚΄,κ΄‘μ£Ό,κ΄‘μ‚°κµ¬ / μ²¨λ‹¨ / μ†΅μ •μ—­ / ν•λ‚¨,300000026,200000281,35.2159288,126.84766919999993
136,48,70482,κ΄‘μ£Ό ν•λ‚¨ HOTEL E,λ¨ν…”,motel,45000,0,,κ΄‘μ£Ό,κ΄‘μ‚°κµ¬ / μ²¨λ‹¨ / μ†΅μ •μ—­ / ν•λ‚¨,300000026,200000281,35.1629926,126.8054513
137,49,85983,κ΄‘μ£Ό ν•λ‚¨ Hotel STAY35,λ¨ν…”,motel,45000,0,,κ΄‘μ£Ό,κ΄‘μ‚°κµ¬ / μ²¨λ‹¨ / μ†΅μ •μ—­ / ν•λ‚¨,300000026,200000281,35.16084295375289,126.80461697935715
138,50,67181,κ΄‘μ£Ό μ²¨λ‹¨ μ•„λ°”νƒ€νΈν…”,λ¨ν…”,motel,35000,0,λ„·ν”λ¦­μ¤ λ¬΄λ£ μ‹μ²­!! λ¬΄ν•λ€μ‹¤μ¤ν”: 10μ‹~21μ‹ λ§κ° (μµλ€10μ‹κ°„)  25000μ›,κ΄‘μ£Ό,κ΄‘μ‚°κµ¬ / μ²¨λ‹¨ / μ†΅μ •μ—­ / ν•λ‚¨,300000026,200000281,35.2186277,126.8449531
139,51,69585,κ΄‘μ£Ό μ²¨λ‹¨ HOTEL VIEW(λ·°),λ¨ν…”,motel,45000,0,,κ΄‘μ£Ό,κ΄‘μ‚°κµ¬ / μ²¨λ‹¨ / μ†΅μ •μ—­ / ν•λ‚¨,300000026,200000281,35.2168164,126.84767529999999
140,52,78742,κ΄‘μ£Ό μ²¨λ‹¨ λ…ΈλΈ”μ¤ν…μ΄ νΈν…”,λ¨ν…”,motel,88890,0,,κ΄‘μ£Ό,κ΄‘μ‚°κµ¬ / μ²¨λ‹¨ / μ†΅μ •μ—­ / ν•λ‚¨,300000026,200000281,35.2167731,126.84934729999998
141,53,75450,κ΄‘μ£Ό ν•λ‚¨ μ΄λλ¦Ό λΉ„μ§€λ‹μ¤νΈν…”,λ¨ν…”,motel,40000,0,μ „κ°μ‹¤ λ¬΄λ£ λ„·ν”λ¦­μ¤,κ΄‘μ£Ό,κ΄‘μ‚°κµ¬ / μ²¨λ‹¨ / μ†΅μ •μ—­ / ν•λ‚¨,300000026,200000281,35.1610978,126.80205939999996
142,54,81628,κ΄‘μ£Ό μ²¨λ‹¨ SJ λ¬΄μΈνΈν…”,λ¨ν…”,motel,35000,0,,κ΄‘μ£Ό,κ΄‘μ‚°κµ¬ / μ²¨λ‹¨ / μ†΅μ •μ—­ / ν•λ‚¨,300000026,200000281,35.2201409,126.8514636
143,55,70502,κ΄‘μ£Ό μ²¨λ‹¨ 1λ²μ§€ λ¬΄μΈν…”,λ¨ν…”,motel,35000,0,,κ΄‘μ£Ό,κ΄‘μ‚°κµ¬ / μ²¨λ‹¨ / μ†΅μ •μ—­ / ν•λ‚¨,300000026,200000281,35.2201701,126.85078550000003
144,56,72536,κ΄‘μ£Ό μ²¨λ‹¨ νλΌλ¦¬ νΈν…”,λ¨ν…”,motel,70000,0,β–¶ 3μΈµ μΉ΄νν…λ¦¬μ•„μ—μ„ μ΅°μ‹ ν•μ •μ‹ μ„λΉ„μ¤λ¥Ό μ κ³µν•©λ‹λ‹¤ :) / μ§μ ‘ μ΅°λ¦¬ν• ν•μ •μ‹ μ κ³µ !!,κ΄‘μ£Ό,κ΄‘μ‚°κµ¬ / μ²¨λ‹¨ / μ†΅μ •μ—­ / ν•λ‚¨,300000026,200000281,35.220956,126.85136369999998
145,57,77764,κ΄‘μ£Ό μ²¨λ‹¨ μΌλ²μ§€νΈν…”,λ¨ν…”,motel,45000,0,"μΉ΄νν…λ¦¬μ•„ μ΄μ, μ¤νƒ€μΌλ¬/κ³µκΈ°μ²­μ •κΈ° κµ¬λΉ„/λ„·ν”λ¦­μ¤ μ‹μ²­κ°€λ¥",κ΄‘μ£Ό,κ΄‘μ‚°κµ¬ / μ²¨λ‹¨ / μ†΅μ •μ—­ / ν•λ‚¨,300000026,200000281,35.2204948,126.84347539999999
146,58,82115,κ΄‘μ£Ό μ²¨λ‹¨ μΈ λ¬΄μΈν…”,λ¨ν…”,motel,50000,0,#λ¬΄ν•λ€μ‹¤/λ„·ν”λ¦­μ¤ μ‹μ²­/κ³ μ‚¬μ–‘ μ»¤ν” PCλ£Έ κµ¬λΉ„,κ΄‘μ£Ό,κ΄‘μ‚°κµ¬ / μ²¨λ‹¨ / μ†΅μ •μ—­ / ν•λ‚¨,300000026,200000281,35.215756921802914,126.84470078525514
147,59,68032,κ΄‘μ£Ό μ²¨λ‹¨ λ§λ£¨ λ“λΌμ΄λΈμΈ νΈν…”,λ¨ν…”,motel,50000,50000,,κ΄‘μ£Ό,κ΄‘μ‚°κµ¬ / μ²¨λ‹¨ / μ†΅μ •μ—­ / ν•λ‚¨,300000026,200000281,35.2187126,126.84829030000003
148,60,73767,κ΄‘μ£Ό μ²¨λ‹¨ OX λ“λΌμ΄λΈμΈ λ¬΄μΈν…”,λ¨ν…”,motel,40000,50000,,κ΄‘μ£Ό,κ΄‘μ‚°κµ¬ / μ²¨λ‹¨ / μ†΅μ •μ—­ / ν•λ‚¨,300000026,200000281,35.2210662,126.84279859999992
149,61,73583,κ΄‘μ£Ό μ²¨λ‹¨ μμ¤λ¬΄μΈνΈν…”,λ¨ν…”,motel,50000,0,,κ΄‘μ£Ό,κ΄‘μ‚°κµ¬ / μ²¨λ‹¨ / μ†΅μ •μ—­ / ν•λ‚¨,300000026,200000281,35.21683,126.84472410000001
150,62,66816,κ΄‘μ£Ό ν•λ‚¨ λΈ”λ£¨,λ¨ν…”,motel,40000,50000,,κ΄‘μ£Ό,κ΄‘μ‚°κµ¬ / μ²¨λ‹¨ / μ†΅μ •μ—­ / ν•λ‚¨,300000026,200000281,35.16306,126.8047292
151,63,73109,κ΄‘μ£Ό ν•λ‚¨ ν,λ¨ν…”,motel,30000,40000,λ¬΄ν•μΏ ν°λ£Έ μμ•½μ‹ λ‹¤μλ²μ— μ‚¬μ©ν• μ μλ” 50%μΏ ν° μ κ³µ,κ΄‘μ£Ό,κ΄‘μ‚°κµ¬ / μ²¨λ‹¨ / μ†΅μ •μ—­ / ν•λ‚¨,300000026,200000281,35.1608396,126.80421739999997
152,64,67512,κ΄‘μ£Ό ν•λ‚¨ μλ°” λ¬΄μΈν…”,λ¨ν…”,motel,44000,0,,κ΄‘μ£Ό,κ΄‘μ‚°κµ¬ / μ²¨λ‹¨ / μ†΅μ •μ—­ / ν•λ‚¨,300000026,200000281,35.1795372,126.80290930000001
153,65,67591,κ΄‘μ£Ό ν•λ‚¨ λΉ„μ§€λ‹μ¤νΈν…” μ•Όν›„,λ¨ν…”,motel,35000,40000,,κ΄‘μ£Ό,κ΄‘μ‚°κµ¬ / μ²¨λ‹¨ / μ†΅μ •μ—­ / ν•λ‚¨,300000026,200000281,35.1631902,126.80329660000007
154,66,68692,κ΄‘μ£Ό μ²¨λ‹¨ νΈν…” μ΄μ΄μ¤,λ¨ν…”,motel,50000,0,"75μΈμΉ TV, λ„·ν”λ¦­μ¤, λ§¤μΌ νƒμ·¨μ†λ…",κ΄‘μ£Ό,κ΄‘μ‚°κµ¬ / μ²¨λ‹¨ / μ†΅μ •μ—­ / ν•λ‚¨,300000026,200000281,35.2160717,126.8465463
155,67,78436,κ΄‘μ£Ό μ²¨λ‹¨ μ‹ κ°€,λ¨ν…”,motel,40000,0,,κ΄‘μ£Ό,κ΄‘μ‚°κµ¬ / μ²¨λ‹¨ / μ†΅μ •μ—­ / ν•λ‚¨,300000026,200000281,35.1855359,126.83667620000006
156,68,67087,κ΄‘μ£Ό ν•λ‚¨ λ°λ¦¬,λ¨ν…”,motel,30000,0,,κ΄‘μ£Ό,κ΄‘μ‚°κµ¬ / μ²¨λ‹¨ / μ†΅μ •μ—­ / ν•λ‚¨,300000026,200000281,35.1606173,126.80265499999996
157,69,66815,κ΄‘μ£Ό ν•λ‚¨ ν”„λΌλ‹¤,λ¨ν…”,motel,35000,35000,,κ΄‘μ£Ό,κ΄‘μ‚°κµ¬ / μ²¨λ‹¨ / μ†΅μ •μ—­ / ν•λ‚¨,300000026,200000281,35.1632212,126.80300209999996
158,70,70535,κ΄‘μ£Ό ν•λ‚¨ T,λ¨ν…”,motel,37000,0,,κ΄‘μ£Ό,κ΄‘μ‚°κµ¬ / μ²¨λ‹¨ / μ†΅μ •μ—­ / ν•λ‚¨,300000026,200000281,35.1630802,126.80451249999999
159,71,74194,κ΄‘μ£Ό μ†΅μ •μ—­ μ¤νλ“,λ¨ν…”,motel,40000,50000,,κ΄‘μ£Ό,κ΄‘μ‚°κµ¬ / μ²¨λ‹¨ / μ†΅μ •μ—­ / ν•λ‚¨,300000026,200000281,35.1346188,126.78631940000002
160,72,68451,κ΄‘μ£Ό ν•λ‚¨ μ›,λ¨ν…”,motel,35000,40000,λ¬΄ν•μΏ ν°λ£Έ μμ•½μ‹ λ‹¤μλ²μ— μ‚¬μ©ν• μ μλ” 50%μΏ ν° μ κ³µ,κ΄‘μ£Ό,κ΄‘μ‚°κµ¬ / μ²¨λ‹¨ / μ†΅μ •μ—­ / ν•λ‚¨,300000026,200000281,35.1631004,126.80429570000001
161,74,73689,κ΄‘μ£Ό μ²¨λ‹¨ SUN(μ¬) νΈν…”,λ¨ν…”,motel,35000,0,,κ΄‘μ£Ό,κ΄‘μ‚°κµ¬ / μ²¨λ‹¨ / μ†΅μ •μ—­ / ν•λ‚¨,300000026,200000281,35.2168281,126.8451407
162,75,68439,κ΄‘μ£Ό μ²¨λ‹¨ ν”ΌμΉ΄μ†,λ¨ν…”,motel,50000,0,,κ΄‘μ£Ό,κ΄‘μ‚°κµ¬ / μ²¨λ‹¨ / μ†΅μ •μ—­ / ν•λ‚¨,300000026,200000281,35.2193984,126.8470334
163,77,85100,κ΄‘μ£Ό μ²¨λ‹¨ μ¤νƒ€ λ¬΄μΈν…”,λ¨ν…”,motel,50000,0,,κ΄‘μ£Ό,κ΄‘μ‚°κµ¬ / μ²¨λ‹¨ / μ†΅μ •μ—­ / ν•λ‚¨,300000026,200000281,35.21577572897123,126.84500444424191
164,78,88616,κ΄‘μ£Ό μ²¨λ‹¨ νƒλ¥,λ¨ν…”,motel,50000,0,,κ΄‘μ£Ό,κ΄‘μ‚°κµ¬ / μ²¨λ‹¨ / μ†΅μ •μ—­ / ν•λ‚¨,300000026,200000281,35.18579457897023,126.83664814197401
165,79,87540,κ΄‘μ£Ό μ†΅μ •λ™ νμ¤ν…”,λ¨ν…”,motel,40000,50000,β™΅κ΄‘μ£Ό μ†΅μ •μ—­(KTX)κΉμ§€ λ„λ³΄λ΅ 2λ¶„κ±°λ¦¬μ— μ„μΉβ™΅,κ΄‘μ£Ό,κ΄‘μ‚°κµ¬ / μ²¨λ‹¨ / μ†΅μ •μ—­ / ν•λ‚¨,300000026,200000281,35.135261270913986,126.78802957203993
166,80,84631,κ΄‘μ£Ό ν•λ‚¨ μ λ‹ν¬,λ¨ν…”,motel,35000,40000,,κ΄‘μ£Ό,κ΄‘μ‚°κµ¬ / μ²¨λ‹¨ / μ†΅μ •μ—­ / ν•λ‚¨,300000026,200000281,35.160982080582016,126.80270605218307
167,81,99846,κ΄‘μ£Ό μ²¨λ‹¨ λΈμ΄νΈν…”(V HOTEL),λ¨ν…”,motel,60000,60000,,κ΄‘μ£Ό,κ΄‘μ‚°κµ¬ / μ²¨λ‹¨ / μ†΅μ •μ—­ / ν•λ‚¨,300000026,200000281,35.2153787,126.84766519999994
168,82,92645,κ΄‘μ£Ό ν•λ‚¨ νλΈ,λ¨ν…”,motel,40000,0,,κ΄‘μ£Ό,κ΄‘μ‚°κµ¬ / μ²¨λ‹¨ / μ†΅μ •μ—­ / ν•λ‚¨,300000026,200000281,35.1632426,126.80277239999998
169,83,69384,κ΄‘μ£Ό μ²¨λ‹¨ K,λ¨ν…”,motel,40000,50000,,κ΄‘μ£Ό,κ΄‘μ‚°κµ¬ / μ²¨λ‹¨ / μ†΅μ •μ—­ / ν•λ‚¨,300000026,200000281,35.2191477,126.8494488
170,84,87432,κ΄‘μ£Ό μ²¨λ‹¨ μ†”,λ¨ν…”,motel,0,0,"β”οΈνΈλ¦¬ν• λΉ„λ€λ©΄ Check-in ,ν‚¤μ¤μ¤ν¬ μ„¤μΉμ™„λ£β”οΈ",κ΄‘μ£Ό,κ΄‘μ‚°κµ¬ / μ²¨λ‹¨ / μ†΅μ •μ—­ / ν•λ‚¨,300000026,200000281,35.22083078243389,126.84344939311187
171,85,69254,κ΄‘μ£Ό μ²¨λ‹¨ μΏ¨,λ¨ν…”,motel,0,0,,κ΄‘μ£Ό,κ΄‘μ‚°κµ¬ / μ²¨λ‹¨ / μ†΅μ •μ—­ / ν•λ‚¨,300000026,200000281,35.2188175,126.84494210000003
172,86,69333,κ΄‘μ£Ό μ²¨λ‹¨ ν—¤μ§€μ¤,λ¨ν…”,motel,0,0,β¨λ„“μ€ μ£Όμ°¨μ¥ λ³΄μ β¨,κ΄‘μ£Ό,κ΄‘μ‚°κµ¬ / μ²¨λ‹¨ / μ†΅μ •μ—­ / ν•λ‚¨,300000026,200000281,35.2193879,126.8494505
173,0,87571,κ΄‘μ£Ό μ¶©μ¥λ΅ λΈλΌμ΄λ„νΈ κ΄‘μ£Όμ¶©μ¥λ΅μ ,λ¨ν…”,motel,55000,0,,κ΄‘μ£Ό,λ™κµ¬ / λ™λ…λ™ / μ¶©μ¥λ΅ / λ‚¨κµ¬,300000026,200000282,35.147324439114136,126.91284920934237
174,1,78822,κ΄‘μ£Ό μ£Όμ›”λ™ μ–΄μΈ λ¶€λ ν¬ νΈν…”,λ¨ν…”,motel,55000,0,"9μ›” μ¤‘μ μ¤νƒ λ°”μ΄λ―Έλ£Έ λ¦¬λ§μΈλ“ μ¤ν” μμ •, μ„Έμ¤μ½” λ§΄λ²„μ¤μ΅΄, μ „κ°μ‹¤ λ„·ν”λ¦­μ¤,μ›¨μ΄λΈμ¨ λ¬΄λ£ μ‹μ²­κ°€λ¥(κΈ°κ°€μ§€λ‹2), μ „κ°μ‹¤ κΈ°κ°€5 μΈν„°λ„·(λ°°ν‹€κ·ΈλΌμ΄λ“ κ°€λ¥), LG ν“¨λ¦¬μΌ€μ–΄ κµ¬λΉ„",κ΄‘μ£Ό,λ™κµ¬ / λ™λ…λ™ / μ¶©μ¥λ΅ / λ‚¨κµ¬,300000026,200000282,35.1327345,126.90591029999996
175,2,72970,κ΄‘μ£Ό μ¶©μ¥λ΅ νΈν…” STAY,λ¨ν…”,motel,60000,0,"μ•„μΉ¨λ°°κ°€ λ“ λ“ ν•΄μ•Ό, ν•λ£¨κ°€ λ“ λ“ ! μ΅°μ‹μ„λΉ„μ¤ μ κ³µ(2μΈµ μΉ΄νν…λ¦¬μ•„)",κ΄‘μ£Ό,λ™κµ¬ / λ™λ…λ™ / μ¶©μ¥λ΅ / λ‚¨κµ¬,300000026,200000282,35.1493151,126.91072159999999
176,3,84508,κ΄‘μ£Ό λ°±μ΄λ™ νΈν…” ν¬λ μ¤νΈ,λ¨ν…”,motel,55000,55000,μ„Έμ¤μ½”,κ΄‘μ£Ό,λ™κµ¬ / λ™λ…λ™ / μ¶©μ¥λ΅ / λ‚¨κµ¬,300000026,200000282,35.13411005870568,126.90112770845654
177,4,69439,κ΄‘μ£Ό μ¶©μ¥λ΅ νΈν…” λ“€(HOTEL DUU),λ¨ν…”,motel,50000,0,,κ΄‘μ£Ό,λ™κµ¬ / λ™λ…λ™ / μ¶©μ¥λ΅ / λ‚¨κµ¬,300000026,200000282,35.149010383932676,126.91085557471625
178,5,88270,κ΄‘μ£Ό λ¬΄λ“±μ‚° YAJA κ΄‘μ£Όλ¬΄λ“±μ‚°μ ,λ¨ν…”,motel,44000,0,,κ΄‘μ£Ό,λ™κµ¬ / λ™λ…λ™ / μ¶©μ¥λ΅ / λ‚¨κµ¬,300000026,200000282,35.13153068258199,126.93840552238656
179,6,83761,κ΄‘μ£Ό μ¶©μ¥λ΅ νΈν…” νΈμ‚¬,λ¨ν…”,motel,45000,0,π’•μ¤ν” μ΄λ²¤νΈπ’• μ¶©μ¥λ΅ μΈκ·Ό μ™λ°•μ—…μ† μ¤‘ μ£Όμ°¨μ‹μ„¤ ν™•λ³΄ (μµλ€ 30λ€κΉμ§€ κ°€λ¥)π’• (β… μ£Όμ°¨μ¥ μ£Όμ†: κ΄‘μ£Όκ΄‘μ—­μ‹ λ™κµ¬ λ¶λ΅λ™ 7λ²μ§€ (λ€μ„±μ£Όμ°¨μ¥)β… μ΄μ© μ‹κ°„ μ•λ‚΄ μ°Έκ³ ),κ΄‘μ£Ό,λ™κµ¬ / λ™λ…λ™ / μ¶©μ¥λ΅ / λ‚¨κµ¬,300000026,200000282,35.14645162214255,126.91543858303389
180,7,68729,κ΄‘μ£Ό μ¶©μ¥λ΅ νΈν…” μƒ¤λ¥΄λ§(SHARMANT),λ¨ν…”,motel,37000,50000,,κ΄‘μ£Ό,λ™κµ¬ / λ™λ…λ™ / μ¶©μ¥λ΅ / λ‚¨κµ¬,300000026,200000282,35.1467086,126.91410280000002
181,8,68754,κ΄‘μ£Ό μ¶©μ¥λ΅ νΈν…” λ¦¬λ² λ΅(Hotel Ribero),λ¨ν…”,motel,45000,0,"β…λ¬΄λ£ μν™”ν‹°μΌ“ μ΄λ²¤νΈβ…VIPλ£Έ μ΄μƒ μ™λ°• μμ•½ κ³ κ°λ‹ μν™”κ΄€ 1μΈ λ¬΄λ£ μλ§¤κ¶ μ¦μ •!!! (cgv,λ΅―λ°μ‹λ„¤λ§,λ©”κ°€λ°•μ¤)",κ΄‘μ£Ό,λ™κµ¬ / λ™λ…λ™ / μ¶©μ¥λ΅ / λ‚¨κµ¬,300000026,200000282,35.14512055157003,126.91869650406545
182,9,73772,κ΄‘μ£Ό μ¶©μ¥λ΅ κ³¨λ“λΈλΌμ΄νΈν…”,λ¨ν…”,motel,40000,0,β™¥ μ‹ μ¶•κ±΄λ¬Ό β™¥ μ „ κ°μ‹¤ νΉλ³„ν• μΈκ°€ - μ–΄ν” μμ•½μ‹ ν• μΈμΏ ν° μ„ μ°©μ μ κ³µ μ¤‘μ…λ‹λ‹¤! λ§μ€μ΄μ©λ¶€νƒλ“λ¦¬κ² μµλ‹λ‹¤ β™¥,κ΄‘μ£Ό,λ™κµ¬ / λ™λ…λ™ / μ¶©μ¥λ΅ / λ‚¨κµ¬,300000026,200000282,35.1447394,126.91792280000004
183,10,83287,κ΄‘μ£Ό ν•μ΄λ“ νΈν…” μ¶©μ¥μ (κµ¬. κ΄‘μ£Όμ›μ‹±ν„΄νΈν…”),νΈν…”,hotel,68000,132000,,κ΄‘μ£Ό,λ™κµ¬ / λ™λ…λ™ / μ¶©μ¥λ΅ / λ‚¨κµ¬,300000026,200000282,35.144229,126.915861
184,11,75849,κ΄‘μ£Ό STAY νΈν…”,νΈν…”,hotel,65000,65000,,κ΄‘μ£Ό,λ™κµ¬ / λ™λ…λ™ / μ¶©μ¥λ΅ / λ‚¨κµ¬,300000026,200000282,35.149275,126.910748
185,12,86463,νΈν…” λ” ν,νΈν…”,hotel,55000,60000,,κ΄‘μ£Ό,λ™κµ¬ / λ™λ…λ™ / μ¶©μ¥λ΅ / λ‚¨κµ¬,300000026,200000282,35.134734,126.900797
186,13,80541,κ΄‘μ£Ό λ””λ°”μΈνΈν…”,νΈν…”,hotel,50000,50000,,κ΄‘μ£Ό,λ™κµ¬ / λ™λ…λ™ / μ¶©μ¥λ΅ / λ‚¨κµ¬,300000026,200000282,35.140258,126.920315
187,14,81044,νΈν…” μ—¬κΈ°μ–΄λ• μ¶©μ¥λ΅μ ,νΈν…”,hotel,40000,40000,,κ΄‘μ£Ό,λ™κµ¬ / λ™λ…λ™ / μ¶©μ¥λ΅ / λ‚¨κµ¬,300000026,200000282,35.145274,126.914634
188,15,78563,κ΄‘μ£Ό ACC λ””μμΈνΈν…”,νΈν…”,hotel,78000,78000,β…Welcome Bottle μ΄λ²¤νΈβ…,κ΄‘μ£Ό,λ™κµ¬ / λ™λ…λ™ / μ¶©μ¥λ΅ / λ‚¨κµ¬,300000026,200000282,35.148428,126.916746
189,16,74235,κ΄‘μ£Ό νλ μ¤ νΈν…”,νΈν…”,hotel,40000,90000,,κ΄‘μ£Ό,λ™κµ¬ / λ™λ…λ™ / μ¶©μ¥λ΅ / λ‚¨κµ¬,300000026,200000282,35.147991,126.914933
190,17,99635,μ¶©μ¥λ΅ μΌλ²μ§€ λΈλ λ„νΈν…”,νΈν…”,hotel,65000,90000,λΉ„μ¦λ‹μ¤ μ „μ© νΈν…” μ…λ‹λ‹¤β™¥λ¬΄λ£ μ΅°μ‹ μ κ³µβ™¥μ „ κ°μ‹¤ λ„·ν”λ¦­μ¤β™¥μ²λ³€λ·° ν…λΌμ¤β™¥κ³µμ›ν¬μ°¨ μΈμ ‘β™¥μ„ μ°©μ νΉκ°€λ£Έβ™¥,κ΄‘μ£Ό,λ™κµ¬ / λ™λ…λ™ / μ¶©μ¥λ΅ / λ‚¨κµ¬,300000026,200000282,35.1490097865544,126.91061036728742
191,18,78356,κ΄‘μ£Ό νΈν…” λ²¤ν‹€λ¦¬κ΄€κ΄‘νΈν…” μ¶©μ¥λ΅μ ,νΈν…”,hotel,94000,94000,,κ΄‘μ£Ό,λ™κµ¬ / λ™λ…λ™ / μ¶©μ¥λ΅ / λ‚¨κµ¬,300000026,200000282,35.14452,126.915591
192,19,70263,κ΄‘μ£Ό κµ­μ  λΉ„μ¦λ‹μ¤νΈν…” W,νΈν…”,hotel,60000,160000,,κ΄‘μ£Ό,λ™κµ¬ / λ™λ…λ™ / μ¶©μ¥λ΅ / λ‚¨κµ¬,300000026,200000282,35.132263,126.901946
193,20,77636,κ΄‘μ£Ό λΉ„μ¦λ‹μ¤ νΈν…” λ“€,νΈν…”,hotel,55000,100000,,κ΄‘μ£Ό,λ™κµ¬ / λ™λ…λ™ / μ¶©μ¥λ΅ / λ‚¨κµ¬,300000026,200000282,35.149004,126.910982
194,21,83155,λ¬΄λ“±νν¬λ¦¬μ΅°νΈ&νΈν…”,νΈν…”,hotel,0,0,,κ΄‘μ£Ό,λ™κµ¬ / λ™λ…λ™ / μ¶©μ¥λ΅ / λ‚¨κµ¬,300000026,200000282,35.148754,126.946844
195,22,82661,κ΄‘μ£Ό μ¶©μ¥λ΅ μΌλ²μ§€ λΈλ λ„νΈν…”,λ¨ν…”,motel,55000,0,"λΉ„μ¦λ‹μ¤νΈν…”β™¥λ¬΄λ£μ΅°μ‹β™¥λ„·ν”,λ””μ¦λ‹,ν‹°λΉ™β™¥μ±”ν”Όμ–Έμ¤ν•„λ“ κ³µμ›ν¬μ°¨ λΉ›κ³ μ„μ‹λ―Όνκ΄€ μ•„μ‹μ•„λ¬Έν™”μ „λ‹Ή λ™λ…λ™μΉ΄νκ±°λ¦¬ μ¶©μ¥λ΅β™¥μ„ μ°©μ νΉκ°€λ£Έβ™¥",κ΄‘μ£Ό,λ™κµ¬ / λ™λ…λ™ / μ¶©μ¥λ΅ / λ‚¨κµ¬,300000026,200000282,35.14900285455654,126.91060807725081
196,23,88810,κ΄‘μ£Ό λΈλΌμ΄λ„νΈ νΈν…” μ¶©μ¥λ΅,νΈν…”,hotel,65000,65000,,κ΄‘μ£Ό,λ™κµ¬ / λ™λ…λ™ / μ¶©μ¥λ΅ / λ‚¨κµ¬,300000026,200000282,35.147324439114136,126.91284920934237
197,24,88498,κ΄‘μ£Ό μ¶©μ¥λ΅ λ„λ²„25 κ΄‘μ£Όμ¶©μ¥λ΅μ ,λ¨ν…”,motel,55000,0,,κ΄‘μ£Ό,λ™κµ¬ / λ™λ…λ™ / μ¶©μ¥λ΅ / λ‚¨κµ¬,300000026,200000282,35.14395665958008,126.9154343568371
198,25,99921,κ΄‘μ£Ό νΈν…”λ”ννμ…,νμ…,pension,55000,55000,,κ΄‘μ£Ό,λ™κµ¬ / λ™λ…λ™ / μ¶©μ¥λ΅ / λ‚¨κµ¬,300000026,200000282,35.1347407629432,126.900807880819
199,26,79943,κ΄‘μ£Ό μ¶©μ¥λ΅ νΈν…” λ””λ°”μΈ (HOTEL DEVINE),λ¨ν…”,motel,40000,0,λ””μ¦λ‹ν”λ¬μ¤ μ΄μ©κ°€λ¥ β£οΈ λ§¤μΌ μ§„ν–‰λλ” λ°©μ—­κ³Ό μ†λ…μΌλ΅ μ²­κ²°ν• κ°μ‹¤ μ κ³µ μ•½μ†!,κ΄‘μ£Ό,λ™κµ¬ / λ™λ…λ™ / μ¶©μ¥λ΅ / λ‚¨κµ¬,300000026,200000282,35.1402461,126.9203221
200,27,76523,κ΄‘μ£Ό μ¶©μ¥λ΅ YAM κ΄‘μ£Όκµ¬μ‹μ²­μ ,λ¨ν…”,motel,38000,50000,"β…μ „κ°μ‹¤ κΈμ—°β…λ°°κ·Έμ „μ©2pc,1pcλ£Έ μ¤ν”β…λ€ν•νƒ‘μ°¨λ‰μ£Όμ°¨κ°€λ¥β…μ „ν™”μμ•½[ν• μΈμΏ ν°]μ μ©",κ΄‘μ£Ό,λ™κµ¬ / λ™λ…λ™ / μ¶©μ¥λ΅ / λ‚¨κµ¬,300000026,200000282,35.1405046,126.91908089999993
201,28,83176,κ΄‘μ£Ό μ¶©μ¥λ΅ ν•μ΄λ“ νΈν…”(κµ¬. μ›μ‹±ν„΄ νΈν…”),λ¨ν…”,motel,68000,0,,κ΄‘μ£Ό,λ™κµ¬ / λ™λ…λ™ / μ¶©μ¥λ΅ / λ‚¨κµ¬,300000026,200000282,35.1442324814544,126.91585878104665
202,30,82881,κ΄‘μ£Ό λ°±μ΄λ™ μ—¬κΈ°μ–΄λ•,λ¨ν…”,motel,40000,0,π€λ¬΄ν•λ€μ‹¤ μ΄μ©κ°€λ¥ π€,κ΄‘μ£Ό,λ™κµ¬ / λ™λ…λ™ / μ¶©μ¥λ΅ / λ‚¨κµ¬,300000026,200000282,35.135816752422066,126.90104794086982
203,31,82604,κ΄‘μ£Ό κ³„λ¦Όλ™ λΌμ΄ν¬νΈν…”,λ¨ν…”,motel,45000,0,βοΈμ„Έμ¤μ½”λ©¤λ²„μ¤βοΈ β¨μ¤νƒ€μΌλ¬ κµ¬λΉ„β¨ π’– μ»¤ν”PC π’–,κ΄‘μ£Ό,λ™κµ¬ / λ™λ…λ™ / μ¶©μ¥λ΅ / λ‚¨κµ¬,300000026,200000282,35.16375335553411,126.9191296347616
204,32,73437,κ΄‘μ£Ό μ¶©μ¥λ΅ λ¦¬μ  μ‹,λ¨ν…”,motel,35000,35000,,κ΄‘μ£Ό,λ™κµ¬ / λ™λ…λ™ / μ¶©μ¥λ΅ / λ‚¨κµ¬,300000026,200000282,35.1413626,126.9186568
205,33,70505,κ΄‘μ£Ό μ¶©μ¥λ΅ νΈν…” λ°νΈ (VANTT HOTEL),λ¨ν…”,motel,60000,0,μ„Έμ¤μ½” λ©¤λ²„μ¤ λ°©μ—­μ΅΄ / μ„Ένƒμ‹¤ μ΄μ©κ°€λ¥ / λ„·ν”λ¦­μ¤ μ΄μ©κ°€λ¥ / μ¤λ‚µλ°” μ΄μ©κ°€λ¥β¤οΈ,κ΄‘μ£Ό,λ™κµ¬ / λ™λ…λ™ / μ¶©μ¥λ΅ / λ‚¨κµ¬,300000026,200000282,35.14440239299959,126.91816247909128
206,34,83409,κ΄‘μ£Ό μ¶©μ¥λ΅ λ²¤ν‹€λ¦¬νΈν…”,λ¨ν…”,motel,94000,0,,κ΄‘μ£Ό,λ™κµ¬ / λ™λ…λ™ / μ¶©μ¥λ΅ / λ‚¨κµ¬,300000026,200000282,35.14466309515925,126.91532409504615
207,35,68747,κ΄‘μ£Ό μ¶©μ¥λ΅ μ΄λλ¦Ό λΉ„μ¦λ‹μ¤νΈν…”,λ¨ν…”,motel,40000,0,β”οΈκ³¨λΌλ¨Ήλ” λΌλ©΄λ·”ν λ¬΄λ£μ κ³µ,κ΄‘μ£Ό,λ™κµ¬ / λ™λ…λ™ / μ¶©μ¥λ΅ / λ‚¨κµ¬,300000026,200000282,35.1451589,126.9139169
208,36,78970,κ΄‘μ£Ό μ¶©μ¥λ΅ μ²«λ²μ§Έ λ¶€ν‹°λ„ νΈν…”,λ¨ν…”,motel,35000,0,,κ΄‘μ£Ό,λ™κµ¬ / λ™λ…λ™ / μ¶©μ¥λ΅ / λ‚¨κµ¬,300000026,200000282,35.1415416,126.91862379999998
209,37,83183,κ΄‘μ£Ό μ¶©μ¥λ΅ νΈν…” μ—¬κΈ°μ–΄λ•,λ¨ν…”,motel,35000,0,,κ΄‘μ£Ό,λ™κµ¬ / λ™λ…λ™ / μ¶©μ¥λ΅ / λ‚¨κµ¬,300000026,200000282,35.14529383350524,126.91460280593064
210,38,84152,κ΄‘μ£Ό λ™λ…λ™ λ¦¬λ²„νΈν…”,λ¨ν…”,motel,50000,0,,κ΄‘μ£Ό,λ™κµ¬ / λ™λ…λ™ / μ¶©μ¥λ΅ / λ‚¨κµ¬,300000026,200000282,35.15087180964389,126.92771846787159
211,39,82161,κ΄‘μ£Ό λ°±μ΄λ™ OKνΈν…”,λ¨ν…”,motel,40000,0,μ „ κ°μ‹¤ λ„·ν”λ¦¬μ¤  μ¤λ‚µλ°” μ•„μ΄μ¤ν¬λ¦Ό μ΄μ,κ΄‘μ£Ό,λ™κµ¬ / λ™λ…λ™ / μ¶©μ¥λ΅ / λ‚¨κµ¬,300000026,200000282,35.134491293091585,126.90071795192864
212,40,68098,κ΄‘μ£Ό μ¶©μ¥λ΅ ν—λΈ,λ¨ν…”,motel,35000,35000,,κ΄‘μ£Ό,λ™κµ¬ / λ™λ…λ™ / μ¶©μ¥λ΅ / λ‚¨κµ¬,300000026,200000282,35.1440255,126.91651790000003
213,41,76087,κ΄‘μ£Ό μ¶©μ¥λ΅ SνΈν…”,λ¨ν…”,motel,40000,0,,κ΄‘μ£Ό,λ™κµ¬ / λ™λ…λ™ / μ¶©μ¥λ΅ / λ‚¨κµ¬,300000026,200000282,35.1457892,126.91787820000002
214,42,78024,κ΄‘μ£Ό λ€μΈλ™ νΈν…” λ”μ(HOTEL THE ZA),λ¨ν…”,motel,35000,0,λ§¤μΌ μ„ μ°©μ μΏ ν° μ κ³µ β™¥ β–¶μ „κ°μ‹¤ λ„·ν”λ¦­μ¤ μ‹μ²­κ°€λ¥β—€,κ΄‘μ£Ό,λ™κµ¬ / λ™λ…λ™ / μ¶©μ¥λ΅ / λ‚¨κµ¬,300000026,200000282,35.1556927,126.91401680000001
215,43,81875,κ΄‘μ£Ό μ‚°μλ™ ν™©ν† ,λ¨ν…”,motel,35000,35000,,κ΄‘μ£Ό,λ™κµ¬ / λ™λ…λ™ / μ¶©μ¥λ΅ / λ‚¨κµ¬,300000026,200000282,35.1564893,126.9322432
216,44,69146,κ΄‘μ£Ό μ¶©μ¥λ΅ λ³΄λ³΄μ¤,λ¨ν…”,motel,30000,0,"75μΈμΉ λ„·ν”λ¦­μ¤ μ‹μ²­λ£Έ ,μ…μ‹¤μ „ ν‡΄μ‹¤ν›„ μ£Όμ°¨κ°€λ¥",κ΄‘μ£Ό,λ™κµ¬ / λ™λ…λ™ / μ¶©μ¥λ΅ / λ‚¨κµ¬,300000026,200000282,35.1399206,126.91952659999993
217,45,74143,κ΄‘μ£Ό μ¶©μ¥λ΅ νλ μ¤νΈν…”,λ¨ν…”,motel,40000,0,,κ΄‘μ£Ό,λ™κµ¬ / λ™λ…λ™ / μ¶©μ¥λ΅ / λ‚¨κµ¬,300000026,200000282,35.147693,126.91460860000007
218,46,74034,κ΄‘μ£Ό λ°©λ¦Όλ™ Coo,λ¨ν…”,motel,30000,0,,κ΄‘μ£Ό,λ™κµ¬ / λ™λ…λ™ / μ¶©μ¥λ΅ / λ‚¨κµ¬,300000026,200000282,35.1337077,126.91265699999997
219,47,68716,κ΄‘μ£Ό λ°±μ΄λ™ μ•Όν›„,λ¨ν…”,motel,0,0,,κ΄‘μ£Ό,λ™κµ¬ / λ™λ…λ™ / μ¶©μ¥λ΅ / λ‚¨κµ¬,300000026,200000282,35.1343638,126.90080720000003
220,48,85446,κ΄‘μ£Ό μ¶©μ¥λ΅ ν•μ°μ  ,λ¨ν…”,motel,35000,35000,,κ΄‘μ£Ό,λ™κµ¬ / λ™λ…λ™ / μ¶©μ¥λ΅ / λ‚¨κµ¬,300000026,200000282,35.143820955096835,126.91756102220594
221,49,69226,κ΄‘μ£Ό λ€μΈλ™ νΈν…” ν•λ£¨,λ¨ν…”,motel,40000,0,"λ‹ΉμΌμ΅°λ¦¬-ν•μ‹μ΅°μ‹(ν•κ°•λΌλ©΄), LG 75 TV  λ„·ν”λ¦­μ¤ & μ νλΈ μ‹μ²­κ°€λ¥, λ°°κ·Έ κ°€λ¥λ£Έ  i5-16λ¨-2070super",κ΄‘μ£Ό,λ™κµ¬ / λ™λ…λ™ / μ¶©μ¥λ΅ / λ‚¨κµ¬,300000026,200000282,35.1560088,126.91377420000003
222,50,69436,κ΄‘μ£Ό λ°±μ΄λ™ ν”„λ¦°μ¤,λ¨ν…”,motel,30000,30000,λ¬΄ν•μΏ ν°λ£Έ μμ•½μ‹ λ‹¤μλ²μ— μ‚¬μ©ν• μ μλ” 50%μΏ ν° μ κ³µ,κ΄‘μ£Ό,λ™κµ¬ / λ™λ…λ™ / μ¶©μ¥λ΅ / λ‚¨κµ¬,300000026,200000282,35.1347471,126.9005376
223,51,81917,κ΄‘μ£Ό μ£Όμ›”λ™ κµ­μ  λΉ„μ¦λ‹μ¤νΈν…” W,λ¨ν…”,motel,60000,0,,κ΄‘μ£Ό,λ™κµ¬ / λ™λ…λ™ / μ¶©μ¥λ΅ / λ‚¨κµ¬,300000026,200000282,35.1322633,126.9019457
224,52,84851,κ΄‘μ£Ό μ¶©μ¥λ΅ μ—”ν„°νΈν…”,λ¨ν…”,motel,40000,40000,,κ΄‘μ£Ό,λ™κµ¬ / λ™λ…λ™ / μ¶©μ¥λ΅ / λ‚¨κµ¬,300000026,200000282,35.14877800105282,126.91147629365649
225,53,75422,κ΄‘μ£Ό λ°©λ¦Όλ™ μƒ¤μ΄λ‹,λ¨ν…”,motel,30000,0,β…λ¬΄ν•μΏ ν°λ£Έ μ΄μ©μ‹ λ‹¤μλ²μ— μ‚¬μ©ν• μ μλ” 50%μΏ ν° μ κ³µβ…,κ΄‘μ£Ό,λ™κµ¬ / λ™λ…λ™ / μ¶©μ¥λ΅ / λ‚¨κµ¬,300000026,200000282,35.1338479,126.9145511
226,54,85437,κ΄‘μ£Ό λ€μΈλ™ μΈ,λ¨ν…”,motel,35000,0,,κ΄‘μ£Ό,λ™κµ¬ / λ™λ…λ™ / μ¶©μ¥λ΅ / λ‚¨κµ¬,300000026,200000282,35.15562509629391,126.91457428240396
227,55,82870,κ΄‘μ£Ό λ°±μ΄λ™ μ„Έλ λ‚λ°,λ¨ν…”,motel,35000,35000,,κ΄‘μ£Ό,λ™κµ¬ / λ™λ…λ™ / μ¶©μ¥λ΅ / λ‚¨κµ¬,300000026,200000282,35.134915893914,126.90078579652175
228,56,87277,κ΄‘μ£Ό κ³„λ¦Όλ™ μ¤€,λ¨ν…”,motel,35000,0,,κ΄‘μ£Ό,λ™κµ¬ / λ™λ…λ™ / μ¶©μ¥λ΅ / λ‚¨κµ¬,300000026,200000282,35.15597953902361,126.91804189388323
229,57,81048,νΈν…” μ—¬κΈ°μ–΄λ• κ΄‘μ£Όλ°±μ΄μ ,νΈν…”,hotel,50000,50000,,κ΄‘μ£Ό,λ™κµ¬ / λ™λ…λ™ / μ¶©μ¥λ΅ / λ‚¨κµ¬,300000026,200000282,35.135792,126.901078
230,0,76695,κ΄‘μ£Ό κ°ν™”λ™ YAM λ™κ΄‘μ£Όμ ,λ¨ν…”,motel,59000,54000,β­μ „ κ°μ‹¤ λ„·ν”λ¦­μ¤ μ‹μ²­ κ°€λ¥ & 2PC κ²μ„λ£Έβ­,κ΄‘μ£Ό,λ¶κµ¬ / κ΄‘μ£Όμ—­ / μ „λ‚¨λ€μ‚¬κ±°λ¦¬,300000026,200000283,35.18168989999999,126.92975639999997
231,1,78932,κ΄‘μ£Ό μ¤‘ν¥λ™ μ—¬κΈ°μ΅°μ•„ λ¬΄μΈνΈν…”,λ¨ν…”,motel,35000,0,,κ΄‘μ£Ό,λ¶κµ¬ / κ΄‘μ£Όμ—­ / μ „λ‚¨λ€μ‚¬κ±°λ¦¬,300000026,200000283,35.1588041,126.90947640000002
232,2,74036,κ΄‘μ£Ό νΈν…” λ” μ¤ν,νΈν…”,hotel,78000,78000,"β™¥μ΅°μ‹ λ§›μ§‘ λΉ„μ¦λ‹μ¤ νΈν…”β™¥ / μ—μ–΄λ“λ μ„, λΉ„λ°, λ„·ν”λ¦­μ¤",κ΄‘μ£Ό,λ¶κµ¬ / κ΄‘μ£Όμ—­ / μ „λ‚¨λ€μ‚¬κ±°λ¦¬,300000026,200000283,35.220717,126.853192
233,3,75898,λΉ„μ—”λ‚ λ νΈν…”,νΈν…”,hotel,65000,65000,,κ΄‘μ£Ό,λ¶κµ¬ / κ΄‘μ£Όμ—­ / μ „λ‚¨λ€μ‚¬κ±°λ¦¬,300000026,200000283,35.172925,126.883866
234,4,81047,νΈν…” μ—¬κΈ°μ–΄λ• κ΄‘μ£Όμ—­μ ,νΈν…”,hotel,55000,55000,,κ΄‘μ£Ό,λ¶κµ¬ / κ΄‘μ£Όμ—­ / μ „λ‚¨λ€μ‚¬κ±°λ¦¬,300000026,200000283,35.161325,126.909049
235,5,85012,κ΄‘μ£Ό μ΄μ•”λ™ μ—μ΄μΉμ› νΈν…”,3μ„±κΈ‰,hotel,110740,110740,,κ΄‘μ£Ό,λ¶κµ¬ / κ΄‘μ£Όμ—­ / μ „λ‚¨λ€μ‚¬κ±°λ¦¬,300000026,200000283,35.172744,126.88369
236,6,76820,κ΄‘μ£Όκ΄€κ΄‘νΈν…”,νΈν…”,hotel,104000,160000,,κ΄‘μ£Ό,λ¶κµ¬ / κ΄‘μ£Όμ—­ / μ „λ‚¨λ€μ‚¬κ±°λ¦¬,300000026,200000283,35.192341,126.901332
237,7,82233,κ΄‘μ£Ό μΌ€μ΄νΈν…”,νΈν…”,hotel,60000,80000,,κ΄‘μ£Ό,λ¶κµ¬ / κ΄‘μ£Όμ—­ / μ „λ‚¨λ€μ‚¬κ±°λ¦¬,300000026,200000283,35.163547,126.904104
238,8,86412,κ΄‘μ£Ό μ¤‘ν¥λ™ μ„λ“μ (With U),λ¨ν…”,motel,35000,40000,,κ΄‘μ£Ό,λ¶κµ¬ / κ΄‘μ£Όμ—­ / μ „λ‚¨λ€μ‚¬κ±°λ¦¬,300000026,200000283,35.16200776027834,126.91093551672485
239,9,98194,κ΄‘μ£Ό μ‹ μ•λ™ λΈλΌμ΄λ„νΈ κ΄‘μ£Όμ‹ μ•μ ,λ¨ν…”,motel,50000,60000,,κ΄‘μ£Ό,λ¶κµ¬ / κ΄‘μ£Όμ—­ / μ „λ‚¨λ€μ‚¬κ±°λ¦¬,300000026,200000283,35.16702928026443,126.90317593190161
240,10,99067,κ΄‘μ£Ό μ©λ΄‰λ™ λΈλΌμ΄λ„νΈ κ΄‘μ£Όμ©λ΄‰μ (κµ¬. λ‹¤λΉμΉνΈν…”),λ¨ν…”,motel,60000,60000,,κ΄‘μ£Ό,λ¶κµ¬ / κ΄‘μ£Όμ—­ / μ „λ‚¨λ€μ‚¬κ±°λ¦¬,300000026,200000283,35.17948806184047,126.89514530227703
241,11,91253,κ΄‘μ£Ό λ‘μ•”λ™ λΈλΌμ΄λ„νΈ λ™κ΄‘μ£Όμ ,λ¨ν…”,motel,50000,50000,,κ΄‘μ£Ό,λ¶κµ¬ / κ΄‘μ£Όμ—­ / μ „λ‚¨λ€μ‚¬κ±°λ¦¬,300000026,200000283,35.17692205640862,126.92895797151304
242,12,81671,κ΄‘μ£Ό μ‹ μ•λ™ K-boutique νΈν…”,λ¨ν…”,motel,50000,0,,κ΄‘μ£Ό,λ¶κµ¬ / κ΄‘μ£Όμ—­ / μ „λ‚¨λ€μ‚¬κ±°λ¦¬,300000026,200000283,35.1635131,126.9041076
243,13,69842,κ΄‘μ£Ό μ¤‘ν¥λ™ νΈν…” μ™€,λ¨ν…”,motel,35000,35000,"β…λ„·ν”λ¦­μ¤ μ‹μ²­κ°€λ¥, κ°€μ„±λΉ„ μµκ³ , μΏ ν°μ κ³µ!",κ΄‘μ£Ό,λ¶κµ¬ / κ΄‘μ£Όμ—­ / μ „λ‚¨λ€μ‚¬κ±°λ¦¬,300000026,200000283,35.1631654,126.90882179999994
244,14,79378,κ΄‘μ£Ό μ–‘μ‚°λ™ μΈ,λ¨ν…”,motel,45000,0,,κ΄‘μ£Ό,λ¶κµ¬ / κ΄‘μ£Όμ—­ / μ „λ‚¨λ€μ‚¬κ±°λ¦¬,300000026,200000283,35.2133007,126.8755987
245,15,84877,κ΄‘μ£Ό μ²¨λ‹¨ YAJA κ΄‘μ£Όμ²¨λ‹¨μ ,λ¨ν…”,motel,60000,0,"μ „κ°μ‹¤ λ…Έν•λ“ I5 RTX3060 240hz λ°°κ·Έμµκ³ μ‚¬μ–‘ κ°€λ¥ / λ…Έλλ°©, νν‹°λ£Έ, μ„Ένƒμ‹¤, 75μΈμΉ TV, μ¤νƒ€μΌλ¬ κµ¬λΉ„",κ΄‘μ£Ό,λ¶κµ¬ / κ΄‘μ£Όμ—­ / μ „λ‚¨λ€μ‚¬κ±°λ¦¬,300000026,200000283,35.21954799385002,126.85312481187626
246,16,81434,κ΄‘μ£Ό μ¤‘ν¥λ™ νΈν…”μ„ΈλΈλΈλ¦­μ¤ κ΄‘μ£Όμ—­μ ,λ¨ν…”,motel,40000,40000,,κ΄‘μ£Ό,λ¶κµ¬ / κ΄‘μ£Όμ—­ / μ „λ‚¨λ€μ‚¬κ±°λ¦¬,300000026,200000283,35.1621908,126.9088034
247,17,78974,κ΄‘μ£Ό μ‹ μ•λ™ μ΄λλ¦Ό BUSINESS HOTEL,λ¨ν…”,motel,35000,0,β”οΈκ³¨λΌλ¨Ήλ” ν•κ°•λΌλ©΄λ·”ν λ¬΄λ£μ κ³µ μ¤ν”,κ΄‘μ£Ό,λ¶κµ¬ / κ΄‘μ£Όμ—­ / μ „λ‚¨λ€μ‚¬κ±°λ¦¬,300000026,200000283,35.1665077,126.90353720000007
248,18,67336,κ΄‘μ£Ό μ΄μ•”λ™ μ—¬κΈ°μ΅°μ•„ λ¬΄μΈνΈν…”,λ¨ν…”,motel,50000,0,,κ΄‘μ£Ό,λ¶κµ¬ / κ΄‘μ£Όμ—­ / μ „λ‚¨λ€μ‚¬κ±°λ¦¬,300000026,200000283,35.173524,126.88337980000006
249,19,88319,κ΄‘μ£Ό μ©λ΄‰λ™ YAJA κ΄‘μ£Όμ©λ΄‰μ ,λ¨ν…”,motel,50000,50000,,κ΄‘μ£Ό,λ¶κµ¬ / κ΄‘μ£Όμ—­ / μ „λ‚¨λ€μ‚¬κ±°λ¦¬,300000026,200000283,35.17967655329351,126.89467231485759
250,20,73825,κ΄‘μ£Ό μ‹ μ•λ™ μν”Όμ•„&μ•„λ¦¬μ•„ λ“λΌμ΄λΈμΈ λ¬΄μΈν…”,λ¨ν…”,motel,35000,35000,β…75μΈμΉTVβ…μ¤νƒ€μΌλ¬ κµ¬λΉ„β…λ„·ν”λ¦­μ¤ μ‹μ²­κ°€λ¥β…24μ‹κ°„λ€μ‹¤,κ΄‘μ£Ό,λ¶κµ¬ / κ΄‘μ£Όμ—­ / μ „λ‚¨λ€μ‚¬κ±°λ¦¬,300000026,200000283,35.1645853,126.90439000000003
251,21,73136,κ΄‘μ£Ό μ΄μ•”λ™ E,λ¨ν…”,motel,35000,0,μ „κ°μ‹¤ λ¬΄λ£ μ™€μ΄νμ΄ μ κ³µ,κ΄‘μ£Ό,λ¶κµ¬ / κ΄‘μ£Όμ—­ / μ „λ‚¨λ€μ‚¬κ±°λ¦¬,300000026,200000283,35.1727238,126.8827377
252,22,83141,κ΄‘μ£Ό μ¤‘ν¥λ™ νΈν…”μ—¬κΈ°μ–΄λ• κ΄‘μ£Όμ—­μ ,λ¨ν…”,motel,40000,0,,κ΄‘μ£Ό,λ¶κµ¬ / κ΄‘μ£Όμ—­ / μ „λ‚¨λ€μ‚¬κ±°λ¦¬,300000026,200000283,35.16134125500587,126.90901889785812
253,23,79491,κ΄‘μ£Ό μ©λ΄‰λ™ νΈν…” μ•„κ·Έλ„¤μ¤,λ¨ν…”,motel,40000,0,,κ΄‘μ£Ό,λ¶κµ¬ / κ΄‘μ£Όμ—­ / μ „λ‚¨λ€μ‚¬κ±°λ¦¬,300000026,200000283,35.1802547,126.8948123
254,24,76734,κ΄‘μ£Ό μ–‘μ‚°λ™ VνΈν…” κ±°κΈ°μ΅°μ•„,λ¨ν…”,motel,50000,0,,κ΄‘μ£Ό,λ¶κµ¬ / κ΄‘μ£Όμ—­ / μ „λ‚¨λ€μ‚¬κ±°λ¦¬,300000026,200000283,35.2131026,126.87542789999998
255,25,83816,κ΄‘μ£Ό μ¤‘ν¥λ™ νΈν…” λ” κ·Έλ‘,λ¨ν…”,motel,40000,50000,!!μ„ μ°©μ ν• μΈ μΏ ν°!!#μ•Όκµ¬μ›μ •κ²½κΈ°#λΉ„μ¦λ‹μ¤#νν‹°λ£Έ#ν΄μ‹#μΎμ #κΉ”λ”#κ΄‘μ£Ό#νΈν…”,κ΄‘μ£Ό,λ¶κµ¬ / κ΄‘μ£Όμ—­ / μ „λ‚¨λ€μ‚¬κ±°λ¦¬,300000026,200000283,35.159532687584225,126.90883090841616
256,26,75743,κ΄‘μ£Ό μ©λ΄‰λ™ λ„¤λ¨ λ¬΄μΈν…”,λ¨ν…”,motel,50000,0,,κ΄‘μ£Ό,λ¶κµ¬ / κ΄‘μ£Όμ—­ / μ „λ‚¨λ€μ‚¬κ±°λ¦¬,300000026,200000283,35.1798605,126.89512160000004
257,27,74964,κ΄‘μ£Ό μ‹ μ•λ™ μΉ΄ν†΅,λ¨ν…”,motel,28000,0,,κ΄‘μ£Ό,λ¶κµ¬ / κ΄‘μ£Όμ—­ / μ „λ‚¨λ€μ‚¬κ±°λ¦¬,300000026,200000283,35.1662307,126.90345379999997
258,28,66959,κ΄‘μ£Ό μ‹ μ•λ™ μΏ΅,λ¨ν…”,motel,32000,0,λ¬΄ν•μΏ ν°λ£Έ μ΄μ©μ‹ λ‹¤μλ²μ— μ‚¬μ©ν• μ μλ” 50%μΏ ν° μ κ³µ,κ΄‘μ£Ό,λ¶κµ¬ / κ΄‘μ£Όμ—­ / μ „λ‚¨λ€μ‚¬κ±°λ¦¬,300000026,200000283,35.1642597,126.90253589999998
259,30,85324,κ΄‘μ£Ό λ‘μ•”λ™ YAJA λ™κ΄‘μ£Όμ ,λ¨ν…”,motel,45000,45000,22λ…„1μ›” GRAND OPENβ¤ λ„·ν”λ¦­μ¤κ°€λ¥β¤,κ΄‘μ£Ό,λ¶κµ¬ / κ΄‘μ£Όμ—­ / μ „λ‚¨λ€μ‚¬κ±°λ¦¬,300000026,200000283,35.17722436797978,126.92769723777961
260,31,82503,κ΄‘μ£Ό μ‹ μ•λ™ HOTEL STAY 38,λ¨ν…”,motel,35000,0,,κ΄‘μ£Ό,λ¶κµ¬ / κ΄‘μ£Όμ—­ / μ „λ‚¨λ€μ‚¬κ±°λ¦¬,300000026,200000283,35.16308427308653,126.90511607138131
261,33,72663,κ΄‘μ£Ό μ‹ μ•λ™ λ”μ,λ¨ν…”,motel,35000,35000,κΉ¨λ—ν•κ³  μ„Έλ ¨λ λ¨ν…” μ¶”μ² - λ”μ(The Za) -,κ΄‘μ£Ό,λ¶κµ¬ / κ΄‘μ£Όμ—­ / μ „λ‚¨λ€μ‚¬κ±°λ¦¬,300000026,200000283,35.1651203,126.90403300000003
262,34,72012,κ΄‘μ£Ό μ΄μ•”λ™ μ†ν’,λ¨ν…”,motel,40000,0,,κ΄‘μ£Ό,λ¶κµ¬ / κ΄‘μ£Όμ—­ / μ „λ‚¨λ€μ‚¬κ±°λ¦¬,300000026,200000283,35.1735958,126.88323279999997
263,35,67718,κ΄‘μ£Ό μ¤‘ν¥λ™ μ  ν‹€λ§¨ λ“λΌμ΄λΈμΈ λ¬΄μΈν…”(κ΄‘μ£Όμ—­μ ),λ¨ν…”,motel,0,0,,κ΄‘μ£Ό,λ¶κµ¬ / κ΄‘μ£Όμ—­ / μ „λ‚¨λ€μ‚¬κ±°λ¦¬,300000026,200000283,35.16024860168874,126.90918708393419
264,36,75889,κ΄‘μ£Ό μ΄μ•”λ™ λΉ„μ—”λ‚ λ νΈν…”,λ¨ν…”,motel,55000,0,,κ΄‘μ£Ό,λ¶κµ¬ / κ΄‘μ£Όμ—­ / μ „λ‚¨λ€μ‚¬κ±°λ¦¬,300000026,200000283,35.1729673,126.88378910000006
265,37,66847,κ΄‘μ£Ό μ‹ μ•λ™ λ¬λΈμ¤ν† λ¦¬,λ¨ν…”,motel,30000,30000,,κ΄‘μ£Ό,λ¶κµ¬ / κ΄‘μ£Όμ—­ / μ „λ‚¨λ€μ‚¬κ±°λ¦¬,300000026,200000283,35.1635434,126.90583919999995
266,38,66798,κ΄‘μ£Ό μ‹ μ•λ™ μ—¬κΈ°μ„μμ,λ¨ν…”,motel,40000,0,#ν•λ‹¬κ°„ ν”„λ¦¬λ―Έμ—„ κ°μ‹¤ ν• μΈμ΄λ²¤νΈ λ§μ€ μ΄μ©λ°”λλ‹λ‹¤.#μ „κ°μ‹¤ λ„·ν”λ¦­μ¤ μ‹μ²­κ°€λ¥! μ™λ°•μ΄μ© κ³ κ°λ‹ λ¨λ‘μ—κ² μ΅°μ‹μ κ³µ!,κ΄‘μ£Ό,λ¶κµ¬ / κ΄‘μ£Όμ—­ / μ „λ‚¨λ€μ‚¬κ±°λ¦¬,300000026,200000283,35.162714,126.90625709999995
267,39,75970,κ΄‘μ£Ό μ λ™ κ±°κΈ°μ΅°μ•„ λ“λΌμ΄λΈμΈ λ¬΄μΈν…”,λ¨ν…”,motel,42000,42000,,κ΄‘μ£Ό,λ¶κµ¬ / κ΄‘μ£Όμ—­ / μ „λ‚¨λ€μ‚¬κ±°λ¦¬,300000026,200000283,35.1602125,126.90589699999998
268,40,68726,κ΄‘μ£Ό μ°μ‚°λ™ μ¤μΉ΄μ΄,λ¨ν…”,motel,40000,0,,κ΄‘μ£Ό,λ¶κµ¬ / κ΄‘μ£Όμ—­ / μ „λ‚¨λ€μ‚¬κ±°λ¦¬,300000026,200000283,35.1657183,126.91892949999999
269,41,67354,κ΄‘μ£Ό μ‹ μ•λ™ νΈν…” λ‚ν΄λ¦¬,λ¨ν…”,motel,35000,0,,κ΄‘μ£Ό,λ¶κµ¬ / κ΄‘μ£Όμ—­ / μ „λ‚¨λ€μ‚¬κ±°λ¦¬,300000026,200000283,35.1654239,126.90653769999994
270,42,82347,κ΄‘μ£Ό μ΄μ•”λ™ STAY ν΄,λ¨ν…”,motel,35000,35000,"#μ„ μ°©μμΏ ν° #μ „κ°μ‹¤λ„·ν”λ¦­μ¤,λΉ„λ° κ°€λ¥ #λ§¤μΌμ‚΄κ· μ†λ…",κ΄‘μ£Ό,λ¶κµ¬ / κ΄‘μ£Όμ—­ / μ „λ‚¨λ€μ‚¬κ±°λ¦¬,300000026,200000283,35.173202909437144,126.88408679418811
271,43,74654,κ΄‘μ£Ό λ„λ¬Έλ™ ν”λ¬μ¤,λ¨ν…”,motel,25000,0,,κ΄‘μ£Ό,λ¶κµ¬ / κ΄‘μ£Όμ—­ / μ „λ‚¨λ€μ‚¬κ±°λ¦¬,300000026,200000283,35.1547665,126.903972
272,44,68443,κ΄‘μ£Ό μ²¨λ‹¨ μ‹Έμ΄λ²„νν¬,λ¨ν…”,motel,40000,0,β™¥λ¬΄ν•λ€μ‹¤ νΉλ³„μ΄λ²¤νΈ μµλ€ 11μ‹κ°„μ μ©β™¥,κ΄‘μ£Ό,λ¶κµ¬ / κ΄‘μ£Όμ—­ / μ „λ‚¨λ€μ‚¬κ±°λ¦¬,300000026,200000283,35.2209244,126.853207
273,45,80216,κ΄‘μ£Ό μ¤‘ν¥λ™ μ„ΈμΆ…νΈν…”,λ¨ν…”,motel,30000,30000,"μνΌλΌμ§€ ν‚Ή μ‚¬μ΄μ¦ (180*200) , μνΌμ‹±κΈ€ (120*200) μ‚¬μ΄μ¦ κΈ°λ³Έ μΉ¨λ€ λ³΄μ !!",κ΄‘μ£Ό,λ¶κµ¬ / κ΄‘μ£Όμ—­ / μ „λ‚¨λ€μ‚¬κ±°λ¦¬,300000026,200000283,35.1618244,126.9093604
274,46,76518,κ΄‘μ£Ό μ‹ μ•λ™ YAJA κ΄‘μ£Όμ—­μ ,λ¨ν…”,motel,35000,35000,,κ΄‘μ£Ό,λ¶κµ¬ / κ΄‘μ£Όμ—­ / μ „λ‚¨λ€μ‚¬κ±°λ¦¬,300000026,200000283,35.1641072,126.90471539999999
275,47,66950,κ΄‘μ£Ό μ‹ μ•λ™ νΈν…” ν”„λΌμ„,λ¨ν…”,motel,35000,0,,κ΄‘μ£Ό,λ¶κµ¬ / κ΄‘μ£Όμ—­ / μ „λ‚¨λ€μ‚¬κ±°λ¦¬,300000026,200000283,35.1654583,126.90640699999994
276,48,67920,κ΄‘μ£Ό μ‹ μ•λ™ μ› λ¬΄μΈν…”,λ¨ν…”,motel,28000,0,,κ΄‘μ£Ό,λ¶κµ¬ / κ΄‘μ£Όμ—­ / μ „λ‚¨λ€μ‚¬κ±°λ¦¬,300000026,200000283,35.1626797,126.90693220000003
277,49,89363,κ΄‘μ£Ό μ‹ μ•λ™ μ΄λλ¦ΌνΈν…” μ•„λ“λ¦¬μ•„μ ,λ¨ν…”,motel,30000,0,,κ΄‘μ£Ό,λ¶κµ¬ / κ΄‘μ£Όμ—­ / μ „λ‚¨λ€μ‚¬κ±°λ¦¬,300000026,200000283,35.1640726857948,126.90389849964633
278,50,67217,κ΄‘μ£Ό μ‹ μ•λ™ μ¤μΉ΄μ΄,λ¨ν…”,motel,40000,35000,,κ΄‘μ£Ό,λ¶κµ¬ / κ΄‘μ£Όμ—­ / μ „λ‚¨λ€μ‚¬κ±°λ¦¬,300000026,200000283,35.1627071,126.9065836
279,51,76032,κ΄‘μ£Ό μ λ™ μλ ν† ,λ¨ν…”,motel,25000,25000,,κ΄‘μ£Ό,λ¶κµ¬ / κ΄‘μ£Όμ—­ / μ „λ‚¨λ€μ‚¬κ±°λ¦¬,300000026,200000283,35.1607023,126.9054
280,52,67775,κ΄‘μ£Ό μ²¨λ‹¨ N,λ¨ν…”,motel,30000,0,,κ΄‘μ£Ό,λ¶κµ¬ / κ΄‘μ£Όμ—­ / μ „λ‚¨λ€μ‚¬κ±°λ¦¬,300000026,200000283,35.2205641,126.85320360000003
281,53,68725,κ΄‘μ£Ό μ²¨λ‹¨ ν΄ λ¬΄μΈν…”,λ¨ν…”,motel,50000,0,,κ΄‘μ£Ό,λ¶κµ¬ / κ΄‘μ£Όμ—­ / μ „λ‚¨λ€μ‚¬κ±°λ¦¬,300000026,200000283,35.219130017,126.85319182900002
282,54,68019,κ΄‘μ£Ό μ‹ μ•λ™ ν•΄ν”Όλ°μ΄,λ¨ν…”,motel,27000,0,β¨λ„·ν”λ¦­μ¤ μ‹μ²­ κ°€λ¥ / κ΄‘μ£Όμ—­ λ„λ³΄ 5λ¶„ κ±°λ¦¬β¨,κ΄‘μ£Ό,λ¶κµ¬ / κ΄‘μ£Όμ—­ / μ „λ‚¨λ€μ‚¬κ±°λ¦¬,300000026,200000283,35.1635501,126.9075878
283,55,99712,κ΄‘μ£Ό λΈλΌμ΄λ„νΈ κ΄‘μ£Όμ‹ μ•,νΈν…”,hotel,65000,65000,,κ΄‘μ£Ό,λ¶κµ¬ / κ΄‘μ£Όμ—­ / μ „λ‚¨λ€μ‚¬κ±°λ¦¬,300000026,200000283,35.16702928026443,126.90317593190161
284,56,67032,κ΄‘μ£Ό μ΄μ•”λ™ ν…λ§,λ¨ν…”,motel,0,0,λ¬΄ν•μΏ ν°λ£Έ μ΄μ©μ‹ λ‹¤μλ²μ— μ‚¬μ©ν• μ μλ” 50%μΏ ν° μ κ³µ,κ΄‘μ£Ό,λ¶κµ¬ / κ΄‘μ£Όμ—­ / μ „λ‚¨λ€μ‚¬κ±°λ¦¬,300000026,200000283,35.1701503,126.88400189999993
285,57,85083,κ΄‘μ£Ό λ‘μ•”λ™ S,λ¨ν…”,motel,0,0,,κ΄‘μ£Ό,λ¶κµ¬ / κ΄‘μ£Όμ—­ / μ „λ‚¨λ€μ‚¬κ±°λ¦¬,300000026,200000283,35.1767422472493,126.92883592268427
286,58,85774,κ΄‘μ£Ό μ¤μΉλ™ κ΄‘μ£Όκ΄€κ΄‘νΈν…”,λ¨ν…”,motel,100000,0,,κ΄‘μ£Ό,λ¶κµ¬ / κ΄‘μ£Όμ—­ / μ „λ‚¨λ€μ‚¬κ±°λ¦¬,300000026,200000283,35.19235610112279,126.90137189388993
287,59,88753,κ΄‘μ£Ό μ‹ μ•λ™ νλΌμ¤,λ¨ν…”,motel,35000,35000,,κ΄‘μ£Ό,λ¶κµ¬ / κ΄‘μ£Όμ—­ / μ „λ‚¨λ€μ‚¬κ±°λ¦¬,300000026,200000283,35.164208471744296,126.90430012577424
288,60,68731,κ΄‘μ£Ό λ¶λ™ λ‚μ΄μ•„νΈ,λ¨ν…”,motel,30000,0,,κ΄‘μ£Ό,λ¶κµ¬ / κ΄‘μ£Όμ—­ / μ „λ‚¨λ€μ‚¬κ±°λ¦¬,300000026,200000283,35.154683508,126.91024745599998
289,61,79210,κ΄‘μ£Ό μ΄μ•”λ™ μƒ¤λ¥΄λ§,λ¨ν…”,motel,35000,35000,,κ΄‘μ£Ό,λ¶κµ¬ / κ΄‘μ£Όμ—­ / μ „λ‚¨λ€μ‚¬κ±°λ¦¬,300000026,200000283,35.1726915,126.8856857
290,62,98477,κ΄‘μ£Ό μ²¨λ‹¨ νΈν…” λ” μ¤ν,λ¨ν…”,motel,0,0,,κ΄‘μ£Ό,λ¶κµ¬ / κ΄‘μ£Όμ—­ / μ „λ‚¨λ€μ‚¬κ±°λ¦¬,300000026,200000283,35.22074365286344,126.85312008059962
291,63,86250,κ΄‘μ£Ό λ‘μ•”λ™ λ‘λ¦¬μ•,λ¨ν…”,motel,0,0,,κ΄‘μ£Ό,λ¶κµ¬ / κ΄‘μ£Όμ—­ / μ „λ‚¨λ€μ‚¬κ±°λ¦¬,300000026,200000283,35.18050312940811,126.92938985831229
292,0,76695,κ΄‘μ£Ό κ°ν™”λ™ YAM λ™κ΄‘μ£Όμ ,λ¨ν…”,motel,59000,54000,β­μ „ κ°μ‹¤ λ„·ν”λ¦­μ¤ μ‹μ²­ κ°€λ¥ & 2PC κ²μ„λ£Έβ­,κ΄‘μ£Ό,λ¶κµ¬ / κ΄‘μ£Όμ—­ / μ „λ‚¨λ€μ‚¬κ±°λ¦¬,300000026,200000283,35.18168989999999,126.92975639999997
293,1,78932,κ΄‘μ£Ό μ¤‘ν¥λ™ μ—¬κΈ°μ΅°μ•„ λ¬΄μΈνΈν…”,λ¨ν…”,motel,35000,0,,κ΄‘μ£Ό,λ¶κµ¬ / κ΄‘μ£Όμ—­ / μ „λ‚¨λ€μ‚¬κ±°λ¦¬,300000026,200000283,35.1588041,126.90947640000002
294,2,74036,κ΄‘μ£Ό νΈν…” λ” μ¤ν,νΈν…”,hotel,78000,78000,"β™¥μ΅°μ‹ λ§›μ§‘ λΉ„μ¦λ‹μ¤ νΈν…”β™¥ / μ—μ–΄λ“λ μ„, λΉ„λ°, λ„·ν”λ¦­μ¤",κ΄‘μ£Ό,λ¶κµ¬ / κ΄‘μ£Όμ—­ / μ „λ‚¨λ€μ‚¬κ±°λ¦¬,300000026,200000283,35.220717,126.853192
295,3,75898,λΉ„μ—”λ‚ λ νΈν…”,νΈν…”,hotel,65000,65000,,κ΄‘μ£Ό,λ¶κµ¬ / κ΄‘μ£Όμ—­ / μ „λ‚¨λ€μ‚¬κ±°λ¦¬,300000026,200000283,35.172925,126.883866
296,4,81047,νΈν…” μ—¬κΈ°μ–΄λ• κ΄‘μ£Όμ—­μ ,νΈν…”,hotel,55000,55000,,κ΄‘μ£Ό,λ¶κµ¬ / κ΄‘μ£Όμ—­ / μ „λ‚¨λ€μ‚¬κ±°λ¦¬,300000026,200000283,35.161325,126.909049
297,5,85012,κ΄‘μ£Ό μ΄μ•”λ™ μ—μ΄μΉμ› νΈν…”,3μ„±κΈ‰,hotel,110740,110740,,κ΄‘μ£Ό,λ¶κµ¬ / κ΄‘μ£Όμ—­ / μ „λ‚¨λ€μ‚¬κ±°λ¦¬,300000026,200000283,35.172744,126.88369
298,6,76820,κ΄‘μ£Όκ΄€κ΄‘νΈν…”,νΈν…”,hotel,104000,160000,,κ΄‘μ£Ό,λ¶κµ¬ / κ΄‘μ£Όμ—­ / μ „λ‚¨λ€μ‚¬κ±°λ¦¬,300000026,200000283,35.192341,126.901332
299,7,82233,κ΄‘μ£Ό μΌ€μ΄νΈν…”,νΈν…”,hotel,60000,80000,,κ΄‘μ£Ό,λ¶κµ¬ / κ΄‘μ£Όμ—­ / μ „λ‚¨λ€μ‚¬κ±°λ¦¬,300000026,200000283,35.163547,126.904104
300,8,86412,κ΄‘μ£Ό μ¤‘ν¥λ™ μ„λ“μ (With U),λ¨ν…”,motel,35000,40000,,κ΄‘μ£Ό,λ¶κµ¬ / κ΄‘μ£Όμ—­ / μ „λ‚¨λ€μ‚¬κ±°λ¦¬,300000026,200000283,35.16200776027834,126.91093551672485
301,9,98194,κ΄‘μ£Ό μ‹ μ•λ™ λΈλΌμ΄λ„νΈ κ΄‘μ£Όμ‹ μ•μ ,λ¨ν…”,motel,50000,60000,,κ΄‘μ£Ό,λ¶κµ¬ / κ΄‘μ£Όμ—­ / μ „λ‚¨λ€μ‚¬κ±°λ¦¬,300000026,200000283,35.16702928026443,126.90317593190161
302,10,99067,κ΄‘μ£Ό μ©λ΄‰λ™ λΈλΌμ΄λ„νΈ κ΄‘μ£Όμ©λ΄‰μ (κµ¬. λ‹¤λΉμΉνΈν…”),λ¨ν…”,motel,60000,60000,,κ΄‘μ£Ό,λ¶κµ¬ / κ΄‘μ£Όμ—­ / μ „λ‚¨λ€μ‚¬κ±°λ¦¬,300000026,200000283,35.17948806184047,126.89514530227703
303,11,91253,κ΄‘μ£Ό λ‘μ•”λ™ λΈλΌμ΄λ„νΈ λ™κ΄‘μ£Όμ ,λ¨ν…”,motel,50000,50000,,κ΄‘μ£Ό,λ¶κµ¬ / κ΄‘μ£Όμ—­ / μ „λ‚¨λ€μ‚¬κ±°λ¦¬,300000026,200000283,35.17692205640862,126.92895797151304
304,12,81671,κ΄‘μ£Ό μ‹ μ•λ™ K-boutique νΈν…”,λ¨ν…”,motel,50000,0,,κ΄‘μ£Ό,λ¶κµ¬ / κ΄‘μ£Όμ—­ / μ „λ‚¨λ€μ‚¬κ±°λ¦¬,300000026,200000283,35.1635131,126.9041076
305,13,69842,κ΄‘μ£Ό μ¤‘ν¥λ™ νΈν…” μ™€,λ¨ν…”,motel,35000,35000,"β…λ„·ν”λ¦­μ¤ μ‹μ²­κ°€λ¥, κ°€μ„±λΉ„ μµκ³ , μΏ ν°μ κ³µ!",κ΄‘μ£Ό,λ¶κµ¬ / κ΄‘μ£Όμ—­ / μ „λ‚¨λ€μ‚¬κ±°λ¦¬,300000026,200000283,35.1631654,126.90882179999994
306,14,79378,κ΄‘μ£Ό μ–‘μ‚°λ™ μΈ,λ¨ν…”,motel,45000,0,,κ΄‘μ£Ό,λ¶κµ¬ / κ΄‘μ£Όμ—­ / μ „λ‚¨λ€μ‚¬κ±°λ¦¬,300000026,200000283,35.2133007,126.8755987
307,15,84877,κ΄‘μ£Ό μ²¨λ‹¨ YAJA κ΄‘μ£Όμ²¨λ‹¨μ ,λ¨ν…”,motel,60000,0,"μ „κ°μ‹¤ λ…Έν•λ“ I5 RTX3060 240hz λ°°κ·Έμµκ³ μ‚¬μ–‘ κ°€λ¥ / λ…Έλλ°©, νν‹°λ£Έ, μ„Ένƒμ‹¤, 75μΈμΉ TV, μ¤νƒ€μΌλ¬ κµ¬λΉ„",κ΄‘μ£Ό,λ¶κµ¬ / κ΄‘μ£Όμ—­ / μ „λ‚¨λ€μ‚¬κ±°λ¦¬,300000026,200000283,35.21954799385002,126.85312481187626
308,16,81434,κ΄‘μ£Ό μ¤‘ν¥λ™ νΈν…”μ„ΈλΈλΈλ¦­μ¤ κ΄‘μ£Όμ—­μ ,λ¨ν…”,motel,40000,40000,,κ΄‘μ£Ό,λ¶κµ¬ / κ΄‘μ£Όμ—­ / μ „λ‚¨λ€μ‚¬κ±°λ¦¬,300000026,200000283,35.1621908,126.9088034
309,17,78974,κ΄‘μ£Ό μ‹ μ•λ™ μ΄λλ¦Ό BUSINESS HOTEL,λ¨ν…”,motel,35000,0,β”οΈκ³¨λΌλ¨Ήλ” ν•κ°•λΌλ©΄λ·”ν λ¬΄λ£μ κ³µ μ¤ν”,κ΄‘μ£Ό,λ¶κµ¬ / κ΄‘μ£Όμ—­ / μ „λ‚¨λ€μ‚¬κ±°λ¦¬,300000026,200000283,35.1665077,126.90353720000007
310,18,67336,κ΄‘μ£Ό μ΄μ•”λ™ μ—¬κΈ°μ΅°μ•„ λ¬΄μΈνΈν…”,λ¨ν…”,motel,50000,0,,κ΄‘μ£Ό,λ¶κµ¬ / κ΄‘μ£Όμ—­ / μ „λ‚¨λ€μ‚¬κ±°λ¦¬,300000026,200000283,35.173524,126.88337980000006
311,19,88319,κ΄‘μ£Ό μ©λ΄‰λ™ YAJA κ΄‘μ£Όμ©λ΄‰μ ,λ¨ν…”,motel,50000,50000,,κ΄‘μ£Ό,λ¶κµ¬ / κ΄‘μ£Όμ—­ / μ „λ‚¨λ€μ‚¬κ±°λ¦¬,300000026,200000283,35.17967655329351,126.89467231485759
312,20,73825,κ΄‘μ£Ό μ‹ μ•λ™ μν”Όμ•„&μ•„λ¦¬μ•„ λ“λΌμ΄λΈμΈ λ¬΄μΈν…”,λ¨ν…”,motel,35000,35000,β…75μΈμΉTVβ…μ¤νƒ€μΌλ¬ κµ¬λΉ„β…λ„·ν”λ¦­μ¤ μ‹μ²­κ°€λ¥β…24μ‹κ°„λ€μ‹¤,κ΄‘μ£Ό,λ¶κµ¬ / κ΄‘μ£Όμ—­ / μ „λ‚¨λ€μ‚¬κ±°λ¦¬,300000026,200000283,35.1645853,126.90439000000003
313,21,73136,κ΄‘μ£Ό μ΄μ•”λ™ E,λ¨ν…”,motel,35000,0,μ „κ°μ‹¤ λ¬΄λ£ μ™€μ΄νμ΄ μ κ³µ,κ΄‘μ£Ό,λ¶κµ¬ / κ΄‘μ£Όμ—­ / μ „λ‚¨λ€μ‚¬κ±°λ¦¬,300000026,200000283,35.1727238,126.8827377
314,22,83141,κ΄‘μ£Ό μ¤‘ν¥λ™ νΈν…”μ—¬κΈ°μ–΄λ• κ΄‘μ£Όμ—­μ ,λ¨ν…”,motel,40000,0,,κ΄‘μ£Ό,λ¶κµ¬ / κ΄‘μ£Όμ—­ / μ „λ‚¨λ€μ‚¬κ±°λ¦¬,300000026,200000283,35.16134125500587,126.90901889785812
315,23,79491,κ΄‘μ£Ό μ©λ΄‰λ™ νΈν…” μ•„κ·Έλ„¤μ¤,λ¨ν…”,motel,40000,0,,κ΄‘μ£Ό,λ¶κµ¬ / κ΄‘μ£Όμ—­ / μ „λ‚¨λ€μ‚¬κ±°λ¦¬,300000026,200000283,35.1802547,126.8948123
316,24,76734,κ΄‘μ£Ό μ–‘μ‚°λ™ VνΈν…” κ±°κΈ°μ΅°μ•„,λ¨ν…”,motel,50000,0,,κ΄‘μ£Ό,λ¶κµ¬ / κ΄‘μ£Όμ—­ / μ „λ‚¨λ€μ‚¬κ±°λ¦¬,300000026,200000283,35.2131026,126.87542789999998
317,25,83816,κ΄‘μ£Ό μ¤‘ν¥λ™ νΈν…” λ” κ·Έλ‘,λ¨ν…”,motel,40000,50000,!!μ„ μ°©μ ν• μΈ μΏ ν°!!#μ•Όκµ¬μ›μ •κ²½κΈ°#λΉ„μ¦λ‹μ¤#νν‹°λ£Έ#ν΄μ‹#μΎμ #κΉ”λ”#κ΄‘μ£Ό#νΈν…”,κ΄‘μ£Ό,λ¶κµ¬ / κ΄‘μ£Όμ—­ / μ „λ‚¨λ€μ‚¬κ±°λ¦¬,300000026,200000283,35.159532687584225,126.90883090841616
318,26,75743,κ΄‘μ£Ό μ©λ΄‰λ™ λ„¤λ¨ λ¬΄μΈν…”,λ¨ν…”,motel,50000,0,,κ΄‘μ£Ό,λ¶κµ¬ / κ΄‘μ£Όμ—­ / μ „λ‚¨λ€μ‚¬κ±°λ¦¬,300000026,200000283,35.1798605,126.89512160000004
319,27,74964,κ΄‘μ£Ό μ‹ μ•λ™ μΉ΄ν†΅,λ¨ν…”,motel,28000,0,,κ΄‘μ£Ό,λ¶κµ¬ / κ΄‘μ£Όμ—­ / μ „λ‚¨λ€μ‚¬κ±°λ¦¬,300000026,200000283,35.1662307,126.90345379999997
320,28,66959,κ΄‘μ£Ό μ‹ μ•λ™ μΏ΅,λ¨ν…”,motel,32000,0,λ¬΄ν•μΏ ν°λ£Έ μ΄μ©μ‹ λ‹¤μλ²μ— μ‚¬μ©ν• μ μλ” 50%μΏ ν° μ κ³µ,κ΄‘μ£Ό,λ¶κµ¬ / κ΄‘μ£Όμ—­ / μ „λ‚¨λ€μ‚¬κ±°λ¦¬,300000026,200000283,35.1642597,126.90253589999998
321,30,85324,κ΄‘μ£Ό λ‘μ•”λ™ YAJA λ™κ΄‘μ£Όμ ,λ¨ν…”,motel,45000,45000,22λ…„1μ›” GRAND OPENβ¤ λ„·ν”λ¦­μ¤κ°€λ¥β¤,κ΄‘μ£Ό,λ¶κµ¬ / κ΄‘μ£Όμ—­ / μ „λ‚¨λ€μ‚¬κ±°λ¦¬,300000026,200000283,35.17722436797978,126.92769723777961
322,31,82503,κ΄‘μ£Ό μ‹ μ•λ™ HOTEL STAY 38,λ¨ν…”,motel,35000,0,,κ΄‘μ£Ό,λ¶κµ¬ / κ΄‘μ£Όμ—­ / μ „λ‚¨λ€μ‚¬κ±°λ¦¬,300000026,200000283,35.16308427308653,126.90511607138131
323,33,72663,κ΄‘μ£Ό μ‹ μ•λ™ λ”μ,λ¨ν…”,motel,35000,35000,κΉ¨λ—ν•κ³  μ„Έλ ¨λ λ¨ν…” μ¶”μ² - λ”μ(The Za) -,κ΄‘μ£Ό,λ¶κµ¬ / κ΄‘μ£Όμ—­ / μ „λ‚¨λ€μ‚¬κ±°λ¦¬,300000026,200000283,35.1651203,126.90403300000003
324,34,72012,κ΄‘μ£Ό μ΄μ•”λ™ μ†ν’,λ¨ν…”,motel,40000,0,,κ΄‘μ£Ό,λ¶κµ¬ / κ΄‘μ£Όμ—­ / μ „λ‚¨λ€μ‚¬κ±°λ¦¬,300000026,200000283,35.1735958,126.88323279999997
325,35,67718,κ΄‘μ£Ό μ¤‘ν¥λ™ μ  ν‹€λ§¨ λ“λΌμ΄λΈμΈ λ¬΄μΈν…”(κ΄‘μ£Όμ—­μ ),λ¨ν…”,motel,0,0,,κ΄‘μ£Ό,λ¶κµ¬ / κ΄‘μ£Όμ—­ / μ „λ‚¨λ€μ‚¬κ±°λ¦¬,300000026,200000283,35.16024860168874,126.90918708393419
326,36,75889,κ΄‘μ£Ό μ΄μ•”λ™ λΉ„μ—”λ‚ λ νΈν…”,λ¨ν…”,motel,55000,0,,κ΄‘μ£Ό,λ¶κµ¬ / κ΄‘μ£Όμ—­ / μ „λ‚¨λ€μ‚¬κ±°λ¦¬,300000026,200000283,35.1729673,126.88378910000006
327,37,66847,κ΄‘μ£Ό μ‹ μ•λ™ λ¬λΈμ¤ν† λ¦¬,λ¨ν…”,motel,30000,30000,,κ΄‘μ£Ό,λ¶κµ¬ / κ΄‘μ£Όμ—­ / μ „λ‚¨λ€μ‚¬κ±°λ¦¬,300000026,200000283,35.1635434,126.90583919999995
328,38,66798,κ΄‘μ£Ό μ‹ μ•λ™ μ—¬κΈ°μ„μμ,λ¨ν…”,motel,40000,0,#ν•λ‹¬κ°„ ν”„λ¦¬λ―Έμ—„ κ°μ‹¤ ν• μΈμ΄λ²¤νΈ λ§μ€ μ΄μ©λ°”λλ‹λ‹¤.#μ „κ°μ‹¤ λ„·ν”λ¦­μ¤ μ‹μ²­κ°€λ¥! μ™λ°•μ΄μ© κ³ κ°λ‹ λ¨λ‘μ—κ² μ΅°μ‹μ κ³µ!,κ΄‘μ£Ό,λ¶κµ¬ / κ΄‘μ£Όμ—­ / μ „λ‚¨λ€μ‚¬κ±°λ¦¬,300000026,200000283,35.162714,126.90625709999995
329,39,75970,κ΄‘μ£Ό μ λ™ κ±°κΈ°μ΅°μ•„ λ“λΌμ΄λΈμΈ λ¬΄μΈν…”,λ¨ν…”,motel,42000,42000,,κ΄‘μ£Ό,λ¶κµ¬ / κ΄‘μ£Όμ—­ / μ „λ‚¨λ€μ‚¬κ±°λ¦¬,300000026,200000283,35.1602125,126.90589699999998
330,40,68726,κ΄‘μ£Ό μ°μ‚°λ™ μ¤μΉ΄μ΄,λ¨ν…”,motel,40000,0,,κ΄‘μ£Ό,λ¶κµ¬ / κ΄‘μ£Όμ—­ / μ „λ‚¨λ€μ‚¬κ±°λ¦¬,300000026,200000283,35.1657183,126.91892949999999
331,41,67354,κ΄‘μ£Ό μ‹ μ•λ™ νΈν…” λ‚ν΄λ¦¬,λ¨ν…”,motel,35000,0,,κ΄‘μ£Ό,λ¶κµ¬ / κ΄‘μ£Όμ—­ / μ „λ‚¨λ€μ‚¬κ±°λ¦¬,300000026,200000283,35.1654239,126.90653769999994
332,42,82347,κ΄‘μ£Ό μ΄μ•”λ™ STAY ν΄,λ¨ν…”,motel,35000,35000,"#μ„ μ°©μμΏ ν° #μ „κ°μ‹¤λ„·ν”λ¦­μ¤,λΉ„λ° κ°€λ¥ #λ§¤μΌμ‚΄κ· μ†λ…",κ΄‘μ£Ό,λ¶κµ¬ / κ΄‘μ£Όμ—­ / μ „λ‚¨λ€μ‚¬κ±°λ¦¬,300000026,200000283,35.173202909437144,126.88408679418811
333,43,74654,κ΄‘μ£Ό λ„λ¬Έλ™ ν”λ¬μ¤,λ¨ν…”,motel,25000,0,,κ΄‘μ£Ό,λ¶κµ¬ / κ΄‘μ£Όμ—­ / μ „λ‚¨λ€μ‚¬κ±°λ¦¬,300000026,200000283,35.1547665,126.903972
334,44,68443,κ΄‘μ£Ό μ²¨λ‹¨ μ‹Έμ΄λ²„νν¬,λ¨ν…”,motel,40000,0,β™¥λ¬΄ν•λ€μ‹¤ νΉλ³„μ΄λ²¤νΈ μµλ€ 11μ‹κ°„μ μ©β™¥,κ΄‘μ£Ό,λ¶κµ¬ / κ΄‘μ£Όμ—­ / μ „λ‚¨λ€μ‚¬κ±°λ¦¬,300000026,200000283,35.2209244,126.853207
335,45,80216,κ΄‘μ£Ό μ¤‘ν¥λ™ μ„ΈμΆ…νΈν…”,λ¨ν…”,motel,30000,30000,"μνΌλΌμ§€ ν‚Ή μ‚¬μ΄μ¦ (180*200) , μνΌμ‹±κΈ€ (120*200) μ‚¬μ΄μ¦ κΈ°λ³Έ μΉ¨λ€ λ³΄μ !!",κ΄‘μ£Ό,λ¶κµ¬ / κ΄‘μ£Όμ—­ / μ „λ‚¨λ€μ‚¬κ±°λ¦¬,300000026,200000283,35.1618244,126.9093604
336,46,76518,κ΄‘μ£Ό μ‹ μ•λ™ YAJA κ΄‘μ£Όμ—­μ ,λ¨ν…”,motel,35000,35000,,κ΄‘μ£Ό,λ¶κµ¬ / κ΄‘μ£Όμ—­ / μ „λ‚¨λ€μ‚¬κ±°λ¦¬,300000026,200000283,35.1641072,126.90471539999999
337,47,66950,κ΄‘μ£Ό μ‹ μ•λ™ νΈν…” ν”„λΌμ„,λ¨ν…”,motel,35000,0,,κ΄‘μ£Ό,λ¶κµ¬ / κ΄‘μ£Όμ—­ / μ „λ‚¨λ€μ‚¬κ±°λ¦¬,300000026,200000283,35.1654583,126.90640699999994
338,48,67920,κ΄‘μ£Ό μ‹ μ•λ™ μ› λ¬΄μΈν…”,λ¨ν…”,motel,28000,0,,κ΄‘μ£Ό,λ¶κµ¬ / κ΄‘μ£Όμ—­ / μ „λ‚¨λ€μ‚¬κ±°λ¦¬,300000026,200000283,35.1626797,126.90693220000003
339,49,89363,κ΄‘μ£Ό μ‹ μ•λ™ μ΄λλ¦ΌνΈν…” μ•„λ“λ¦¬μ•„μ ,λ¨ν…”,motel,30000,0,,κ΄‘μ£Ό,λ¶κµ¬ / κ΄‘μ£Όμ—­ / μ „λ‚¨λ€μ‚¬κ±°λ¦¬,300000026,200000283,35.1640726857948,126.90389849964633
340,50,67217,κ΄‘μ£Ό μ‹ μ•λ™ μ¤μΉ΄μ΄,λ¨ν…”,motel,40000,35000,,κ΄‘μ£Ό,λ¶κµ¬ / κ΄‘μ£Όμ—­ / μ „λ‚¨λ€μ‚¬κ±°λ¦¬,300000026,200000283,35.1627071,126.9065836
341,51,76032,κ΄‘μ£Ό μ λ™ μλ ν† ,λ¨ν…”,motel,25000,25000,,κ΄‘μ£Ό,λ¶κµ¬ / κ΄‘μ£Όμ—­ / μ „λ‚¨λ€μ‚¬κ±°λ¦¬,300000026,200000283,35.1607023,126.9054
342,52,67775,κ΄‘μ£Ό μ²¨λ‹¨ N,λ¨ν…”,motel,30000,0,,κ΄‘μ£Ό,λ¶κµ¬ / κ΄‘μ£Όμ—­ / μ „λ‚¨λ€μ‚¬κ±°λ¦¬,300000026,200000283,35.2205641,126.85320360000003
343,53,68725,κ΄‘μ£Ό μ²¨λ‹¨ ν΄ λ¬΄μΈν…”,λ¨ν…”,motel,50000,0,,κ΄‘μ£Ό,λ¶κµ¬ / κ΄‘μ£Όμ—­ / μ „λ‚¨λ€μ‚¬κ±°λ¦¬,300000026,200000283,35.219130017,126.85319182900002
344,54,68019,κ΄‘μ£Ό μ‹ μ•λ™ ν•΄ν”Όλ°μ΄,λ¨ν…”,motel,27000,0,β¨λ„·ν”λ¦­μ¤ μ‹μ²­ κ°€λ¥ / κ΄‘μ£Όμ—­ λ„λ³΄ 5λ¶„ κ±°λ¦¬β¨,κ΄‘μ£Ό,λ¶κµ¬ / κ΄‘μ£Όμ—­ / μ „λ‚¨λ€μ‚¬κ±°λ¦¬,300000026,200000283,35.1635501,126.9075878
345,55,99712,κ΄‘μ£Ό λΈλΌμ΄λ„νΈ κ΄‘μ£Όμ‹ μ•,νΈν…”,hotel,65000,65000,,κ΄‘μ£Ό,λ¶κµ¬ / κ΄‘μ£Όμ—­ / μ „λ‚¨λ€μ‚¬κ±°λ¦¬,300000026,200000283,35.16702928026443,126.90317593190161
346,56,67032,κ΄‘μ£Ό μ΄μ•”λ™ ν…λ§,λ¨ν…”,motel,0,0,λ¬΄ν•μΏ ν°λ£Έ μ΄μ©μ‹ λ‹¤μλ²μ— μ‚¬μ©ν• μ μλ” 50%μΏ ν° μ κ³µ,κ΄‘μ£Ό,λ¶κµ¬ / κ΄‘μ£Όμ—­ / μ „λ‚¨λ€μ‚¬κ±°λ¦¬,300000026,200000283,35.1701503,126.88400189999993
347,57,85083,κ΄‘μ£Ό λ‘μ•”λ™ S,λ¨ν…”,motel,0,0,,κ΄‘μ£Ό,λ¶κµ¬ / κ΄‘μ£Όμ—­ / μ „λ‚¨λ€μ‚¬κ±°λ¦¬,300000026,200000283,35.1767422472493,126.92883592268427
348,58,85774,κ΄‘μ£Ό μ¤μΉλ™ κ΄‘μ£Όκ΄€κ΄‘νΈν…”,λ¨ν…”,motel,100000,0,,κ΄‘μ£Ό,λ¶κµ¬ / κ΄‘μ£Όμ—­ / μ „λ‚¨λ€μ‚¬κ±°λ¦¬,300000026,200000283,35.19235610112279,126.90137189388993
349,59,88753,κ΄‘μ£Ό μ‹ μ•λ™ νλΌμ¤,λ¨ν…”,motel,35000,35000,,κ΄‘μ£Ό,λ¶κµ¬ / κ΄‘μ£Όμ—­ / μ „λ‚¨λ€μ‚¬κ±°λ¦¬,300000026,200000283,35.164208471744296,126.90430012577424
350,60,68731,κ΄‘μ£Ό λ¶λ™ λ‚μ΄μ•„νΈ,λ¨ν…”,motel,30000,0,,κ΄‘μ£Ό,λ¶κµ¬ / κ΄‘μ£Όμ—­ / μ „λ‚¨λ€μ‚¬κ±°λ¦¬,300000026,200000283,35.154683508,126.91024745599998
351,61,79210,κ΄‘μ£Ό μ΄μ•”λ™ μƒ¤λ¥΄λ§,λ¨ν…”,motel,35000,35000,,κ΄‘μ£Ό,λ¶κµ¬ / κ΄‘μ£Όμ—­ / μ „λ‚¨λ€μ‚¬κ±°λ¦¬,300000026,200000283,35.1726915,126.8856857
352,62,98477,κ΄‘μ£Ό μ²¨λ‹¨ νΈν…” λ” μ¤ν,λ¨ν…”,motel,0,0,,κ΄‘μ£Ό,λ¶κµ¬ / κ΄‘μ£Όμ—­ / μ „λ‚¨λ€μ‚¬κ±°λ¦¬,300000026,200000283,35.22074365286344,126.85312008059962
353,63,86250,κ΄‘μ£Ό λ‘μ•”λ™ λ‘λ¦¬μ•,λ¨ν…”,motel,0,0,,κ΄‘μ£Ό,λ¶κµ¬ / κ΄‘μ£Όμ—­ / μ „λ‚¨λ€μ‚¬κ±°λ¦¬,300000026,200000283,35.18050312940811,126.92938985831229
