,index,code,name,grade,type,d_price,price,benefit,region_L,region_S,code_L,code_S,lat,lon
0,0,91699,λ€κµ¬ λΉλ¦¬μ–Έμ›¨μ¤ν„΄νΈν…”,νΈν…”,hotel,169000,169000,,λ€κµ¬,λ‹¬μ„κµ¬ / μ„±μ„ / μ£½μ „ / λ³Έλ¦¬,300000022,200000245,35.84113925375087,128.49137210471523
1,1,78630,λΈλΌμ΄λ„νΈ λ€κµ¬μ„±μ„μ ,νΈν…”,hotel,75500,200000,,λ€κµ¬,λ‹¬μ„κµ¬ / μ„±μ„ / μ£½μ „ / λ³Έλ¦¬,300000022,200000245,35.841039,128.488852
2,2,84449,λ¶€μ‚° κµ¬ν¬ λΈλΌμ΄λ„νΈ,νΈν…”,hotel,47500,110000,,λ€κµ¬,λ‹¬μ„κµ¬ / μ„±μ„ / μ£½μ „ / λ³Έλ¦¬,300000022,200000245,35.208318,129.001214
3,3,92110,λ€κµ¬ νΈν…” ν¬λΌν μ„±μ„μ ,νΈν…”,hotel,85000,85000,2022 GRAND OPEN / 2023 ν•κµ­κ΄€κ΄‘ν’μ§μΈμ¦,λ€κµ¬,λ‹¬μ„κµ¬ / μ„±μ„ / μ£½μ „ / λ³Έλ¦¬,300000022,200000245,35.835446,128.488519
4,4,91724,ν•μ΄λ“ νΈν…” λ€κµ¬μ„±μ„μ ,νΈν…”,hotel,75500,200000,,λ€κµ¬,λ‹¬μ„κµ¬ / μ„±μ„ / μ£½μ „ / λ³Έλ¦¬,300000022,200000245,35.83916495488365,128.4891578979498
5,5,98745,μ—¬μ λ‚­λ§λ°¤λ°”λ‹¤νμ…,νμ…,pension,68800,86000,,λ€κµ¬,λ‹¬μ„κµ¬ / μ„±μ„ / μ£½μ „ / λ³Έλ¦¬,300000022,200000245,34.7373933986932,127.741327204963
6,6,95963,λ€κµ¬ μƒμΈλ™ ν•„,λ¨ν…”,motel,50000,0,μƒλ²½μ™λ°• 12μ‹κ°„ μ΄μ©κ°€λ¥(ν›„κΈ°μ† μ™μ†μ •μ±…μ—μ„ ν™•μΈκ°€λ¥) - λ„·ν”λ¦­μ¤ κ°μΈ κ³„μ •μΌλ΅ μ‹μ²­ κ°€λ¥,λ€κµ¬,λ‹¬μ„κµ¬ / μ„±μ„ / μ£½μ „ / λ³Έλ¦¬,300000022,200000245,35.81623330463845,128.53175107810614
7,7,98137,μ μ£Ό μ°λ„νΉλ³„μ‹νμ…,νμ…,pension,0,0,,λ€κµ¬,λ‹¬μ„κµ¬ / μ„±μ„ / μ£½μ „ / λ³Έλ¦¬,300000022,200000245,33.5067048687105,126.966997068131
8,8,87497,κ²½μ£Ό λ³„μλ¦¬μΊ ν•‘λλ“ κΈ€λ¨ν•‘(μΊ ν•‘μ© κ·Έλ¦¬λ“¤  λ¬΄λ£ λ€μ—¬),νμ…,pension,125100,139000,,λ€κµ¬,λ‹¬μ„κµ¬ / μ„±μ„ / μ£½μ „ / λ³Έλ¦¬,300000022,200000245,35.7888286808469,129.198773210937
9,9,89227,λ€κµ¬ μ„±μ„ λΉλ¦¬μ–Έμ›¨μ¤ν„΄ νΈν…”,λ¨ν…”,motel,149000,149000,1μΈ λΉ„μ§€λ‹μ¤λ£Έ μ΅°μ‹ ν¨ν‚¤μ§€ νΉλ³„ν• μΈ νΈν…”λ΅ λ¬Έμλ°”λλ‹λ‹¤.053-581-8888,λ€κµ¬,λ‹¬μ„κµ¬ / μ„±μ„ / μ£½μ „ / λ³Έλ¦¬,300000022,200000245,35.84113925375087,128.49137210471523
10,10,80654,λ€κµ¬ μ„±μ„ 42HOTEL By February,λ¨ν…”,motel,65000,65000,β¨κΏ€νβ¨ β†‘β†‘β†‘ ν†µν¬κ² μλ‹¤! μ„ μ°©μ μμ•½ν• μΈμΏ ν°(λ§κ°μ„λ°•!),λ€κµ¬,λ‹¬μ„κµ¬ / μ„±μ„ / μ£½μ „ / λ³Έλ¦¬,300000022,200000245,35.84300502249703,128.48664534923876
11,11,77758,λ€κµ¬ λ€κ³΅ μ—λ¦¬μ‹μ•„,λ¨ν…”,motel,90000,0,β€» 2019.06 GRAND OPEN !! β€»,λ€κµ¬,λ‹¬μ„κµ¬ / μ„±μ„ / μ£½μ „ / λ³Έλ¦¬,300000022,200000245,35.8018836,128.53157599999997
12,12,66998,λ€κµ¬ μ„±μ„ CF,λ¨ν…”,motel,45000,0,"β… μ „ν™”μμ•½μ‹, μ™λ°•κ³ κ° μ¤ν›„2μ‹ ν‡΄μ‹¤ μ΄λ²¤νΈ μ§„ν–‰μ¤‘ !!~",λ€κµ¬,λ‹¬μ„κµ¬ / μ„±μ„ / μ£½μ „ / λ³Έλ¦¬,300000022,200000245,35.8430084,128.48716030000003
13,13,72436,λ€κµ¬ λ³Έλ¦¬λ™ ν…ν¬λ‹‰,λ¨ν…”,motel,40000,0,,λ€κµ¬,λ‹¬μ„κµ¬ / μ„±μ„ / μ£½μ „ / λ³Έλ¦¬,300000022,200000245,35.8410001,128.53428810000003
14,14,77861,λ€κµ¬ μ„±μ„ YAJA λ€κµ¬μ„±μ„μ ,λ¨ν…”,motel,60000,60000,"μ΅°μ‹ μ κ³µ μ„λΉ„μ¤ AM 07:00~08:40 ,    κ°μ‹¤λ¬Έμ 053-588-9400",λ€κµ¬,λ‹¬μ„κµ¬ / μ„±μ„ / μ£½μ „ / λ³Έλ¦¬,300000022,200000245,35.8406821,128.49010509999994
15,15,87087,λ€κµ¬ μ„±μ„ ν•μ΄λ“ λ€κµ¬μ„±μ„μ ,λ¨ν…”,motel,70000,0,,λ€κµ¬,λ‹¬μ„κµ¬ / μ„±μ„ / μ£½μ „ / λ³Έλ¦¬,300000022,200000245,35.83916495488365,128.4891578979498
16,16,66910,λ€κµ¬ μ„±μ„ hotel the stay λ‚­λ§,λ¨ν…”,motel,50000,50000,"β¨ν‰λ¦¬μ , μ„±μ„μ μ— μ΄μ–΄ νƒμ „μ  GRAND OPEN ! β¨",λ€κµ¬,λ‹¬μ„κµ¬ / μ„±μ„ / μ£½μ „ / λ³Έλ¦¬,300000022,200000245,35.842481419825084,128.48701038461738
17,17,85790,λ€κµ¬ μ„±μ„ JB ν”„λ¦¬λ―Έμ—„νΈν…”,λ¨ν…”,motel,50000,50000,,λ€κµ¬,λ‹¬μ„κµ¬ / μ„±μ„ / μ£½μ „ / λ³Έλ¦¬,300000022,200000245,35.83546577197579,128.48944963558685
18,18,87842,μΈμ§„ μ©μ§„νν¬,λ¨ν…”,motel,0,0,,λ€κµ¬,λ‹¬μ„κµ¬ / μ„±μ„ / μ£½μ „ / λ³Έλ¦¬,300000022,200000245,37.07317810041464,129.40323932785037
19,19,77850,λ€κµ¬ μ΄κ³΅λ™ μ λ‹λ“νΈν…”,λ¨ν…”,motel,75000,75000,β­ μ΄κ³΅λ™ μ λ‹λ“νΈν…” μμ²΄λ°©μ—­ μ§„ν–‰ μ¤‘ β­ν• μΈμΏ ν°μ΄ λ¤μΌλ΅ λ μ© β­ λ¬΄λ£μ΅°μ‹κΉμ§€ ! λ“ λ“ ν• μ•„μΉ¨μ„ μ±…μ„μ§‘λ‹λ‹¤ !,λ€κµ¬,λ‹¬μ„κµ¬ / μ„±μ„ / μ£½μ „ / λ³Έλ¦¬,300000022,200000245,35.8545538,128.50612679999995
20,20,68730,λ€κµ¬ μ„±μ„ μ΄μ½λ¦Ώ,λ¨ν…”,motel,45000,0,,λ€κµ¬,λ‹¬μ„κµ¬ / μ„±μ„ / μ£½μ „ / λ³Έλ¦¬,300000022,200000245,35.835947902,128.488486985
21,21,77872,λ€κµ¬ μ„±μ„ λΈλΌμ΄λ„νΈ λ€κµ¬μ„±μ„μ ,λ¨ν…”,motel,70000,0,"μ™λ°•κ³ κ° μ΅°μ‹μ κ³µ(7~9AM μ΄μ©κ°€λ¥) , κ°μ‹¤λ¬Έμ 053-592-3616",λ€κµ¬,λ‹¬μ„κµ¬ / μ„±μ„ / μ£½μ „ / λ³Έλ¦¬,300000022,200000245,35.8410387,128.48885199999995
22,22,84597,νƒμ• ν‚΄μ¤λ² μ΄νμ…(κ°λ³„ν…λΌμ¤),νμ…,pension,0,0,,λ€κµ¬,λ‹¬μ„κµ¬ / μ„±μ„ / μ£½μ „ / λ³Έλ¦¬,300000022,200000245,36.8677475130205,126.303901947383
23,23,77573,λ€κµ¬ μ„±μ„ GRIGO(κ·Έλ¦¬κ³ ),λ¨ν…”,motel,50000,0,λ“ λ“ ν• λ¬΄λ£ μ΅°μ‹ ν•λΌ ν™”~κΈ/7:30~09:00,λ€κµ¬,λ‹¬μ„κµ¬ / μ„±μ„ / μ£½μ „ / λ³Έλ¦¬,300000022,200000245,35.8399425,128.48955260000002
24,24,72940,λ€κµ¬ λ‘λ¥ ν„,λ¨ν…”,motel,35000,0,,λ€κµ¬,λ‹¬μ„κµ¬ / μ„±μ„ / μ£½μ „ / λ³Έλ¦¬,300000022,200000245,35.8428142,128.5541584
25,25,81476,λ€κµ¬ μ„±μ„ νΈν…” μ¤μ„νΈ(HOTEL SWEET),λ¨ν…”,motel,60000,0,μ¶μ¥ λΉ„μ¦λ‹μ¤ κ³ κ° μ΅°μ‹μ κ³µ(AM 07~09μ‹),λ€κµ¬,λ‹¬μ„κµ¬ / μ„±μ„ / μ£½μ „ / λ³Έλ¦¬,300000022,200000245,35.83864604064077,128.48861969270237
26,26,82180,λ€κµ¬ λ‘λ¥ μ¤μ„νΈνΈν…”(Sweet hotel),λ¨ν…”,motel,40000,0,,λ€κµ¬,λ‹¬μ„κµ¬ / μ„±μ„ / μ£½μ „ / λ³Έλ¦¬,300000022,200000245,35.84845005583266,128.56876342005862
27,27,85729,λ€κµ¬ μ΄κ³΅λ™ λ·°,λ¨ν…”,motel,60000,60000,,λ€κµ¬,λ‹¬μ„κµ¬ / μ„±μ„ / μ£½μ „ / λ³Έλ¦¬,300000022,200000245,35.85433415317262,128.50581298295197
28,28,78278,λ€κµ¬ μ„±μ„ νΈν…” λ¦¬μΈ (Ritz),λ¨ν…”,motel,56000,59000,#λ§¤μΌλ§¤μΌ μ§€κΈ‰λλ” μΏ ν°μ„ μ΅μΌμ„Έμ§!β(&lsquo;&omega;&rsquo;)β,λ€κµ¬,λ‹¬μ„κµ¬ / μ„±μ„ / μ£½μ „ / λ³Έλ¦¬,300000022,200000245,35.8405039,128.49092210000003
29,29,76493,λ€κµ¬ μ„λ¶€μ •λ¥μ¥ λΉ„λ„μ¤,λ¨ν…”,motel,35000,30000,,λ€κµ¬,λ‹¬μ„κµ¬ / μ„±μ„ / μ£½μ „ / λ³Έλ¦¬,300000022,200000245,35.8377706,128.55542830000002
30,30,67393,λ€κµ¬ μ„±μ„ DO(λ‘) HOTEL,λ¨ν…”,motel,45000,45000,β¤μ„±μ„ DO(λ‘) λ§μ νΉλ³„ν•¨β™¥,λ€κµ¬,λ‹¬μ„κµ¬ / μ„±μ„ / μ£½μ „ / λ³Έλ¦¬,300000022,200000245,35.8386609,128.48913259999995
31,31,76301,λ€κµ¬ μ„±μ„ νΈν…” TOP,λ¨ν…”,motel,55000,55000,,λ€κµ¬,λ‹¬μ„κµ¬ / μ„±μ„ / μ£½μ „ / λ³Έλ¦¬,300000022,200000245,35.8542845,128.5084246
32,32,78751,λ€κµ¬ λ³Έλ¦¬λ™ μµμ–‘,λ¨ν…”,motel,55000,55000,βοΈμ „κ°μ‹¤ λ„·ν”λ¦­μ¤ κ°€λ¥/ κ³µκΈ°μ²­μ •κΈ°/ κ³ μ‚¬μ–‘PCβοΈ,λ€κµ¬,λ‹¬μ„κµ¬ / μ„±μ„ / μ£½μ „ / λ³Έλ¦¬,300000022,200000245,35.8415539,128.53425189999996
33,33,70585,λ€κµ¬ λ‘λ¥ νΈν…” μ¨λ„,λ¨ν…”,motel,42000,0,βοΈ λ„·ν”λ¦­μ¤ μ‹μ²­κ°€λ¥/λ°°κ·Έκ°€λ¥/μ¶μ¥λ§μ¶¤/ ν• μΈννƒβοΈ    β£ λ°μΌλ¦¬νΈν…” ν• μΈμΏ ν° EVENT β£μΏ ν°μμ•½ Click β£,λ€κµ¬,λ‹¬μ„κµ¬ / μ„±μ„ / μ£½μ „ / λ³Έλ¦¬,300000022,200000245,35.8544236,128.55805770000006
34,34,67500,λ€κµ¬ μ„±μ„ 5μ›”μ—,λ¨ν…”,motel,55000,55000,κΉμ§ ν• μΈ μ΄λ²¤νΈ β™¥ μ£Όμ¤‘ νν‹°λ£Έ ν• μΈ μ΄λ²¤νΈ β™¥,λ€κµ¬,λ‹¬μ„κµ¬ / μ„±μ„ / μ£½μ „ / λ³Έλ¦¬,300000022,200000245,35.8382189,128.4906052
35,35,76088,λ€κµ¬ μƒμΈλ™ HOTEL λ΅λ‘,λ¨ν…”,motel,50000,50000,"λ„·ν”λ ‰μ¤ VIP,ν”„λ¦¬λ―Έμ—„λ£Έ μ„¤μΉ",λ€κµ¬,λ‹¬μ„κµ¬ / μ„±μ„ / μ£½μ „ / λ³Έλ¦¬,300000022,200000245,35.8157072,128.53219430000001
36,36,66939,λ€κµ¬ μ„±μ„ λ΅κ·ΈμΈ,λ¨ν…”,motel,45000,0,#μ „κ°μ‹¤ λ„·ν”λ¦­μ¤ μ‹μ²­κ°€λ¥,λ€κµ¬,λ‹¬μ„κµ¬ / μ„±μ„ / μ£½μ „ / λ³Έλ¦¬,300000022,200000245,35.8354614,128.4897802
37,37,67069,λ€κµ¬ μ„±μ„ μ›¨μ΄λΈ νΈν…”,λ¨ν…”,motel,45000,0,,λ€κµ¬,λ‹¬μ„κµ¬ / μ„±μ„ / μ£½μ „ / λ³Έλ¦¬,300000022,200000245,35.8359531,128.48945119999996
38,38,73194,λ€κµ¬ λ‘λ¥ μ‹μ›”μ• νΈν…”,λ¨ν…”,motel,36000,0,,λ€κµ¬,λ‹¬μ„κµ¬ / μ„±μ„ / μ£½μ „ / λ³Έλ¦¬,300000022,200000245,35.8481827,128.5672131
39,39,67130,λ€κµ¬ μ£½μ „ λΉ„μ•¤λΉ„(B&B),λ¨ν…”,motel,60000,0,β° μ•λ§μμ/λ””μ €νΈμ κ³µ/νΈν…”μ‹μΉ¨κµ¬/μ¤νμ›”ν’€/λ„“μ€μ£Όμ°¨μ¥ β°                             β£μ„Έμ¤μ½”(CESCO)μ •μ ν΄μ  /10% μΏ ν°β£μΏ ν°μ μ© Click β£,λ€κµ¬,λ‹¬μ„κµ¬ / μ„±μ„ / μ£½μ „ / λ³Έλ¦¬,300000022,200000245,35.8492004,128.53343029999996
40,40,69193,λ€κµ¬ μ„±μ„ μΈνƒ€μ„(Sometime),λ¨ν…”,motel,50000,0,,λ€κµ¬,λ‹¬μ„κµ¬ / μ„±μ„ / μ£½μ „ / λ³Έλ¦¬,300000022,200000245,35.8417968,128.48879929999998
41,41,80023,λ€κµ¬ λ‘λ¥ Hotel Daegu(νΈν…”λ€κµ¬),λ¨ν…”,motel,60000,0,β¤οΈλ€κµ¬ μ΄μ›”λ“ λ°”λ΅ μ• μ™μ†β¤οΈ ν• μΈμΏ ν°ννƒκΉμ§€,λ€κµ¬,λ‹¬μ„κµ¬ / μ„±μ„ / μ£½μ „ / λ³Έλ¦¬,300000022,200000245,35.8555597,128.5595758
42,42,67255,λ€κµ¬ μ„±μ„ κΉλ¥΄λ””μ›€,λ¨ν…”,motel,46000,0,ν• μΈμΏ ν° μ κ³µ κ²°μ μ‹ μ¦‰μ‹! μ‚¬μ©κ°€λ¥ν• μΏ ν° μ κ³µ,λ€κµ¬,λ‹¬μ„κµ¬ / μ„±μ„ / μ£½μ „ / λ³Έλ¦¬,300000022,200000245,35.8401692,128.490091
43,43,68055,λ€κµ¬ κ΄‘μ¥μ½”μ•„ λ‚λ‚(NANA),λ¨ν…”,motel,45000,0,#μ„ μ°©μ 50%λ§μ΄λ£Έ ν• μΈμΏ ν° μ κ³µ β£μΏ ν°μ μ©ν•κΈ° Click β£                                  β†κ΄‘μ¥μ½”μ•„ λ¨Ήμκ³¨λ©/λƒ‰λ‚λ°© GOOD/λλ¤λ°°μ •EVENTβ†,λ€κµ¬,λ‹¬μ„κµ¬ / μ„±μ„ / μ£½μ „ / λ³Έλ¦¬,300000022,200000245,35.8512903,128.5477495
44,44,77899,λ€κµ¬ μ„±μ„ λ¦¬μ  μ‹(REGENCY),λ¨ν…”,motel,44000,44000,,λ€κµ¬,λ‹¬μ„κµ¬ / μ„±μ„ / μ£½μ „ / λ³Έλ¦¬,300000022,200000245,35.854557,128.50577910000004
45,45,85436,λ€κµ¬ λ³Έλ¦¬λ™ λ„λ²„25 λ€κµ¬λ³Έλ™μ ,λ¨ν…”,motel,55000,0,,λ€κµ¬,λ‹¬μ„κµ¬ / μ„±μ„ / μ£½μ „ / λ³Έλ¦¬,300000022,200000245,35.83686584145553,128.5360388953932
46,46,75776,λ€κµ¬ μ„λ¶€μ •λ¥μ¥ μ¤νƒ€(STAR),λ¨ν…”,motel,57000,0,,λ€κµ¬,λ‹¬μ„κµ¬ / μ„±μ„ / μ£½μ „ / λ³Έλ¦¬,300000022,200000245,35.8382789,128.5567813
47,47,69771,λ€κµ¬ λ‘λ¥ μΌμ›”,λ¨ν…”,motel,45000,0,,λ€κµ¬,λ‹¬μ„κµ¬ / μ„±μ„ / μ£½μ „ / λ³Έλ¦¬,300000022,200000245,35.8548848,128.5586642
48,48,91728,λ€κµ¬ μ„±μ„ νΈν…” μ‹λ¦¬μ¦ 5.0,νΈν…”,hotel,80000,80000,,λ€κµ¬,λ‹¬μ„κµ¬ / μ„±μ„ / μ£½μ „ / λ³Έλ¦¬,300000022,200000245,35.83853795769119,128.49086525186394
49,49,84791,λ€κµ¬ μƒμΈλ™ λ² λ„¤μΉμ•„,λ¨ν…”,motel,40000,40000,,λ€κµ¬,λ‹¬μ„κµ¬ / μ„±μ„ / μ£½μ „ / λ³Έλ¦¬,300000022,200000245,35.81596264823303,128.53195954282242
50,50,78168,λ€κµ¬ μ„λ¶€μ •λ¥μ¥ YAJA λ€κµ¬μ„λ¶€μ •λ¥μ¥μ ,λ¨ν…”,motel,45000,50000,,λ€κµ¬,λ‹¬μ„κµ¬ / μ„±μ„ / μ£½μ „ / λ³Έλ¦¬,300000022,200000245,35.8383212,128.55759839999996
51,51,68761,λ€κµ¬ μ„±μ„ GG,λ¨ν…”,motel,43000,0,,λ€κµ¬,λ‹¬μ„κµ¬ / μ„±μ„ / μ£½μ „ / λ³Έλ¦¬,300000022,200000245,35.839915454,128.491002116
52,52,92284,λ€κµ¬ μ„±μ„ λ„λ²„25 λ€κµ¬μ„±μ„μ ,λ¨ν…”,motel,59000,59000,,λ€κµ¬,λ‹¬μ„κµ¬ / μ„±μ„ / μ£½μ „ / λ³Έλ¦¬,300000022,200000245,35.83575692944106,128.48877394679658
53,53,67241,λ€κµ¬ μ„±μ„ ν„°μΉ(Touch),λ¨ν…”,motel,50000,0,,λ€κµ¬,λ‹¬μ„κµ¬ / μ„±μ„ / μ£½μ „ / λ³Έλ¦¬,300000022,200000245,35.8417939,128.4890984
54,54,72686,λ€κµ¬ λ³Έλ¦¬λ™ λ¶€λ λ„νΈν…” 5μ›”,λ¨ν…”,motel,45000,0,λ„λ³΄ κ³ κ° ν„κΈνΉκ°€ EVENT ROOM,λ€κµ¬,λ‹¬μ„κµ¬ / μ„±μ„ / μ£½μ „ / λ³Έλ¦¬,300000022,200000245,35.8410007,128.53421219999996
55,55,72444,λ€κµ¬ λ°κ³ κ° μ‹μ¦ν¬,λ¨ν…”,motel,40000,0,# μ„ μ°©μ 2λ¶„μ—κ² λ“λ¦¬λ” κ°μ‹¤μ—…κ·Έλ μ΄λ“ ~ #,λ€κµ¬,λ‹¬μ„κµ¬ / μ„±μ„ / μ£½μ „ / λ³Έλ¦¬,300000022,200000245,35.8610631,128.5738047
56,56,69643,λ€κµ¬ λ³Έλ¦¬λ™ μ¨(ON),λ¨ν…”,motel,55000,0,,λ€κµ¬,λ‹¬μ„κµ¬ / μ„±μ„ / μ£½μ „ / λ³Έλ¦¬,300000022,200000245,35.8410938,128.5378767
57,57,72159,λ€κµ¬ λ³Έλ¦¬λ™ νΈν…” λ¬λΈ”λ¦¬,λ¨ν…”,motel,40000,40000,β›²μ›ν΄λ¦°&μ†λ…λ°©μ—­/μμν’€/κ³ κΈ‰μΉ¨κµ¬/κ±°μΈλ£Έ/λΉ„λ°β›²,λ€κµ¬,λ‹¬μ„κµ¬ / μ„±μ„ / μ£½μ „ / λ³Έλ¦¬,300000022,200000245,35.8406831,128.5378687
58,58,87088,λ€κµ¬ λ³Έλ¦¬λ™ HOTEL BON,λ¨ν…”,motel,56000,0,,λ€κµ¬,λ‹¬μ„κµ¬ / μ„±μ„ / μ£½μ „ / λ³Έλ¦¬,300000022,200000245,35.83686582498618,128.53561952240094
59,59,68100,λ€κµ¬ λ‘λ¥ λ°κ³ κ° JS,λ¨ν…”,motel,35000,0,β° μ¤νμ›”ν’€/λ―Έλ¬λ£Έ/Event Room/λƒ‰λ‚λ°©Goodβ°                                 β£μ„ μ°©μ 10%ν• μΈ μΏ ν° μ κ³µ βοΈμΏ ν°μ μ©ν•κΈ° Click βοΈ,λ€κµ¬,λ‹¬μ„κµ¬ / μ„±μ„ / μ£½μ „ / λ³Έλ¦¬,300000022,200000245,35.8608684,128.57416009999997
60,60,67690,λ€κµ¬ μ„±μ„ λ·°,λ¨ν…”,motel,40000,40000,,λ€κµ¬,λ‹¬μ„κµ¬ / μ„±μ„ / μ£½μ „ / λ³Έλ¦¬,300000022,200000245,35.8422002,128.48969
61,61,67405,λ€κµ¬ λ³Έλ¦¬λ™ μΈμ–΄,λ¨ν…”,motel,35000,35000,,λ€κµ¬,λ‹¬μ„κµ¬ / μ„±μ„ / μ£½μ „ / λ³Έλ¦¬,300000022,200000245,35.843144,128.5334113
62,62,100025,λ€κµ¬ AWνΈν…”,νΈν…”,hotel,94120,238000,,λ€κµ¬,λ‹¬μ„κµ¬ / μ„±μ„ / μ£½μ „ / λ³Έλ¦¬,300000022,200000245,35.85444380302376,128.5067042343539
63,63,87874,ν†µμ μΈνμ…,νμ…,pension,39000,59000,,λ€κµ¬,λ‹¬μ„κµ¬ / μ„±μ„ / μ£½μ „ / λ³Έλ¦¬,300000022,200000245,34.8790129157368,128.466328158783
64,64,91366,λ€κµ¬ μƒμΈλ™ μ  ,λ¨ν…”,motel,55000,0,"-μ£Όμ°¨ 17λ€ κ°€λ¥ -μƒλ²½μ™λ°• 12μ‹κ°„ μ΄μ©κ°€λ¥(ν›„κΈ°μ† μ™μ†μ •μ±…μ—μ„ ν™•μΈκ°€λ¥) -65TV, λ„·ν”λ¦­μ¤ κ°μΈ κ³„μ •μΌλ΅ μ‹μ²­ κ°€λ¥",λ€κµ¬,λ‹¬μ„κµ¬ / μ„±μ„ / μ£½μ „ / λ³Έλ¦¬,300000022,200000245,35.81585385865215,128.5308481088117
65,65,100188,λ€κµ¬ νμ‹ λ„μ‹ λμ¥¬μ•™,λ¨ν…”,motel,43000,45000,,λ€κµ¬,λ‹¬μ„κµ¬ / μ„±μ„ / μ£½μ „ / λ³Έλ¦¬,300000022,200000245,35.87171413920111,128.713400561572
66,66,87507,μ μ² ν•λλΉ›νμ…λ―Όλ°•,νμ…,pension,250000,250000,,λ€κµ¬,λ‹¬μ„κµ¬ / μ„±μ„ / μ£½μ „ / λ³Έλ¦¬,300000022,200000245,37.2302986880539,128.199956111462
67,67,97672,κµ¬λ―Έ ν΄λ¨ΌνΈλ¦¬νμ…,νμ…,pension,80000,80000,,λ€κµ¬,λ‹¬μ„κµ¬ / μ„±μ„ / μ£½μ „ / λ³Έλ¦¬,300000022,200000245,36.2764056461134,128.15337801757
68,68,98037,λ‹΄μ–‘ μ†λ‚λ¬΄μ–Έλ•νμ…(ν•μ¥),νμ…,pension,100000,100000,,λ€κµ¬,λ‹¬μ„κµ¬ / μ„±μ„ / μ£½μ „ / λ³Έλ¦¬,300000022,200000245,35.2226608610878,127.021370121835
69,69,70517,λ€κµ¬ μ„±μ„ ν­μ¤,λ¨ν…”,motel,45000,45000,,λ€κµ¬,λ‹¬μ„κµ¬ / μ„±μ„ / μ£½μ „ / λ³Έλ¦¬,300000022,200000245,35.8422406,128.48720760000003
70,70,99221,κ²½μ£Ό ν•ν† λ¥΄ν’€λΉλΌ,νμ…,pension,159000,179000,,λ€κµ¬,λ‹¬μ„κµ¬ / μ„±μ„ / μ£½μ „ / λ³Έλ¦¬,300000022,200000245,35.7806851993075,129.277661856206
71,0,82352,λ™λ€κµ¬μ—­ μ΄μ¤ν„΄ νΈν…”,3μ„±κΈ‰,hotel,119000,119000,,λ€κµ¬,λ™κµ¬ / λ™λ€κµ¬μ—­ / λ€κµ¬κ³µν•­,300000022,200000246,35.874477,128.626597
72,1,91837,νΈν…”μ—¬κΈ°μ–΄λ• λ™λ€κµ¬μ—­μ ,νΈν…”,hotel,85000,85000,,λ€κµ¬,λ™κµ¬ / λ™λ€κµ¬μ—­ / λ€κµ¬κ³µν•­,300000022,200000246,35.881268554841284,128.63010328049384
73,2,87666,λ€κµ¬ 2μ›”νΈν…” λ™λ€κµ¬μ—­μ ,νΈν…”,hotel,86000,86000,ν¬μ™κ° ννƒ,λ€κµ¬,λ™κµ¬ / λ™λ€κµ¬μ—­ / λ€κµ¬κ³µν•­,300000022,200000246,35.874468,128.624009
74,3,78198,λ€κµ¬ λΈλΌμ΄λ„νΈνΈν…” λ€κµ¬νμ‹ λ„μ‹μ ,2μ„±κΈ‰,hotel,0,0,,λ€κµ¬,λ™κµ¬ / λ™λ€κµ¬μ—­ / λ€κµ¬κ³µν•­,300000022,200000246,35.888709,128.705791
75,4,92023,μ™€μ΄μ»¬λ ‰μ… by UH FLAT λ€κµ¬,νΈν…”,hotel,122000,620000,,λ€κµ¬,λ™κµ¬ / λ™λ€κµ¬μ—­ / λ€κµ¬κ³µν•­,300000022,200000246,35.875320751115666,128.6276465047699
76,5,82578,λ€κµ¬ JB κ΄€κ΄‘νΈν…”,3μ„±κΈ‰,hotel,90000,90000,,λ€κµ¬,λ™κµ¬ / λ™λ€κµ¬μ—­ / λ€κµ¬κ³µν•­,300000022,200000246,35.888563,128.70586
77,6,70363,κ³³ μ¤ν…μ΄,νΈν…”,hotel,52900,86000,κ°€λ“  μ…€ν”„ λ°”λ² ν λ¦¬λ·° μ‹ / μ»¤ν”Ό 2μ” μ κ³µ,λ€κµ¬,λ™κµ¬ / λ™λ€κµ¬μ—­ / λ€κµ¬κ³µν•­,300000022,200000246,35.94511,128.646903
78,7,81873,λ€κµ¬ μ•„λ§λ  νΈν…”,2μ„±κΈ‰,hotel,70000,150000,,λ€κµ¬,λ™κµ¬ / λ™λ€κµ¬μ—­ / λ€κµ¬κ³µν•­,300000022,200000246,35.888646,128.706227
79,8,76665,λ€κµ¬ μ•™μ½”λ¥΄ νΈν…”,νΈν…”,hotel,120000,120000,,λ€κµ¬,λ™κµ¬ / λ™λ€κµ¬μ—­ / λ€κµ¬κ³µν•­,300000022,200000246,35.888098,128.704732
80,9,84294,λ€κµ¬ λ™μ΄ ν•μ΄λ“ λ€κµ¬λ™μ΄μ μ›μ§€,λ¨ν…”,motel,65000,0,,λ€κµ¬,λ™κµ¬ / λ™λ€κµ¬μ—­ / λ€κµ¬κ³µν•­,300000022,200000246,35.88536074534478,128.6512849409949
81,10,72346,λ€κµ¬ ν€Έλ²¨νΈν…”,3μ„±κΈ‰,hotel,105000,280000,,λ€κµ¬,λ™κµ¬ / λ™λ€κµ¬μ—­ / λ€κµ¬κ³µν•­,300000022,200000246,35.882413,128.662161
82,11,78327,λΈλΌμ΄λ„νΈ λ€κµ¬ λ™μ΄μ μ›μ§€μ ,νΈν…”,hotel,80000,160000,,λ€κµ¬,λ™κµ¬ / λ™λ€κµ¬μ—­ / λ€κµ¬κ³µν•­,300000022,200000246,35.881676,128.650703
83,12,87312,λ€κµ¬ λ™λ€κµ¬μ—­ ν•μ΄λ“ λ€κµ¬λ™λ€κµ¬μ—­,λ¨ν…”,motel,70000,70000,,λ€κµ¬,λ™κµ¬ / λ™λ€κµ¬μ—­ / λ€κµ¬κ³µν•­,300000022,200000246,35.87186065512591,128.6281230088806
84,13,84285,λ€κµ¬ νμ‹ λ„μ‹ κ³¨λ“ μΊν”„ κ΄€κ΄‘νΈν…”,λ¨ν…”,motel,70000,0,,λ€κµ¬,λ™κµ¬ / λ™λ€κµ¬μ—­ / λ€κµ¬κ³µν•­,300000022,200000246,35.889492930363666,128.7065055712359
85,14,70481,λ€κµ¬ λ€κµ¬κ³µν•­ λ³΄μ‰ νΈν…”,λ¨ν…”,motel,50000,0,,λ€κµ¬,λ™κµ¬ / λ™λ€κµ¬μ—­ / λ€κµ¬κ³µν•­,300000022,200000246,35.8951673,128.63694680000003
86,15,76574,λ€κµ¬ λ™μ΄ λΈλΌμ΄λ„νΈ λ€κµ¬λ™μ΄μ μ›μ§€μ ,λ¨ν…”,motel,60000,60000,,λ€κµ¬,λ™κµ¬ / λ™λ€κµ¬μ—­ / λ€κµ¬κ³µν•­,300000022,200000246,35.881680802708054,128.6507590060139
87,16,73094,λ€κµ¬ νμ‹ λ„μ‹ λΉ„μ§€λ‹μ¤K,λ¨ν…”,motel,55000,55000,β…ν„μ¥κ²°μ μ‹ μΌ~λ© λ””λ­μ¤ 5λ§ κ°€λ¥,λ€κµ¬,λ™κµ¬ / λ™λ€κµ¬μ—­ / λ€κµ¬κ³µν•­,300000022,200000246,35.8720382,128.7068875
88,17,82227,λ€κµ¬ λ™λ€κµ¬μ—­ Eastern Hotel (μ΄μ¤ν„΄νΈν…”),λ¨ν…”,motel,109000,109000,βοΈEastern hotel 3μ„±κΈ‰νΈν…”βοΈ_2023.07.25,λ€κµ¬,λ™κµ¬ / λ™λ€κµ¬μ—­ / λ€κµ¬κ³µν•­,300000022,200000246,35.874477792441525,128.62659245128077
89,18,69296,λ€κµ¬ λ™λ€κµ¬μ—­ hotel μ²΄λ¦¬μ‰¬,λ¨ν…”,motel,69000,0,,λ€κµ¬,λ™κµ¬ / λ™λ€κµ¬μ—­ / λ€κµ¬κ³µν•­,300000022,200000246,35.870455024775204,128.62877130570396
90,19,79616,λ€κµ¬ ν”κ³µμ‚° G&G,λ¨ν…”,motel,50000,0,β™¥G&G νΉκΈ‰ EVENT! (μ™€μΈ / μ»µλΌλ©΄ μ κ³µ!!)β™¥,λ€κµ¬,λ™κµ¬ / λ™λ€κµ¬μ—­ / λ€κµ¬κ³µν•­,300000022,200000246,35.9903286,128.6948266
91,20,98905,λ€κµ¬ νμ‹ λ„μ‹ μ¤ν…μ΄22 νΈν…”,λ¨ν…”,motel,70000,0,,λ€κµ¬,λ™κµ¬ / λ™λ€κµ¬μ—­ / λ€κµ¬κ³µν•­,300000022,200000246,35.87227845842199,128.70456069864625
92,21,75856,λ€κµ¬ ν”κ³µμ‚° κ³¨λ“ νƒ€μ„(GT),λ¨ν…”,motel,50000,0,,λ€κµ¬,λ™κµ¬ / λ™λ€κµ¬μ—­ / λ€κµ¬κ³µν•­,300000022,200000246,35.9903255,128.6939378
93,22,79932,λ€κµ¬ λ™λ€κµ¬μ—­ λ¬΄μ μ—¬κ΄€,λ¨ν…”,motel,60000,60000,,λ€κµ¬,λ™κµ¬ / λ™λ€κµ¬μ—­ / λ€κµ¬κ³µν•­,300000022,200000246,35.8799305,128.6260473
94,23,82540,λ€κµ¬ νμ‹ λ„μ‹ JBκ΄€κ΄‘νΈν…”,λ¨ν…”,motel,90000,90000,,λ€κµ¬,λ™κµ¬ / λ™λ€κµ¬μ—­ / λ€κµ¬κ³µν•­,300000022,200000246,35.8884259,128.7056699
95,24,72135,λ€κµ¬ λΈλΌμ΄λ„νΈ λ€κµ¬νμ‹ λ„μ‹μ ,λ¨ν…”,motel,0,0,μ΅°μ‹μ κ³µ μ„λΉ„μ¤ AM 7:00~9:00,λ€κµ¬,λ™κµ¬ / λ™λ€κµ¬μ—­ / λ€κµ¬κ³µν•­,300000022,200000246,35.8887043,128.7059622
96,25,81390,λ€κµ¬ νμ‹ λ„μ‹ μ•™μ½”λ¥΄,λ¨ν…”,motel,120000,0,#2. μ΅°μ‹μ κ³µ! (μμ„Έν• μ‚¬ν•­μ€ μ‚¬μ§„ μ°Έκ³  λ¶€νƒλ“λ¦½λ‹λ‹¤ :),λ€κµ¬,λ™κµ¬ / λ™λ€κµ¬μ—­ / λ€κµ¬κ³µν•­,300000022,200000246,35.8874624,128.7057878
97,26,88988,λ€κµ¬ λ™λ€κµ¬μ—­ μ™€μ™€,λ¨ν…”,motel,40000,0,,λ€κµ¬,λ™κµ¬ / λ™λ€κµ¬μ—­ / λ€κµ¬κ³µν•­,300000022,200000246,35.86928930163137,128.62885126932557
98,27,70453,λ€κµ¬ νμ‹ λ„μ‹ μ΄λ…Έλ°Έλ¦¬,λ¨ν…”,motel,55000,0,μ™λ°•κ³ κ° μ΅°μ‹μ„λΉ„μ¤ λ¬΄λ£μ κ³µ μ΄λ²¤νΈ μ§„ν–‰μ¤‘μ…λ‹λ‹¤^^*,λ€κµ¬,λ™κµ¬ / λ™λ€κµ¬μ—­ / λ€κµ¬κ³µν•­,300000022,200000246,35.8879524,128.706596
99,28,69788,λ€κµ¬ ν”κ³µμ‚° λ§¥μ„¬μ„ μ μ¤νΈμ¤ν…”,λ¨ν…”,motel,80000,0,,λ€κµ¬,λ™κµ¬ / λ™λ€κµ¬μ—­ / λ€κµ¬κ³µν•­,300000022,200000246,35.9730606,128.72692689999997
100,29,97900,λ™ν•΄ λ„μ—κ²κ°λ™ν•΄νμ…(23λ…„ 05μ›” μ¤ν”),νμ…,pension,0,0,,λ€κµ¬,λ™κµ¬ / λ™λ€κµ¬μ—­ / λ€κµ¬κ³µν•­,300000022,200000246,37.5743059481373,129.116661337748
101,30,79162,λ€κµ¬ λ™λ€κµ¬μ—­ Hotel ν¬λ μ¤νΈ701,λ¨ν…”,motel,70000,0,κ³ κ°λ“¤μ—κ² μ΅°μ‹ μ κ³µ,λ€κµ¬,λ™κµ¬ / λ™λ€κµ¬μ—­ / λ€κµ¬κ³µν•­,300000022,200000246,35.8688855,128.627142
102,31,85161,λ€κµ¬ ν”κ³µμ‚° μ»¤ν”,λ¨ν…”,motel,40000,40000,,λ€κµ¬,λ™κµ¬ / λ™λ€κµ¬μ—­ / λ€κµ¬κ³µν•­,300000022,200000246,35.991475045963355,128.63944314041993
103,32,81287,λ€κµ¬ λ™μ΄μ μ›μ§€ κ°¤λ¬λ¦¬νΈν…”,λ¨ν…”,motel,60000,0,,λ€κµ¬,λ™κµ¬ / λ™λ€κµ¬μ—­ / λ€κµ¬κ³µν•­,300000022,200000246,35.881788,128.6511616
104,33,82113,λ€κµ¬ λ™λ€κµ¬μ—­ Hotel js(μ μ΄μ—μ¤),λ¨ν…”,motel,70000,0,β™¥ Hotel js (μ μ΄μ—μ¤) GRAND OPEN β™¥ μ„ μ°©μ μ¦‰μ‹ν• μΈ μΏ ν° μ κ³µ β™¥,λ€κµ¬,λ™κµ¬ / λ™λ€κµ¬μ—­ / λ€κµ¬κ³µν•­,300000022,200000246,35.87422856412346,128.62801969232424
105,34,69779,λ€κµ¬ λ™λ€κµ¬μ—­ λ΅μ–„,λ¨ν…”,motel,50000,0,β¨μ²­κ²° μµμ°μ„ ! μ² μ €ν• κ°μ‹¤ μ²­μ†β¨,λ€κµ¬,λ™κµ¬ / λ™λ€κµ¬μ—­ / λ€κµ¬κ³µν•­,300000022,200000246,35.8755205,128.6292471
106,35,69271,λ€κµ¬ λ™λ€κµ¬μ—­ νΈν…” λ°λ λ¶€λ λ„,λ¨ν…”,motel,50000,0,,λ€κµ¬,λ™κµ¬ / λ™λ€κµ¬μ—­ / λ€κµ¬κ³µν•­,300000022,200000246,35.8679578,128.62908519999996
107,36,72633,λ€κµ¬ νμ‹ λ„μ‹ WS HOTEL,λ¨ν…”,motel,60000,0,κ°„νΈμ΅°μ‹ / λ„·ν”λ¦­μ¤λ” μ™μ†μ— λ¬Έμ λ°”λλ‹λ‹¤.,λ€κµ¬,λ™κµ¬ / λ™λ€κµ¬μ—­ / λ€κµ¬κ³µν•­,300000022,200000246,35.8890529,128.70710469999995
108,37,72550,λ€κµ¬ λ™λ€κµ¬μ—­ νΈν…” ν¬ν•νΈ,λ¨ν…”,motel,55000,55000,λΉ„μ¦λ‹μ¤νΈν…”λ΅ μ¶μ¥κ°μ„ μ„ν• ν¬ν•νΈ νΈν…”,λ€κµ¬,λ™κµ¬ / λ™λ€κµ¬μ—­ / λ€κµ¬κ³µν•­,300000022,200000246,35.8702286,128.62835340000004
109,38,73161,λ€κµ¬ λ™λ€κµ¬μ—­ νΈν…”ν•λ£¨,λ¨ν…”,motel,50000,50000,,λ€κµ¬,λ™κµ¬ / λ™λ€κµ¬μ—­ / λ€κµ¬κ³µν•­,300000022,200000246,35.8712109,128.6282192
110,39,69804,λ€κµ¬ λ™λ€κµ¬μ—­ νΈν…”ν”Όμ—λ“λ™λ€κµ¬,λ¨ν…”,motel,70000,70000,βοΈμ„Έμ¤μ½”λ©¤λ²„μ¤ ZONEβοΈ,λ€κµ¬,λ™κµ¬ / λ™λ€κµ¬μ—­ / λ€κµ¬κ³µν•­,300000022,200000246,35.87987329703722,128.62585964631663
111,40,67612,λ€κµ¬ ν”κ³µμ‚° μ§λΌνΈν…”,λ¨ν…”,motel,30000,0,"β… λ―Έμ¤ν…λ¦¬ μ‚¬νƒ• β… ν”„λ°νΈμ• κµ¬λ‚΄ λ§¤μ , λ„λ³΄3λ¶„κ±°λ¦¬ λ¨Ήκ±°λ¦¬μ΄!",λ€κµ¬,λ™κµ¬ / λ™λ€κµ¬μ—­ / λ€κµ¬κ³µν•­,300000022,200000246,35.9694696,128.72843190000003
112,41,85885,λ€κµ¬ λ™λ€κµ¬μ—­ H νΈν…”,λ¨ν…”,motel,45000,0,,λ€κµ¬,λ™κµ¬ / λ™λ€κµ¬μ—­ / λ€κµ¬κ³µν•­,300000022,200000246,35.87061006988925,128.62828017386317
113,42,78564,λ€κµ¬ νμ‹ λ„μ‹ μ•„λ§λ ,λ¨ν…”,motel,70000,0,,λ€κµ¬,λ™κµ¬ / λ™λ€κµ¬μ—­ / λ€κµ¬κ³µν•­,300000022,200000246,35.888289554663025,128.70629313207996
114,43,76030,λ€κµ¬ λ™μ΄ μΉ΄μΉ΄μ¤ν…”,λ¨ν…”,motel,50000,0,,λ€κµ¬,λ™κµ¬ / λ™λ€κµ¬μ—­ / λ€κµ¬κ³µν•­,300000022,200000246,35.8808116,128.64993200000004
115,44,69459,λ€κµ¬ λ™λ€κµ¬μ—­ WIN,λ¨ν…”,motel,45000,45000,βββ μ„ μ°©μ μ¦‰μ‹ν• μΈ μΏ ν° λ°ν–‰μ¤‘!! λΉ λ¥΄κ² μ„ νƒν•μ…”μ„ WINν•μ„Έμ” β§*ο½΅Ω©(Λα—Λ‹*)Ωβ§*ο½΅,λ€κµ¬,λ™κµ¬ / λ™λ€κµ¬μ—­ / λ€κµ¬κ³µν•­,300000022,200000246,35.8810259,128.629877
116,45,77598,λ€κµ¬ νμ‹ λ„μ‹ μ•„μ°λ£Έ,λ¨ν…”,motel,60000,0,,λ€κµ¬,λ™κµ¬ / λ™λ€κµ¬μ—­ / λ€κµ¬κ³µν•­,300000022,200000246,35.8887245,128.7070079
117,46,88630,μ μ£Ό λ΅ν”Όν•μ°μ¤,λ¨ν…”,motel,43000,0,,λ€κµ¬,λ™κµ¬ / λ™λ€κµ¬μ—­ / λ€κµ¬κ³µν•­,300000022,200000246,33.5162269189593,126.52598284607213
118,47,68347,λ€κµ¬ λ™λ€κµ¬μ—­ ν—¤λΌ,λ¨ν…”,motel,55000,0,"μ—°λ°•κ°€λ¥,   μ—μ–΄λ“λ μ„,  λ„·ν”λ¦­μ¤.  TVλ‹¤μ‹λ³΄κΈ°.  μ νΈλΈ.μ›¨μ΄λΈ,",λ€κµ¬,λ™κµ¬ / λ™λ€κµ¬μ—­ / λ€κµ¬κ³µν•­,300000022,200000246,35.8817284,128.6304502
119,48,74769,λ€κµ¬ λ™λ€κµ¬μ—­ K λ―Έλ‹νΈν…”,λ¨ν…”,motel,42000,0,"#λΈ”λ™νΌμ¤νΈ #μ κ³µ #ν† μ¤νΈ, μ»¤ν”Ό, μ μ² κ³ΌμΌ",λ€κµ¬,λ™κµ¬ / λ™λ€κµ¬μ—­ / λ€κµ¬κ³µν•­,300000022,200000246,35.8773588,128.6307815
120,49,76600,λ€κµ¬ λ™λ€κµ¬μ—­ HOTEL MAXIM,λ¨ν…”,motel,55000,55000,,λ€κµ¬,λ™κµ¬ / λ™λ€κµ¬μ—­ / λ€κµ¬κ³µν•­,300000022,200000246,35.8696016,128.62705129999995
121,50,77935,λ€κµ¬ ν”κ³µμ‚° λ‚μ‹,λ¨ν…”,motel,45000,45000,μ „ κ°μ‹¤ λ„¥ν”λ ‰μ¤ μ΄μ© κ°€λ¥ν•¨.,λ€κµ¬,λ™κµ¬ / λ™λ€κµ¬μ—­ / λ€κµ¬κ³µν•­,300000022,200000246,35.945273,128.64688160000003
122,51,69250,λ€κµ¬ λ™λ€κµ¬μ—­ λ””μμΈ νΈν…” λΈ”λ‘,λ¨ν…”,motel,60000,0,β™§ μ „λ³µμ£½ ν¬ν•¨! 2μΈ μ΅°μ‹ λ¬΄λ£ μ κ³µβ™§ μ „ κ°μ‹¤ μµμ‹ μν™” κ΄€λ κ°€λ¥ β™§,λ€κµ¬,λ™κµ¬ / λ™λ€κµ¬μ—­ / λ€κµ¬κ³µν•­,300000022,200000246,35.8716978,128.62664359999997
123,52,70607,λ€κµ¬ λ™λ€κµ¬μ—­ ν”λ μ΄μ•¤μ¤ν…μ΄ νΈν…”,λ¨ν…”,motel,70000,0,λ„·ν”λ¦­μ¤&μ›¨μ΄λΈ μ‹μ²­κ°€λ¥ / μ›”ν”μ¤ν&λ…Έν•λ“PC&ν•­μ‹ λ°©μ—­ #λ…Έλλ°©#μ°μ§λ°©#μ¤ν¬λ¦°λΉ”#μ΄λ²¤νΈλ£Έ,λ€κµ¬,λ™κµ¬ / λ™λ€κµ¬μ—­ / λ€κµ¬κ³µν•­,300000022,200000246,35.87356238867761,128.62715521989858
124,53,73703,λ€κµ¬ λ™μ΄μ μ›μ§€ SGνΈν…”,λ¨ν…”,motel,55000,0,,λ€κµ¬,λ™κµ¬ / λ™λ€κµ¬μ—­ / λ€κµ¬κ³µν•­,300000022,200000246,35.878666,128.6551921
125,54,79164,λ€κµ¬ λ€κµ¬κ³µν•­ Esia Hotel (μ΄μ‹μ•„),λ¨ν…”,motel,75000,0,,λ€κµ¬,λ™κµ¬ / λ™λ€κµ¬μ—­ / λ€κµ¬κ³µν•­,300000022,200000246,35.92017266016474,128.63677825962026
126,55,79604,λ€κµ¬ λ°©μ΄ μ¤μ„νΈ,λ¨ν…”,motel,39000,0,,λ€κµ¬,λ™κµ¬ / λ™λ€κµ¬μ—­ / λ€κµ¬κ³µν•­,300000022,200000246,35.87929159999999,128.672211
127,56,69577,λ€κµ¬ λ™λ€κµ¬μ—­ μ¤μ…,λ¨ν…”,motel,35000,0,,λ€κµ¬,λ™κµ¬ / λ™λ€κµ¬μ—­ / λ€κµ¬κ³µν•­,300000022,200000246,35.8735034,128.62749640000004
128,57,69135,λ€κµ¬ λ™λ€κµ¬μ—­ 2SOME,λ¨ν…”,motel,45000,0,"β£μ „ κ°μ‹¤ λ„·ν”λ¦­μ¤ , μ νλΈ μ‹μ²­ κ°€λ¥β£",λ€κµ¬,λ™κµ¬ / λ™λ€κµ¬μ—­ / λ€κµ¬κ³µν•­,300000022,200000246,35.8700693,128.62843580000003
129,58,70408,λ€κµ¬ λ™λ€κµ¬μ—­ λ¶€ν‹°ν¬ μ™ν¬(Boutigue Wink),λ¨ν…”,motel,45000,0,λ‚΄μ§‘κ°™μ€ νΈμ•ν• μ™ν¬λ§μ νΉλ³„ μ΄λ²¤νΈ ^^,λ€κµ¬,λ™κµ¬ / λ™λ€κµ¬μ—­ / λ€κµ¬κ³µν•­,300000022,200000246,35.8679367,128.6292728
130,59,66978,λ€κµ¬ λ™λ€κµ¬μ—­ λ¦¬λ”μ¤,λ¨ν…”,motel,40000,0,,λ€κµ¬,λ™κµ¬ / λ™λ€κµ¬μ—­ / λ€κµ¬κ³µν•­,300000022,200000246,35.8726191,128.6276987
131,60,67547,λ€κµ¬ λ™λ€κµ¬μ—­ λ¬λΈμ›¨μ΄,λ¨ν…”,motel,40000,0,,λ€κµ¬,λ™κµ¬ / λ™λ€κµ¬μ—­ / λ€κµ¬κ³µν•­,300000022,200000246,35.8808857,128.6297955
132,61,75993,λ€κµ¬ λ™μ΄ λ¦°λΉ„μ•„ν† ,λ¨ν…”,motel,55000,0,,λ€κµ¬,λ™κµ¬ / λ™λ€κµ¬μ—­ / λ€κµ¬κ³µν•­,300000022,200000246,35.8858359,128.650347
133,62,75855,λ€κµ¬ λ™λ€κµ¬μ—­ IN THE HOTEL,λ¨ν…”,motel,40000,0,,λ€κµ¬,λ™κµ¬ / λ™λ€κµ¬μ—­ / λ€κµ¬κ³µν•­,300000022,200000246,35.8709053,128.62774360000003
134,63,67125,λ€κµ¬ λ™λ€κµ¬μ—­ λ μ§€λμ¤R νΈν…”,λ¨ν…”,motel,45000,0,,λ€κµ¬,λ™κµ¬ / λ™λ€κµ¬μ—­ / λ€κµ¬κ³µν•­,300000022,200000246,35.8704401,128.6283312
135,64,86998,λ€κµ¬ ν”κ³µμ‚° μ„ΈλΈ(7),λ¨ν…”,motel,30000,0,β¤λ„·ν”λ¦­μ¤β¤λ¬΄μ„ κ΄‘λβ¤μΉ¨κµ¬λ¥μ „λ©΄κµμ²΄β¤λ§¤μ›”λ°©μ—­μ™„λ£β¤,λ€κµ¬,λ™κµ¬ / λ™λ€κµ¬μ—­ / λ€κµ¬κ³µν•­,300000022,200000246,35.992201661360816,128.6398979720296
136,65,80613,λ€κµ¬ ν”κ³µμ‚° κ·Έλλ“ λ¬΄μΈν…”,λ¨ν…”,motel,30000,0,β¨ν”κ³µμ‚° κ°“λ°”μ„ μΈκ·Ό μ™μ†β¨,λ€κµ¬,λ™κµ¬ / λ™λ€κµ¬μ—­ / λ€κµ¬κ³µν•­,300000022,200000246,35.9699571,128.72827289999998
137,66,85633,λ€κµ¬ λ™μ΄μ μ›μ§€ ν”„λΌλ‹¤ (PRADA),λ¨ν…”,motel,45000,0,,λ€κµ¬,λ™κµ¬ / λ™λ€κµ¬μ—­ / λ€κµ¬κ³µν•­,300000022,200000246,35.880719070596065,128.64809795722115
138,67,72354,λ€κµ¬ λ™λ€κµ¬μ—­ λ„μ‹μκΏ,λ¨ν…”,motel,40000,0,,λ€κµ¬,λ™κµ¬ / λ™λ€κµ¬μ—­ / λ€κµ¬κ³µν•­,300000022,200000246,35.8743322,128.62860339999997
139,68,80321,λ€κµ¬ λ™μ΄μ μ›μ§€ M,λ¨ν…”,motel,35000,0,,λ€κµ¬,λ™κµ¬ / λ™λ€κµ¬μ—­ / λ€κµ¬κ³µν•­,300000022,200000246,35.8795346,128.6546584
140,69,69623,λ€κµ¬ ν”κ³µ μ—λ°€λ¦¬μ•„νΈν…”,λ¨ν…”,motel,110000,0,μ£Όμ¤‘ μ΅°μ‹ 1+1,λ€κµ¬,λ™κµ¬ / λ™λ€κµ¬μ—­ / λ€κµ¬κ³µν•­,300000022,200000246,35.9916075,128.69004619999998
141,70,69371,λ€κµ¬ λ™μ΄ ν,λ¨ν…”,motel,38000,38000,,λ€κµ¬,λ™κµ¬ / λ™λ€κµ¬μ—­ / λ€κµ¬κ³µν•­,300000022,200000246,35.8903856,128.64893989999996
142,71,97872,λ€κµ¬ ν”κ³µμ‚° λ„λ²„25 ν”κ³µμ‚°μ ,λ¨ν…”,motel,40000,0,"2023λ…„8μ›” Open  / λ„·ν”λ¦­μ¤ / νν‹°λ£Έ, μ• κ²¬λ™λ°λ£Έ μ΄μ",λ€κµ¬,λ™κµ¬ / λ™λ€κµ¬μ—­ / λ€κµ¬κ³µν•­,300000022,200000246,35.99195289999182,128.6397433047203
143,72,83010,λ€κµ¬ ν”κ³µμ‚° 1μ‹¤ 1μ£Όμ°¨(λ¬΄μΈμΉ΄) μ¤μΉ΄μ΄νΈν…”,λ¨ν…”,motel,0,0,,λ€κµ¬,λ™κµ¬ / λ™λ€κµ¬μ—­ / λ€κµ¬κ³µν•­,300000022,200000246,35.9904963746909,128.69266006012293
144,73,88340,λ€κµ¬ ν”κ³µμ‚° μ•¤(Anne),λ¨ν…”,motel,45000,0,,λ€κµ¬,λ™κµ¬ / λ™λ€κµ¬μ—­ / λ€κµ¬κ³µν•­,300000022,200000246,35.9399254601611,128.6398029404918
145,74,100311,λ€κµ¬ λ™λ€κµ¬μ—­ ν¬μ—‘μ¤,λ¨ν…”,motel,35000,40000,,λ€κµ¬,λ™κµ¬ / λ™λ€κµ¬μ—­ / λ€κµ¬κ³µν•­,300000022,200000246,35.87301025434972,128.62768434453807
146,75,69646,λ€κµ¬ λ™λ€κµ¬μ—­ λ΅μ—΄,λ¨ν…”,motel,0,0,,λ€κµ¬,λ™κµ¬ / λ™λ€κµ¬μ—­ / λ€κµ¬κ³µν•­,300000022,200000246,35.8747772,128.6169812
147,76,98913,λ€κµ¬ λ™λ€κµ¬μ—­ μλΉ,λ¨ν…”,motel,35000,0,,λ€κµ¬,λ™κµ¬ / λ™λ€κµ¬μ—­ / λ€κµ¬κ³µν•­,300000022,200000246,35.8761539,128.62973179999994
148,77,68453,λ€κµ¬ λ™λ€κµ¬μ—­ 10λ²κ°€,λ¨ν…”,motel,0,0,,λ€κµ¬,λ™κµ¬ / λ™λ€κµ¬μ—­ / λ€κµ¬κ³µν•­,300000022,200000246,35.8716821,128.6281577
149,78,99798,λ€κµ¬ ν”κ³µ μ—λ°€λ¦¬μ•„νΈν…”,νΈν…”,hotel,0,0,,λ€κµ¬,λ™κµ¬ / λ™λ€κµ¬μ—­ / λ€κµ¬κ³µν•­,300000022,200000246,35.99171062309312,128.6901210402581
150,0,78705,νΈν…” μΈν„°λ¶κ³  λ€κµ¬,5μ„±κΈ‰,hotel,155000,155000,,λ€κµ¬,μμ„±κµ¬ / μμ„±λ» / λ‘μ‚° / μ§€μ‚°,300000022,200000247,35.873055,128.659279
151,1,78939,λ€κµ¬ κ·Έλλ“ νΈν…”,νΈν…”,hotel,120000,120000,,λ€κµ¬,μμ„±κµ¬ / μμ„±λ» / λ‘μ‚° / μ§€μ‚°,300000022,200000247,35.857732,128.625159
152,2,85610,ACT κ΄€κ΄‘νΈν…”,3μ„±κΈ‰,hotel,90000,90000,,λ€κµ¬,μμ„±κµ¬ / μμ„±λ» / λ‘μ‚° / μ§€μ‚°,300000022,200000247,35.836488,128.683458
153,3,70602,λ€κµ¬ μ•„λ¦¬μ•„λ‚ νΈν…”,νΈν…”,hotel,105000,250000,,λ€κµ¬,μμ„±κµ¬ / μμ„±λ» / λ‘μ‚° / μ§€μ‚°,300000022,200000247,35.832793,128.622925
154,4,83742,νΈν…” μμ„± λ€κµ¬,4μ„±κΈ‰,hotel,214000,590000,,λ€κµ¬,μμ„±κµ¬ / μμ„±λ» / λ‘μ‚° / μ§€μ‚°,300000022,200000247,35.82414,128.618408
155,5,87496,νΈν…” ν”Όμ—λ“ μμ„±,νΈν…”,hotel,120000,150000,,λ€κµ¬,μμ„±κµ¬ / μμ„±λ» / λ‘μ‚° / μ§€μ‚°,300000022,200000247,35.840184,128.687208
156,6,82143,λ£¨μ¤ νΈν…”,νΈν…”,hotel,120000,120000,,λ€κµ¬,μμ„±κµ¬ / μμ„±λ» / λ‘μ‚° / μ§€μ‚°,300000022,200000247,35.839767,128.688285
157,7,78265,λ€κµ¬ νΈν…” λΌμ¨μ λ‚,νΈν…”,hotel,120000,120000,,λ€κµ¬,μμ„±κµ¬ / μμ„±λ» / λ‘μ‚° / μ§€μ‚°,300000022,200000247,35.853629,128.622639
158,8,75303,λ€κµ¬ 2μ›”νΈν…” ν™©κΈμ ,νΈν…”,hotel,84000,84000,ν¬μ™κ° ννƒ,λ€κµ¬,μμ„±κµ¬ / μμ„±λ» / λ‘μ‚° / μ§€μ‚°,300000022,200000247,35.845113,128.624023
159,9,77519,λ€κµ¬ 2μ›”νΈν…” μμ„±μ ,νΈν…”,hotel,84000,84000,ν¬μ™κ° ννƒ,λ€κµ¬,μμ„±κµ¬ / μμ„±λ» / λ‘μ‚° / μ§€μ‚°,300000022,200000247,35.840906,128.615583
160,10,93523,λ€κµ¬ μμ„±κµ¬ μ•νμ‹ν‹° λ”μ•„λ¥΄μ½”νΈν…”,λ¨ν…”,motel,95000,0,,λ€κµ¬,μμ„±κµ¬ / μμ„±λ» / λ‘μ‚° / μ§€μ‚°,300000022,200000247,35.837069209966664,128.6822744065349
161,11,85904,λ€κµ¬ ν™©κΈλ™ λΈλΌμ΄λ„νΈ λ€κµ¬μμ„±μ ,λ¨ν…”,motel,89000,0,,λ€κµ¬,μμ„±κµ¬ / μμ„±λ» / λ‘μ‚° / μ§€μ‚°,300000022,200000247,35.841080071245656,128.62322225514131
162,12,86128,λ€κµ¬ μμ„±κµ¬ μ•νμ‹ν‹° νΈν…”ν”Όμ—λ“μμ„±,λ¨ν…”,motel,85000,0,βοΈμ„Έμ¤μ½”λ©¤λ²„μ¤ ZONEβοΈ,λ€κµ¬,μμ„±κµ¬ / μμ„±λ» / λ‘μ‚° / μ§€μ‚°,300000022,200000247,35.84018393451729,128.68720833209736
163,13,91162,λ€κµ¬ 2μ›”νΈν…” μμ„±μ•νμ‹ν‹°μ (λΌμ΄μ¨μ¦νν¬μ ),νΈν…”,hotel,100000,100000,,λ€κµ¬,μμ„±κµ¬ / μμ„±λ» / λ‘μ‚° / μ§€μ‚°,300000022,200000247,35.84011786677805,128.68813988240822
164,14,74529,λ€κµ¬ ν™©κΈλ™ Hotel μ²΄λ¦¬μ‹,λ¨ν…”,motel,95000,0,,λ€κµ¬,μμ„±κµ¬ / μμ„±λ» / λ‘μ‚° / μ§€μ‚°,300000022,200000247,35.8408401,128.62317310000003
165,15,67485,λ€κµ¬ λ‘μ‚°λ™ ν­μ¤,λ¨ν…”,motel,45000,0,,λ€κµ¬,μμ„±κµ¬ / μμ„±λ» / λ‘μ‚° / μ§€μ‚°,300000022,200000247,35.8381386,128.6216266
166,16,73898,λ€κµ¬ μμ„±λ» ν”Όν¬λ‹ν¬,λ¨ν…”,motel,70000,0,# 2018.01 GRNAD OPEN - ν”„λ¦¬λ―Έμ—„ νΈν…” PIKNIK,λ€κµ¬,μμ„±κµ¬ / μμ„±λ» / λ‘μ‚° / μ§€μ‚°,300000022,200000247,35.8279172,128.6244477
167,17,74534,λ€κµ¬ μμ„±κµ¬ J,λ¨ν…”,motel,0,0,,λ€κµ¬,μμ„±κµ¬ / μμ„±λ» / λ‘μ‚° / μ§€μ‚°,300000022,200000247,35.8270005,128.6105707
168,18,72147,λ€κµ¬ λ‘μ‚°λ™ λ΅λ―Έμ¤μ•¤μ¤„λ¦¬μ—£,λ¨ν…”,motel,60000,0,#λ§¤μΌλ§¤μΌ μ§€κΈ‰λλ” μΏ ν°μ„ μ΅μΌμ„Έμ§!β(β€Ο‰β€™)β,λ€κµ¬,μμ„±κµ¬ / μμ„±λ» / λ‘μ‚° / μ§€μ‚°,300000022,200000247,35.8394158,128.62219770000002
169,19,75002,λ€κµ¬ μμ„±λ» λ„λ„,λ¨ν…”,motel,60000,60000,,λ€κµ¬,μμ„±κµ¬ / μμ„±λ» / λ‘μ‚° / μ§€μ‚°,300000022,200000247,35.8257327,128.62538040000004
170,20,69764,λ€κµ¬ μμ„±λ» μ•„μ΄(I),λ¨ν…”,motel,50000,0,"βλ¬΄λ£,λ„·ν” βμ•„μ΄μ¤ν¬λ¦Ό βμ…€ν”„μ„Ένƒ",λ€κµ¬,μμ„±κµ¬ / μμ„±λ» / λ‘μ‚° / μ§€μ‚°,300000022,200000247,35.8272234,128.61001850000002
171,21,81083,λ€κµ¬ μμ„±κµ¬ Design hotel Gauzin(κ°€μ°μ§„),λ¨ν…”,motel,55000,0,βοΈ λ§¤μΌ μ„ μ°©μμΌλ΅ ν• μΈ μΏ ν° κ°€μ Έκ°€μ„Έμ” αƒ¦γ‚β—΅β•Ή)γƒβ™΅ βοΈ,λ€κµ¬,μμ„±κµ¬ / μμ„±λ» / λ‘μ‚° / μ§€μ‚°,300000022,200000247,35.8500838,128.6135684
172,22,77870,λ€κµ¬ λ²”μ–΄ λ§μ΄λ”μ¤ HOTEL,λ¨ν…”,motel,60000,0,"β­λ¦¬λ¨μ»¨,λ¬Έκ³ λ¦¬,μ „μ²΄κ°μ‹¤ μ²­μ† ν›„ μ†λ…μ§„ν–‰,μ „ μ§μ› λ§μ¤ν¬μ°©μ©β­",λ€κµ¬,μμ„±κµ¬ / μμ„±λ» / λ‘μ‚° / μ§€μ‚°,300000022,200000247,35.8597457,128.6242787
173,23,66754,λ€κµ¬ ν™©κΈλ™ ν”„λΌμ„,λ¨ν…”,motel,45000,0,μ „ κ°μ‹¤ λ„“μ€ κ³µκ°„μ„ μλ‘ν•©λ‹λ‹¤!,λ€κµ¬,μμ„±κµ¬ / μμ„±λ» / λ‘μ‚° / μ§€μ‚°,300000022,200000247,35.8414508,128.62322169999993
174,24,72894,λ€κµ¬ μμ„±λ» μμ„±μ¤ν…μ΄,λ¨ν…”,motel,65000,65000,,λ€κµ¬,μμ„±κµ¬ / μμ„±λ» / λ‘μ‚° / μ§€μ‚°,300000022,200000247,35.8245824,128.6246066
175,25,73193,λ€κµ¬ μμ„±κµ¬ λ³΄μ‰νΈν…”,λ¨ν…”,motel,40000,0,,λ€κµ¬,μμ„±κµ¬ / μμ„±λ» / λ‘μ‚° / μ§€μ‚°,300000022,200000247,35.8465889,128.6230633
176,26,85586,λ€κµ¬ μμ„±κµ¬ μ•ν¬(R2),λ¨ν…”,motel,35000,0,,λ€κµ¬,μμ„±κµ¬ / μμ„±λ» / λ‘μ‚° / μ§€μ‚°,300000022,200000247,35.838748760897424,128.62237204846926
177,27,75999,λ€κµ¬ μμ„±κµ¬ κ°¤λ¬λ¦¬ νΈν…” (3νΈμ ),λ¨ν…”,motel,59000,59000,"β…μ „ κ°μ‹¤ κµ¬μ¤λ‹¤μ΄β…μ „ κ°μ‹¤ μ›¨μ΄λΈ,λ„·ν”.. μ„¤μΉ!β…μ „ κ°μ‹¤ μµκ³ κΈ‰ μλ£β…",λ€κµ¬,μμ„±κµ¬ / μμ„±λ» / λ‘μ‚° / μ§€μ‚°,300000022,200000247,35.8386067,128.62139780000007
178,28,84511,λ€κµ¬ ν™©κΈλ™ νƒ€μ„,λ¨ν…”,motel,40000,40000,,λ€κµ¬,μμ„±κµ¬ / μμ„±λ» / λ‘μ‚° / μ§€μ‚°,300000022,200000247,35.84078664992353,128.62152374875663
179,29,91458,λ€κµ¬ ν™©κΈλ™ TOP365,λ¨ν…”,motel,50000,0,,λ€κµ¬,μμ„±κµ¬ / μμ„±λ» / λ‘μ‚° / μ§€μ‚°,300000022,200000247,35.84071393913617,128.62171366012322
180,30,85566,λ€κµ¬ μμ„±κµ¬ μ¤λ μ§€,λ¨ν…”,motel,45000,0,,λ€κµ¬,μμ„±κµ¬ / μμ„±λ» / λ‘μ‚° / μ§€μ‚°,300000022,200000247,35.824358926984694,128.62445191105857
181,31,69644,λ€κµ¬ λ²”μ–΄ ν”„λ¦°μ¤,λ¨ν…”,motel,40000,0,μμ„±κµ¬μ™€ μ‹ μ²μ μ¤‘μ‹¬ ! κ°€μ„±λΉ„ λνμ™• - λ¬΄ν•λ€μ‹¤κ³Ό λΉ λ¥Έμ…μ‹¤μ„ ν•©λ¦¬μ μΈ μ”κΈμ„ μ΄μ©ν•μ„Έμ” : ),λ€κµ¬,μμ„±κµ¬ / μμ„±λ» / λ‘μ‚° / μ§€μ‚°,300000022,200000247,35.8606691,128.62425110000004
182,32,83763,λ€κµ¬ ν™©κΈλ™ μ½”λ¦¬μ•„λ‚,λ¨ν…”,motel,65000,65000,,λ€κµ¬,μμ„±κµ¬ / μμ„±λ» / λ‘μ‚° / μ§€μ‚°,300000022,200000247,35.84106904055734,128.62283099074338
183,33,84577,λ€κµ¬ μ§€μ‚°λ™ λ΅μ”,λ¨ν…”,motel,0,0,,λ€κµ¬,μμ„±κµ¬ / μμ„±λ» / λ‘μ‚° / μ§€μ‚°,300000022,200000247,35.83646404490845,128.62439142712705
184,34,80898,λ€κµ¬ λ²”μ–΄ μ— νλΌ,λ¨ν…”,motel,0,0,,λ€κµ¬,μμ„±κµ¬ / μμ„±λ» / λ‘μ‚° / μ§€μ‚°,300000022,200000247,35.8627798,128.6242279
185,35,88213,λ€κµ¬ ν•λμ•„λμμ„±λ³„μ‚¬λ‘μΊ ν”„,νμ…,pension,0,0,,λ€κµ¬,μμ„±κµ¬ / μμ„±λ» / λ‘μ‚° / μ§€μ‚°,300000022,200000247,35.7981104708905,128.673580377524
186,0,82006,λ€κµ¬ λ™μ„±λ΅ HOTEL LABELLA(λΌλ²¨λΌ),λ¨ν…”,motel,89000,0,β¤οΈν•μ‹λ·”νμ΅°μ‹λ§›μ§‘ λ°24μ‹κ°„μΉ΄νν…λ¦¬μ–΄ μ΄μβ¤οΈ β­μ‹ μ¶•νΈν…”/λ™μ„±λ΅μµκ³ μ¤‘μ‹¬κ°€/μ΄κ³ μ‚¬μ–‘κ²μ΄λ°PC/λ€ν•μ£Όμ°¨μ¥β­,λ€κµ¬,μ¤‘κµ¬ / λ™μ„±λ΅,300000022,200000248,35.86665337778768,128.5991370302288
187,1,84434,λ€κµ¬ λ™μ„±λ΅ λΈλΌμ΄λ„νΈ λ€κµ¬λ™μ„±λ΅μ ,λ¨ν…”,motel,75000,75000,π‰μ„ μ°©μ μΏ ν° μ κ³µ! μΏ ν° λ°›κ³  μμ•½ Go!!π‰,λ€κµ¬,μ¤‘κµ¬ / λ™μ„±λ΅,300000022,200000248,35.87412250095541,128.59400677236383
188,3,73123,λ€κµ¬ λ¦¬λ²„ν‹΄νΈν…”,2μ„±κΈ‰,hotel,128000,128000,,λ€κµ¬,μ¤‘κµ¬ / λ™μ„±λ΅,300000022,200000248,35.872204,128.59792
189,4,73296,λ€κµ¬ 2μ›”νΈν…” λ”μ‹κ·Έλ‹μ² λ™μ„±λ΅μ ,νΈν…”,hotel,142000,142000,β…μ΄κ·Έμ νν‹°λΈPKG μμ•½μ‹ λ£Έ μ—…κΈ€orμ„ λ¬Ό μ¦μ •β…,λ€κµ¬,μ¤‘κµ¬ / λ™μ„±λ΅,300000022,200000248,35.869494,128.59278
190,5,78806,λ€κµ¬ λ…ΈλΈ”μ¤ν…μ΄ (Noblestay),νΈν…”,hotel,105000,105000,,λ€κµ¬,μ¤‘κµ¬ / λ™μ„±λ΅,300000022,200000248,35.871691,128.597279
191,6,78859,λ€κµ¬ λ™μ„±λ΅ μΈμΈλ‹μ•„,νΈν…”,hotel,80000,80000,,λ€κµ¬,μ¤‘κµ¬ / λ™μ„±λ΅,300000022,200000248,35.867202,128.595975
192,7,83274,λ„λ²„25νΈν…” λ™μ„±λ΅μ ,νΈν…”,hotel,90000,90000,,λ€κµ¬,μ¤‘κµ¬ / λ™μ„±λ΅,300000022,200000248,35.875557,128.588073
193,8,83132,νΈν…” μ—¬κΈ°μ–΄λ• λ€κµ¬μ—­μ ,νΈν…”,hotel,60000,60000,,λ€κµ¬,μ¤‘κµ¬ / λ™μ„±λ΅,300000022,200000248,35.875445,128.588297
194,9,81985,λ€κµ¬ λ™μ„±λ΅ νΈν…” λΌλ²¨λΌ,νΈν…”,hotel,89000,89000,,λ€κµ¬,μ¤‘κµ¬ / λ™μ„±λ΅,300000022,200000248,35.866651,128.599128
195,10,70036,λ€κµ¬ μ—λ””μ¤ λ¦¬μ  νΈ νΈν…”,νΈν…”,hotel,135000,150000,,λ€κµ¬,μ¤‘κµ¬ / λ™μ„±λ΅,300000022,200000248,35.866525,128.586057
196,11,70312,μΊμ£Όμ–Ό ν•μ°μ¤ μ†λ…Έ νΈν…”,νΈν…”,hotel,90000,170000,,λ€κµ¬,μ¤‘κµ¬ / λ™μ„±λ΅,300000022,200000248,35.860643,128.593762
197,13,92113,λ€κµ¬ λ™μ„±λ΅ ν•΄λ°€μ¤ν…μ΄,λ¨ν…”,motel,45000,0,,λ€κµ¬,μ¤‘κµ¬ / λ™μ„±λ΅,300000022,200000248,35.857209,128.5974042
198,14,85293,λ€κµ¬ ν•μ¥κ²μ¤νΈν•μ°μ¤μ•νμ…,νμ…,pension,220000,220000,,λ€κµ¬,μ¤‘κµ¬ / λ™μ„±λ΅,300000022,200000248,35.8728465500321,128.610871385074
199,15,91199,μ¶©μ£Ό νΈν…” μ΄λ“ ν¬λ ,λ¨ν…”,motel,80000,0,,λ€κµ¬,μ¤‘κµ¬ / λ™μ„±λ΅,300000022,200000248,37.090327535837986,127.7994043614649
200,16,66810,λ€κµ¬ λ™μ„±λ΅ μ— ν‹°λΌμ΄ν”„(MT LIFE),λ¨ν…”,motel,49000,66000,β— μµμ‹ μν™” λ¬΄λ£ μƒμ / νν‹°λ£Έ / λ…Έμ²νƒ• / κµλ™ ν•«ν” μΈκ·Ό μ„μΉ β—,λ€κµ¬,μ¤‘κµ¬ / λ™μ„±λ΅,300000022,200000248,35.8691969,128.5913314
201,17,89393,μΈμ²(μ‘μ „λ™) λ“λΌλ§,λ¨ν…”,motel,30000,0,,λ€κµ¬,μ¤‘κµ¬ / λ™μ„±λ΅,300000022,200000248,37.5294794837657,126.72152791628636
202,18,81181,λ€κµ¬ λ™μ„±λ΅ λ„λ²„25 λ™μ„±λ΅ λ€κµ¬μ—­μ ,λ¨ν…”,motel,60000,0,β™¥μ¶μ¥κ°μ΄ Pickν•! HOTν• μ΅°μ‹ λ§›μ§‘β™¥ λ£¨ν”„νƒ‘μ„νΈμ—μ„ μ–ΈνƒνΈ μ—¬ν–‰μ„! μ•Όμ™Έ λ°”λ² ν /λ„·ν”λ¦­μ¤ μ‹μ²­κ°€λ¥ / λΉ”μ¤ν¬λ¦°,λ€κµ¬,μ¤‘κµ¬ / λ™μ„±λ΅,300000022,200000248,35.8755688,128.5880912
203,19,82882,λ€κµ¬ λ™μ„±λ΅ λ·°ν‹°ν¬νΈν…” μ—μ¤μ¤(EOS),λ¨ν…”,motel,50000,0,β¤οΈ λ€κµ¬κ΄‘μ—­μ‹ μ°μμ™λ°•μ—…μ†β¤οΈ6μ‹κ°„ λ‚®μ™λ°•μ΄λ²¤νΈ.λ„λ³΄νΉκ°€μ΄λ²¤νΈ,λ€κµ¬,μ¤‘κµ¬ / λ™μ„±λ΅,300000022,200000248,35.86988373509451,128.5923666925684
204,20,67710,λ€κµ¬ λ™μ„±λ΅ MTM(μ— ν‹°μ— ),λ¨ν…”,motel,55000,66000,,λ€κµ¬,μ¤‘κµ¬ / λ™μ„±λ΅,300000022,200000248,35.8663855,128.6011868
205,21,92916,λ€κµ¬ λ™μ„±λ΅ κ°¤λ¬λ¦¬ λ“λΌμ΄λΈμΈ(Gallery Drive-in),λ¨ν…”,motel,60000,60000,,λ€κµ¬,μ¤‘κµ¬ / λ™μ„±λ΅,300000022,200000248,35.87566821047464,128.5889797489801
206,22,81128,λ€κµ¬ λ™μ„±λ΅ νΈν…” λ…ΈλΈ”μ¤ν…μ΄(Noblestay),λ¨ν…”,motel,110000,0,,λ€κµ¬,μ¤‘κµ¬ / λ™μ„±λ΅,300000022,200000248,35.87169974226211,128.59727387338486
207,23,82628,λ€κµ¬ λ™μ„±λ΅ μ¤μ„νΈ νΈν…”(Sweet hotel),λ¨ν…”,motel,60000,50000,,λ€κµ¬,μ¤‘κµ¬ / λ™μ„±λ΅,300000022,200000248,35.87348165052605,128.59310367223165
208,24,75826,λ€κµ¬ λ™μ„±λ΅ νΈν…” μ¨λ„,λ¨ν…”,motel,50000,0,β­λ€κµ¬κ΄‘μ—­μ‹μ¶”μ² μ°μ μ™λ°•μ‹μ„¤μ„ μ •'λ”κµΏλ‚μ‡'β­,λ€κµ¬,μ¤‘κµ¬ / λ™μ„±λ΅,300000022,200000248,35.86933010000001,128.58805170000005
209,25,91251,λ€κµ¬ λ™μ„±λ΅ λ¨ν…” λ™μ„±λ΅,λ¨ν…”,motel,40000,0,,λ€κµ¬,μ¤‘κµ¬ / λ™μ„±λ΅,300000022,200000248,35.868143275841916,128.5914489951674
210,26,80722,λ€κµ¬ λ™μ„±λ΅ νΈν…” μ—¬κΈ°μ–΄λ• λ€κµ¬μ—­μ ,λ¨ν…”,motel,60000,60000,053 426 6969 μ§μ ‘ μμ•½μ‹ μ”κΈ ν• μΈ,λ€κµ¬,μ¤‘κµ¬ / λ™μ„±λ΅,300000022,200000248,35.87547619838425,128.5882943905896
211,27,73419,λ€κµ¬ λ™μ„±λ΅ ν”„λΌμ,λ¨ν…”,motel,40000,45000,,λ€κµ¬,μ¤‘κµ¬ / λ™μ„±λ΅,300000022,200000248,35.8705528,128.6036583
212,28,69335,λ€κµ¬ λ™μ„±λ΅ μ•„νΈ,λ¨ν…”,motel,38000,38000,,λ€κµ¬,μ¤‘κµ¬ / λ™μ„±λ΅,300000022,200000248,35.8703015,128.6036589
213,29,75347,λ€κµ¬ λ™μ„±λ΅ YAJA λ€κµ¬μ„λ¬Έμ‹μ¥μ ,λ¨ν…”,motel,45000,45000,βΏλ€κµ¬κ΄‘μ—­μ‹μ¶”μ² μ°μ μ™λ°•μ‹μ„¤  β­λ” κµΏλ‚μ‡ β­ μ„ μ •βΏ,λ€κµ¬,μ¤‘κµ¬ / λ™μ„±λ΅,300000022,200000248,35.8722971,128.5831389
214,30,80578,λ€κµ¬ λ™μ„±λ΅ μ•„λ¦¬μ¨(ARION),λ¨ν…”,motel,50000,50000,,λ€κµ¬,μ¤‘κµ¬ / λ™μ„±λ΅,300000022,200000248,35.8702106,128.5930203
215,31,69671,λ€κµ¬ λ™μ„±λ΅ B&B(λΉ„μ•¤λΉ„),λ¨ν…”,motel,45000,0,,λ€κµ¬,μ¤‘κµ¬ / λ™μ„±λ΅,300000022,200000248,35.86952571965132,128.58808134047547
216,32,68350,λ€κµ¬ λ™μ„±λ΅ μ½”μμ(COZAZA),λ¨ν…”,motel,45000,45000,,λ€κµ¬,μ¤‘κµ¬ / λ™μ„±λ΅,300000022,200000248,35.8726467,128.58269080000002
217,33,80330,λ€κµ¬ λ™μ„±λ΅ ν—¤λΈμ¤ν† λ¦¬,λ¨ν…”,motel,45000,0,β¤μ¤ν”μ΄λ²¤νΈ λ¬Έμ053-428-6768,λ€κµ¬,μ¤‘κµ¬ / λ™μ„±λ΅,300000022,200000248,35.8738908,128.5926233
218,34,68762,λ€κµ¬ λ™μ„±λ΅ ν—λ‹λ¬Έ,λ¨ν…”,motel,0,0,,λ€κµ¬,μ¤‘κµ¬ / λ™μ„±λ΅,300000022,200000248,35.8749272,128.5813049
219,35,85543,λ€κµ¬ λ™μ„±λ΅ Hotel 100β„ƒ(λ°±λ„μ‹),λ¨ν…”,motel,40000,45000,HOTEL 100β„ƒ(λ°±λ„μ‹)μ μµκ³ κΈ‰ νν‹°λ£Έμ„ μμ•½ν•΄λ³΄μ„Έμ”!,λ€κµ¬,μ¤‘κµ¬ / λ™μ„±λ΅,300000022,200000248,35.866192923784446,128.59949302572892
220,36,79175,λ€κµ¬ λ™μ„±λ΅ λΌμ¨,λ¨ν…”,motel,40000,0,,λ€κµ¬,μ¤‘κµ¬ / λ™μ„±λ΅,300000022,200000248,35.8619766,128.5918329
221,37,73993,λ€κµ¬ λ©λ΅ νΈν…”,νΈν…”,hotel,40000,40000,,λ€κµ¬,μ¤‘κµ¬ / λ™μ„±λ΅,300000022,200000248,35.865337,128.601786
222,38,73989,λ€κµ¬ μλ΅ νΈν…”,νΈν…”,hotel,40000,40000,,λ€κµ¬,μ¤‘κµ¬ / λ™μ„±λ΅,300000022,200000248,35.865376,128.60155
223,39,72241,λ€κµ¬ λ™μ„±λ΅ μ§€ν”„(JEEP),λ¨ν…”,motel,45000,0,,λ€κµ¬,μ¤‘κµ¬ / λ™μ„±λ΅,300000022,200000248,35.8732813,128.5921441
224,40,67490,λ€κµ¬ λ™μ„±λ΅ μ‚¬λ³΄μ΄νΈν…”,λ¨ν…”,motel,38000,0,,λ€κµ¬,μ¤‘κµ¬ / λ™μ„±λ΅,300000022,200000248,35.87266454682564,128.59134830327426
225,41,68757,λ€κµ¬ λ™μ„±λ΅ λ€ν¥νν¬,λ¨ν…”,motel,45000,40000,β¨λ™μ„±λ΅ μ‹λ‚΄ μ¤‘μ‹¬μ§€ μ™μ†β¨,λ€κµ¬,μ¤‘κµ¬ / λ™μ„±λ΅,300000022,200000248,35.872913772,128.59821706399998
226,42,88649,λ€κµ¬ λ™μ„±λ΅ μλ΅μ°,λ¨ν…”,motel,40000,0,,λ€κµ¬,μ¤‘κµ¬ / λ™μ„±λ΅,300000022,200000248,35.8653851454415,128.60154472865716
227,43,68020,λ€κµ¬ λ™μ„±λ΅ λ‚λ‚(NANA),λ¨ν…”,motel,50000,50000,β…λ¬΄ν•λ€μ‹¤ μ΄μ© κ³ κ° ν‡΄μ‹¤μ‹κ°„λ³΄λ‹¤ λ¦κ² ν‡΄μ‹¤ν•  κ²½μ° μ¶”κ°€μ”κΈ λ°μƒβ…,λ€κµ¬,μ¤‘κµ¬ / λ™μ„±λ΅,300000022,200000248,35.8686559,128.60591750000003
228,44,79097,λ€κµ¬ λ™μ„±λ΅ κ²½μ¤ λΉ„μ¦λ‹μ¤,λ¨ν…”,motel,40000,45000,,λ€κµ¬,μ¤‘κµ¬ / λ™μ„±λ΅,300000022,200000248,35.8715885,128.5858979
229,45,69411,λ€κµ¬ λ™μ„±λ΅ μ‡Ό&μΏ΅,λ¨ν…”,motel,45000,0,,λ€κµ¬,μ¤‘κµ¬ / λ™μ„±λ΅,300000022,200000248,35.8725087,128.5828215
230,46,99904,λ€κµ¬ λ™μ„±λ΅λ―Έμ¤ν…μ΄νμ…,νμ…,pension,75000,75000,,λ€κµ¬,μ¤‘κµ¬ / λ™μ„±λ΅,300000022,200000248,35.8704297158438,128.592231322246
231,47,92447,λ€κµ¬ ν•μ¥1942νμ…,νμ…,pension,0,0,,λ€κµ¬,μ¤‘κµ¬ / λ™μ„±λ΅,300000022,200000248,35.8718499966145,128.584272946821
232,48,84934,λ¬Έκ²½ κ°€μ€μ—μ •μ›νμ…,νμ…,pension,150000,150000,,λ€κµ¬,μ¤‘κµ¬ / λ™μ„±λ΅,300000022,200000248,36.6342578708415,128.078304217248
233,49,94874,λ³΄λ Ή(λ¬΄μ°½ν¬) ν‹°λΌμ…€νμ…,νμ…,pension,100000,100000,,λ€κµ¬,μ¤‘κµ¬ / λ™μ„±λ΅,300000022,200000248,36.2393937140995,126.533130340162
234,0,90924,λ€κµ¬ λ™μ„±λ΅ H Avenue λ™μ„±λ΅ λ€κµ¬μ—­μ ,λ¨ν…”,motel,69000,69000,,λ€κµ¬,λ¶κµ¬ / κ²½λ¶λ€,300000022,200000249,35.875960191356135,128.5984946894618
235,1,87546,λ€κµ¬ λ™μ²λ™ H Avenue λ€κµ¬λ™μ²μ ,λ¨ν…”,motel,71000,0,β¤μΏ¨ν¨μΉ μ¦μ • μ΄λ²¤νΈβ¤,λ€κµ¬,λ¶κµ¬ / κ²½λ¶λ€,300000022,200000249,35.94253242668207,128.56199738258613
236,3,84428,λ€κµ¬ μ—‘μ¤μ½” λΈλΌμ΄λ„νΈ λ€κµ¬μ—‘μ¤μ½”μ ,λ¨ν…”,motel,64000,69000,,λ€κµ¬,λ¶κµ¬ / κ²½λ¶λ€,300000022,200000249,35.90806169104594,128.60879534388246
237,4,86910,νΈν…” ν”Όμ—λ“ μ—‘μ¤μ½”,νΈν…”,hotel,128000,128000,,λ€κµ¬,λ¶κµ¬ / κ²½λ¶λ€,300000022,200000249,35.907945,128.608484
238,5,70189,νΈν…” μΈν„°λ¶κ³  μ—‘μ¤μ½”,νΈν…”,hotel,140000,140000,,λ€κµ¬,λ¶κµ¬ / κ²½λ¶λ€,300000022,200000249,35.907032,128.61132
239,6,91908,λ€κµ¬ νΈν…”λ£¨λ°”ν†  RB,νΈν…”,hotel,80000,80000,,λ€κµ¬,λ¶κµ¬ / κ²½λ¶λ€,300000022,200000249,35.91464799977584,128.54811793166184
240,7,99213,"κµ°μ„ μ‚°μ„±μμ•„μΉ¨(λ…μ±„, ν’μ°¨μ „λ§λ€)",νμ…,pension,120000,200000,,λ€κµ¬,λ¶κµ¬ / κ²½λ¶λ€,300000022,200000249,36.1054474220052,128.780417683804
241,8,94232,κµ°μ„ λ‹¤ν•λλ®¤μ§ν’€λΉλΌνμ…,νμ…,pension,160000,160000,,λ€κµ¬,λ¶κµ¬ / κ²½λ¶λ€,300000022,200000249,36.0854086991862,128.599143699621
242,9,84272,κ²½μ£Ό κ°ν¬μƒλ¶κ³ κΈ°νμ…,νμ…,pension,80000,80000,,λ€κµ¬,λ¶κµ¬ / κ²½λ¶λ€,300000022,200000249,35.8256703198706,129.509574544887
243,10,83648,λ€κµ¬ μ—‘μ¤μ½” μ»¨λ²¤μ… λΉ„μ¦λ‹μ¤ νΈν…”,λ¨ν…”,motel,80000,0,,λ€κµ¬,λ¶κµ¬ / κ²½λ¶λ€,300000022,200000249,35.90591939754692,128.6140338818341
244,11,69827,λ€κµ¬ λ™μ²λ™ νΈν…” λ²¤ (hotel BEN),λ¨ν…”,motel,70000,0,β¤μΏ¨ν¨μΉ μ¦μ • μ΄λ²¤νΈβ¤,λ€κµ¬,λ¶κµ¬ / κ²½λ¶λ€,300000022,200000249,35.94218740000001,128.56155460000002
245,12,87933,λ€κµ¬ νƒμ „λ™ λ‚­λ§μ¤ν…μ΄ νƒμ „μ ,λ¨ν…”,motel,47000,45000,μ¤ν” κΈ°λ… μ΄λ²¤νΈ λ¬΄λ£ ν΅ν΅,λ€κµ¬,λ¶κµ¬ / κ²½λ¶λ€,300000022,200000249,35.91471299990966,128.547710457675
246,13,86301,λ€κµ¬ κ²½λ¶λ€ λΈλΌμ΄λ„νΈ λ€κµ¬κ²½λ¶λ€μ ,λ¨ν…”,motel,64000,0,"β¨μ „κ°μ‹¤ μ—μ΄μ¤μΉ¨λ€/λ„·ν”λ¦­μ¤,μ›¨μ΄λΈ λ¬΄λ£μ‹μ²­ κ°€λ¥β¨",λ€κµ¬,λ¶κµ¬ / κ²½λ¶λ€,300000022,200000249,35.89012728669554,128.6010673331989
247,14,76415,λ€κµ¬ κ΄€μλ™ μ¤μ„νΈνΈν…”(Sweet Hotel),λ¨ν…”,motel,40000,0,λ„·ν”λ¦­μ¤μ‹μ²­κ°€λ¥,λ€κµ¬,λ¶κµ¬ / κ²½λ¶λ€,300000022,200000249,35.9344053,128.5481562
248,15,87232,κµ°μ„ HOTEL λ…ν’ μ• ν”,λ¨ν…”,motel,60000,0,,λ€κµ¬,λ¶κµ¬ / κ²½λ¶λ€,300000022,200000249,36.09710280851585,128.67366763675471
249,16,81747,λ€κµ¬ λ™μ²λ™ hotel B(νΈν…” λΉ„),λ¨ν…”,motel,50000,55000,β¤μΏ¨ν¨μΉ μ¦μ • μ΄λ²¤νΈβ¤,λ€κµ¬,λ¶κµ¬ / κ²½λ¶λ€,300000022,200000249,35.9435078,128.5627266
250,17,81778,κµ°μ„ μ‚Όκµ­μ μ‚¬μ—­μ‚¬λ”νμ…,νμ…,pension,80000,80000,,λ€κµ¬,λ¶κµ¬ / κ²½λ¶λ€,300000022,200000249,36.160832816334,128.701262753671
251,18,68728,λ€κµ¬ κ²½λ¶λ€ λ΅μ¦,λ¨ν…”,motel,35000,0,β¨κ°€μ„±λΉ„ μΆ‹μ€ κ°μ‹¤! κΉ¨λ—ν• μ™μ†!β¨,λ€κµ¬,λ¶κµ¬ / κ²½λ¶λ€,300000022,200000249,35.891458748774184,128.60247881868472
252,19,80634,λ€κµ¬ νƒμ „λ™ λ””μμΈνΈν…” λ‹¤μ΄,λ¨ν…”,motel,55000,0,λ€κµ¬ νƒμ „λ™ λ””μμΈνΈν…” λ‹¤μ΄ 9ζ GRAND OPEN β™¥ μ„ μ°©μ μ¦‰μ‹ν• μΈ μΏ ν° μ κ³µ β™¥,λ€κµ¬,λ¶κµ¬ / κ²½λ¶λ€,300000022,200000249,35.9155752,128.54773039999998
253,20,69777,λ€κµ¬ λ™μ²λ™ νΈν…”A4,λ¨ν…”,motel,50000,50000,,λ€κµ¬,λ¶κµ¬ / κ²½λ¶λ€,300000022,200000249,35.9433363,128.5572563
254,21,75895,λ€κµ¬ κ²½λ¶λ€ HOTEL λΈλ¦Ώμ§€(BRIDGE),λ¨ν…”,motel,50000,0,βΏμ–Ό~~~λ¦¬ μ²΄ν¬μΈ EVENT μ§„ν–‰μ¤‘!!!βΏ,λ€κµ¬,λ¶κµ¬ / κ²½λ¶λ€,300000022,200000249,35.8856654,128.6029261
255,22,69625,λ€κµ¬ λ™μ²λ™ μ¤μ„νΈνΈν…”(Sweet hotel),λ¨ν…”,motel,50000,50000,λ§¤μΌλ§¤μΌ μ¤μ„νΈνΈν…”μ—μ„ μ‚¬μ© κ°€λ¥ν• μ„ μ°©μ μΏ ν° κ°€μ Έκ°€μ„Έμ” αƒ¦γ‚β—΅β•Ή)γƒβ™΅,λ€κµ¬,λ¶κµ¬ / κ²½λ¶λ€,300000022,200000249,35.9435445,128.56235590000006
256,23,66902,λ€κµ¬ λ™μ²λ™ λ‰΄μ¤νλΌ (λ”μΌ€μ΄),λ¨ν…”,motel,48000,55000,λ¬΄ν•λ€μ‹¤ 7μ‹κ°„ μ΄λ²¤νΈ μ§„ν–‰μ¤‘ β…,λ€κµ¬,λ¶κµ¬ / κ²½λ¶λ€,300000022,200000249,35.9436212,128.5614966
257,24,73440,λ€κµ¬ κ²½λ¶λ€ μ΄νƒλ¦¬μ•μΈλ¨Έ,λ¨ν…”,motel,40000,0,,λ€κµ¬,λ¶κµ¬ / κ²½λ¶λ€,300000022,200000249,35.8959985,128.61365790000002
258,25,73685,λ€κµ¬μ—­ μ†μΈ(soul),λ¨ν…”,motel,50000,0,λ¬΄λ£ λ„·ν”λ¦­μ¤,λ€κµ¬,λ¶κµ¬ / κ²½λ¶λ€,300000022,200000249,35.8802558,128.58565210000006
259,26,79266,λ€κµ¬ κ΄€μλ™ hotel μ—μ΄μ›,λ¨ν…”,motel,45000,0,,λ€κµ¬,λ¶κµ¬ / κ²½λ¶λ€,300000022,200000249,35.934240458804226,128.54812950000002
260,27,69699,λ€κµ¬ νƒμ „λ™ 2SOME(ν¬μΈ),λ¨ν…”,motel,45000,45000,,λ€κµ¬,λ¶κµ¬ / κ²½λ¶λ€,300000022,200000249,35.91733417921633,128.5489133805154
261,28,77671,λ€κµ¬ κ²½λ¶λ€ μ‰΄,λ¨ν…”,motel,30000,0,,λ€κµ¬,λ¶κµ¬ / κ²½λ¶λ€,300000022,200000249,35.8963848,128.6148925
262,29,73304,λ€κµ¬μ—­ λ°λ¦¬,λ¨ν…”,motel,35000,0,β…λ€κµ¬μ—­ λ°”λ΅ μ† κ±°λ¦¬ β…λ™μ„±λ΅ λ„λ³΄ 9λ¶„ κ±°λ¦¬β…,λ€κµ¬,λ¶κµ¬ / κ²½λ¶λ€,300000022,200000249,35.8769501,128.59556550000002
263,30,75068,λ€κµ¬ λ™μ²λ™ κΈ€λ¨(GLAM),λ¨ν…”,motel,50000,50000,,λ€κµ¬,λ¶κµ¬ / κ²½λ¶λ€,300000022,200000249,35.9433203,128.5627155
264,31,69117,λ€κµ¬ κ²½λ¶λ€ λΌμΈ,λ¨ν…”,motel,45000,0,,λ€κµ¬,λ¶κµ¬ / κ²½λ¶λ€,300000022,200000249,35.8824121,128.60903810000002
265,32,68764,λ€κµ¬μ—­ λ‰΄κ·Έλλ“ νΈν…”,λ¨ν…”,motel,50000,0,,λ€κµ¬,λ¶κµ¬ / κ²½λ¶λ€,300000022,200000249,35.876095244,128.59783128499998
266,33,82451,λ€κµ¬ κΈνΈμ§€κµ¬ C1 (μ”¨μ›),λ¨ν…”,motel,55000,0,,λ€κµ¬,λ¶κµ¬ / κ²½λ¶λ€,300000022,200000249,35.8948976303701,128.51851604017136
267,34,81502,λ€κµ¬ κΈνΈμ§€κµ¬ μ¤μ„νΈνΈν…”(sweet hotel),λ¨ν…”,motel,45000,45000,λ¨λ“  ν¬μ™κ° μ¤λ‚µλ°” λ¬΄λ£μ΄μ© / λ¦μ€ν‡΄μ‹¤ / λΉ λ¥Έ μ…μ‹¤ / μ·¨μ‚¬κ°€λ¥ / νλ…ΈλΌ λ“± λ‹¤μ–‘ν• κ°μ‹¤μ„ μ¦‰μ‹ ! ν• μΈλ°›κ³  μμ•½ν•μ„Έμ”,λ€κµ¬,λ¶κµ¬ / κ²½λ¶λ€,300000022,200000249,35.89489781037628,128.51894444040045
268,35,89387,λ€κµ¬ κ²½λ¶λ€ λ¦°μ‹μ•„,λ¨ν…”,motel,38000,0,,λ€κµ¬,λ¶κµ¬ / κ²½λ¶λ€,300000022,200000249,35.895931785528035,128.61505979600508
269,36,66865,λ€κµ¬ κ²½λ¶λ€ λ΅λ―Έμ¤,λ¨ν…”,motel,40000,0,μ „ κ°μ‹¤ λ„·ν”λ¦­μ¤ λ¬΄λ£μ‹μ²­ κ°€λ¥,λ€κµ¬,λ¶κµ¬ / κ²½λ¶λ€,300000022,200000249,35.8855146,128.6031838
270,37,66889,λ€κµ¬ κ²½λ¶λ€ μ—μ½”(ECO),λ¨ν…”,motel,45000,0,ν‰μΌ / κ²½λ¶λ€ μ—μ½” λ¬΄ν•λ€μ‹¤ !!!!!!!,λ€κµ¬,λ¶κµ¬ / κ²½λ¶λ€,300000022,200000249,35.8921439,128.60316669999997
271,38,78808,λ€κµ¬ κ²½λ¶λ€ νΈν…” BRNO (λΈλ¥΄λ…Έ),λ¨ν…”,motel,60000,0,"β™¥OPEN,μ „κ°μ‹¤ κµ¬μ¤λ‹¤μ΄μΉ¨κµ¬λ¥,μ…μ‹¤μ „ μ£Όμ°¨κ°€λ¥,λΉ„λ°,μ„Ένƒμ‹¤,κ±΄μ΅°κΈ°,λ³µν•©κΈ°,OTTβ™¥",λ€κµ¬,λ¶κµ¬ / κ²½λ¶λ€,300000022,200000249,35.88542282053014,128.60332739640012
272,39,67089,λ€κµ¬ κ²½λ¶λ€ κΌ¬λ¨(como),λ¨ν…”,motel,40000,0,,λ€κµ¬,λ¶κµ¬ / κ²½λ¶λ€,300000022,200000249,35.8961294,128.613806
273,40,83369,λ€κµ¬ λ™μ²λ™ λΈλΌμ΄λ„νΈ λ€κµ¬λ™μ²μ ,λ¨ν…”,motel,45000,0,"λ§¤μΌ μ•„μΉ¨ β…ν•μ‹,μ–‘μ‹β… μ΅°μ‹ μ κ³µ",λ€κµ¬,λ¶κµ¬ / κ²½λ¶λ€,300000022,200000249,35.94378012884417,128.55548994055846
274,41,75001,λ€κµ¬ κ²½λ¶λ€ μ™€μ™€,λ¨ν…”,motel,50000,50000,,λ€κµ¬,λ¶κµ¬ / κ²½λ¶λ€,300000022,200000249,35.8959416,128.61343420000003
275,42,77982,λ€κµ¬ νƒμ „λ™ λ°λ νƒ€μΈ,λ¨ν…”,motel,40000,0,,λ€κµ¬,λ¶κµ¬ / κ²½λ¶λ€,300000022,200000249,35.9316245,128.54781449999996
276,43,99351,κµ°μ„ μ²­ν™”μ‚°μΉ΄λΌλ°,νμ…,pension,45000,50000,,λ€κµ¬,λ¶κµ¬ / κ²½λ¶λ€,300000022,200000249,36.306784490602,128.46215602255
277,44,73004,λ€κµ¬ λ™μ²λ™ κ°¤λ¬λ¦¬μ•„,λ¨ν…”,motel,35000,35000,,λ€κµ¬,λ¶κµ¬ / κ²½λ¶λ€,300000022,200000249,35.9433177,128.5614294
278,45,80318,λ€κµ¬ κ΄€μλ™ μΉ΄λ„¤κΈ°,λ¨ν…”,motel,25000,30000,,λ€κµ¬,λ¶κµ¬ / κ²½λ¶λ€,300000022,200000249,35.93464979028831,128.5483244826451
279,46,76484,λ€κµ¬μ—­ λ‰΄κ·Έλλ“ νΈν…”,νΈν…”,hotel,50000,50000,,λ€κµ¬,λ¶κµ¬ / κ²½λ¶λ€,300000022,200000249,35.876078,128.597835
280,47,73038,λ€κµ¬μ—­ μ¤μ„νΈ,λ¨ν…”,motel,35000,0,,λ€κµ¬,λ¶κµ¬ / κ²½λ¶λ€,300000022,200000249,35.8763455,128.5966209
281,48,76745,λ€κµ¬ κ²½λ¶λ€ λ¦¬μΉ,λ¨ν…”,motel,35000,35000,,λ€κµ¬,λ¶κµ¬ / κ²½λ¶λ€,300000022,200000249,35.895811,128.61605669999994
282,49,79177,λ€κµ¬ μ—‘μ¤μ½” μ½”μ¤λ¨μ¤,λ¨ν…”,motel,35000,35000,,λ€κµ¬,λ¶κµ¬ / κ²½λ¶λ€,300000022,200000249,35.901258,128.6073108
283,50,100123,νΈν…” λ§μ—μ¤νΈλ΅ μ•μ„±,νΈν…”,hotel,150000,150000,,λ€κµ¬,λ¶κµ¬ / κ²½λ¶λ€,300000022,200000249,37.1046473,127.2586461
284,51,92669,λ€κµ¬μ—­ μ¤€,λ¨ν…”,motel,35000,40000,,λ€κµ¬,λ¶κµ¬ / κ²½λ¶λ€,300000022,200000249,35.87738770000001,128.60083710000004
285,52,69704,λ€κµ¬ κ²½λ¶λ€ ν”„λ μ¦,λ¨ν…”,motel,40000,0,,λ€κµ¬,λ¶κµ¬ / κ²½λ¶λ€,300000022,200000249,35.8844085,128.6049944
286,53,99891,κµ°μ„ λ°”μ΄μΉΌμμ•„μΉ¨,νμ…,pension,256000,256000,,λ€κµ¬,λ¶κµ¬ / κ²½λ¶λ€,300000022,200000249,36.1506102743957,128.585088341168
287,54,92187,κµ°μ„ ν”κ³µμ‚°μ–Έλ•μ„μ—νμ…,νμ…,pension,110000,110000,,λ€κµ¬,λ¶κµ¬ / κ²½λ¶λ€,300000022,200000249,36.0310261029782,128.643372325725
288,55,87952,κµ°μ„ νλ§ν•μ°μ¤νμ…,νμ…,pension,300000,300000,,λ€κµ¬,λ¶κµ¬ / κ²½λ¶λ€,300000022,200000249,36.1040534008383,128.777174416483
289,56,92934,λ€κµ¬ κ²½λ¶λ€ μ½,λ¨ν…”,motel,37000,0,,λ€κµ¬,λ¶κµ¬ / κ²½λ¶λ€,300000022,200000249,35.8915652,128.62054910000006
290,57,98648,κµ°μ„ μΉ΄λ‹λ°μμ•„μΉ¨νμ…,νμ…,pension,0,0,,λ€κµ¬,λ¶κµ¬ / κ²½λ¶λ€,300000022,200000249,36.1169917388355,128.577547351543
291,58,89763,κµ°μ„ ν”κ³µνλ§νμ…,λ¨ν…”,motel,55000,0,,λ€κµ¬,λ¶κµ¬ / κ²½λ¶λ€,300000022,200000249,36.0352365,128.6390814
292,59,80319,λ€κµ¬ κ΄€μλ™ λΈ”λ¦¬μ¤,λ¨ν…”,motel,40000,0,,λ€κµ¬,λ¶κµ¬ / κ²½λ¶λ€,300000022,200000249,35.93557639560175,128.54832242297692
293,60,81993,"κµ°μ„ ν”κ³µνλ§νμ…(μ• κ²¬λ™λ°,ν”κ³µμ‚°)",νμ…,pension,35000,35000,,λ€κµ¬,λ¶κµ¬ / κ²½λ¶λ€,300000022,200000249,36.0351954718604,128.63891566931
294,61,88420,κµ°μ„ μ†”λ°­μ•Όμμ¥νμ…,νμ…,pension,50000,50000,,λ€κµ¬,λ¶κµ¬ / κ²½λ¶λ€,300000022,200000249,36.047167613052,128.661409135994
295,62,76679,λ€κµ¬ μ†”ν–¥κΈ°νμ…,νμ…,pension,100000,100000,,λ€κµ¬,λ¶κµ¬ / κ²½λ¶λ€,300000022,200000249,36.033639098024565,128.63930888108854
296,63,99388,"κµ°μ„ μ΄μ§€νν¬ νμ…(ν•‘ν¬λ®¬λ¦¬ μ •μ›,λ―Έμ¨μ μμμ¥)",νμ…,pension,150000,250000,,λ€κµ¬,λ¶κµ¬ / κ²½λ¶λ€,300000022,200000249,36.1594055836108,128.709536120312
297,64,81105,λ€κµ¬ κ²½λ¶λ€ ν¬μ ,λ¨ν…”,motel,40000,40000,,λ€κµ¬,λ¶κµ¬ / κ²½λ¶λ€,300000022,200000249,35.8921353,128.61642029999996
298,65,93994,κµ°μ„ ν”κ³µμ‚°κ°€κ³ ν&ν°λ°”μ„νμ…,νμ…,pension,80000,80000,,λ€κµ¬,λ¶κµ¬ / κ²½λ¶λ€,300000022,200000249,36.0337032264712,128.640220271716
299,66,95148,κµ°μ„ ts936νμ…,νμ…,pension,500000,500000,,λ€κµ¬,λ¶κµ¬ / κ²½λ¶λ€,300000022,200000249,36.1024252480273,128.648458280201
300,0,81010,νΈν…” μ—¬κΈ°μ–΄λ• μ„λ€κµ¬μ ,νΈν…”,hotel,65000,65000,,λ€κµ¬,μ„κµ¬ / λΉ„μ‚°,300000022,200000250,35.875659,128.570801
301,1,80723,λ€κµ¬ ν‰λ¦¬λ™ νΈν…” μ¤νμ…,λ¨ν…”,motel,50000,0,,λ€κµ¬,μ„κµ¬ / λΉ„μ‚°,300000022,200000250,35.86954096758945,128.55432398360338
302,2,82270,λ€κµ¬ λ°κ³ κ° νΈν…” λ„κΉ¨λΉ„,λ¨ν…”,motel,50000,50000,"β΅λ€κµ¬ μµκ³ μ μ„μΉ, νΈν…” SG λ„κΉ¨λΉ„μ—μ„λ§ μ“°λ” μ„ μ°©μ μΏ ν° λ°°ν¬μ¤‘ (οΎ‰β‰§Ϊ΅β‰¦)β΅",λ€κµ¬,μ„κµ¬ / λΉ„μ‚°,300000022,200000250,35.86298094512037,128.57387347346514
303,3,86604,λ€κµ¬ ν‰λ¦¬λ™ ν•μ΄μ—”λ“(HIGH END HOTEL),λ¨ν…”,motel,70000,70000,β” λ¨λν•κ³  μ•λ½ν• κ°μ„±μΌλ΅ λ””μμΈλ μµμ μ μ‹μ„¤ β”μ „ κ°μ‹¤ κΈμ—° κµ¬μ—­ μ§€μ •,λ€κµ¬,μ„κµ¬ / λΉ„μ‚°,300000022,200000250,35.872927293046544,128.5546884482397
304,4,82268,λ€κµ¬ ν‰λ¦¬λ™ λ‚­λ§μ¤ν…μ΄ νΈν…”,λ¨ν…”,motel,45000,45000,β¨λ§μΌλ¦¬μ§€ μ λ¦½ μ΄λ²¤νΈβ¨,λ€κµ¬,μ„κµ¬ / λΉ„μ‚°,300000022,200000250,35.86616341088108,128.55530616353585
305,5,77917,λ€κµ¬ μ›λ€λ™ MT365,λ¨ν…”,motel,35000,0,EVENT νΉκ°€λ£Έ μƒμ‹ μ§„ν–‰μ¤‘μ…λ‹λ‹¤ : ),λ€κµ¬,μ„κµ¬ / λΉ„μ‚°,300000022,200000250,35.8846327,128.57311530000004
306,6,80410,λ€κµ¬ ν‰λ¦¬λ™ μ‚°μ±…,λ¨ν…”,motel,40000,0,#μμ•½μ‹ μ΄μ©κ°€λ¥ν• μΏ ν° μ κ³µ!,λ€κµ¬,μ„κµ¬ / λΉ„μ‚°,300000022,200000250,35.8683788,128.5559618
307,7,73896,λ€κµ¬ λ‘λ¥ μ λ‹(Jenny),λ¨ν…”,motel,30000,0,β…β†β…λ€κµ¬ μµμ €κ°€!! μ•λ§μμβ†κ°μ‹¤!!,λ€κµ¬,μ„κµ¬ / λΉ„μ‚°,300000022,200000250,35.8632199,128.55702539999993
308,8,68766,λ€κµ¬ ν‰λ¦¬λ™ νΈν…”μ λ‚,λ¨ν…”,motel,40000,40000,,λ€κµ¬,μ„κµ¬ / λΉ„μ‚°,300000022,200000250,35.86940299188414,128.55366343761077
309,9,73007,λ€κµ¬ ν‰λ¦¬λ™ HOTEL CIAN(μ‹μ•),λ¨ν…”,motel,60000,0,"β¤λ€κµ¬ μ„κµ¬ μµλ€κ°μ‹¤ μ‹μ• νΈν…”! μ£Όμ°¨κ±±μ • No! μ „κ°μ‹¤ μ¤νƒ€μΌλ¬ λΉ„μΉ! λΉ λ¥Έμ…μ‹¤, μ•λ§μμ, λΉ”ν”„λ΅μ νΈ μν™”λ£Έ κ°μ‹¤ λ³΄μ β¤",λ€κµ¬,μ„κµ¬ / λΉ„μ‚°,300000022,200000250,35.8683872,128.5549118
310,10,68319,λ€κµ¬ ν‰λ¦¬λ™ νΈν…” μ¤ν¬(O2),λ¨ν…”,motel,50000,50000,"β¤ 75''TV(λ„·ν”λ¦­μ¤&μ›¨μ΄λΈ κ°€λ¥), μ¤νƒ€μΌλ¬, GTX1660 κ³ μ‚¬μ–‘PC, 100μΈμΉ μ¤ν¬λ¦° μν™”",λ€κµ¬,μ„κµ¬ / λΉ„μ‚°,300000022,200000250,35.8695007,128.55403320000005
311,11,70480,λ€κµ¬ λ¶λ¶€μ •λ¥μ¥ μ΄μ‚¬λ²¨ νΈν…” λ“λΌμ΄λΈμΈ,λ¨ν…”,motel,50000,50000,# μ›λ‘μ»¤ν”Ό λ° ν•Έλ“λ©”μ΄λ“ μ΅°μ‹ λ“± λ‹¤μ–‘ν• λ£Έμ¨λΉ„μ¤ μ κ³µ,λ€κµ¬,μ„κµ¬ / λΉ„μ‚°,300000022,200000250,35.8859797,128.5555167
312,12,83383,λ€κµ¬ ν‰λ¦¬λ™ J(μ μ΄),λ¨ν…”,motel,45000,45000,β­ μ „ κ°μ‹¤ λ”λΌμ΄λΈ Ott μ…‹νƒ‘λ°•μ¤ μ„¤μΉβ­,λ€κµ¬,μ„κµ¬ / λΉ„μ‚°,300000022,200000250,35.869898086119996,128.5539186393435
313,13,73522,λ€κµ¬ λ‘λ¥ ν”λ μ΄(PLAY),λ¨ν…”,motel,40000,0,μ „κ°μ‹¤ λ„·ν”λ¦­μ¤ μ„¤μΉ / λ‘λ¥ ν”λ μ΄μ—μ„ νΈμ•ν•κ² μ‰¬κ³  κ°€μ„Έμ” !,λ€κµ¬,μ„κµ¬ / λΉ„μ‚°,300000022,200000250,35.8627368,128.5555286
314,14,67744,λ€κµ¬ μ›λ€λ™ μ›μ‹±ν„΄,λ¨ν…”,motel,40000,0,,λ€κµ¬,μ„κµ¬ / λΉ„μ‚°,300000022,200000250,35.8883212,128.56972029999997
315,15,69122,λ€κµ¬ ν‰λ¦¬λ™ λ·°ν‹°ν¬ νΈν…” μ λ‹μ¤,λ¨ν…”,motel,38000,40000,,λ€κµ¬,μ„κµ¬ / λΉ„μ‚°,300000022,200000250,35.8686233,128.5545856
316,16,80882,λ€κµ¬ λ‘λ¥ μ„ΈλΈ(SEVEN),λ¨ν…”,motel,40000,35000,βοΈ λ§μ€μ΄μ© λ¶€νƒλ“λ¦½λ‹λ‹¤.~λ‘λ¥ μ„ΈλΈ ~βοΈ,λ€κµ¬,μ„κµ¬ / λΉ„μ‚°,300000022,200000250,35.8624672,128.5556395
317,17,66833,λ€κµ¬ μ›λ€λ™ μ—λ²„κ·Έλ¦°,λ¨ν…”,motel,40000,40000,"β­μ™λ°•μ…μ‹¤μ€ 18μ‹ μ΄λ©°, ν‡΄μ‹¤μ€ 13μ‹ μ…λ‹λ‹¤!β­",λ€κµ¬,μ„κµ¬ / λΉ„μ‚°,300000022,200000250,35.8861946,128.57503500000007
318,18,80700,λ€κµ¬ λΉ„μ‚°λ™ HIT(ννΈ),λ¨ν…”,motel,40000,0,"20.12ζ λ¦¬λ‰΄μ–Ό μ¤ν” !! λ„“μ€ μ£Όμ°¨μ¥, λ„·ν”λ¦­μ¤ μ‹μ²­κ°€λ¥ !!",λ€κµ¬,μ„κµ¬ / λΉ„μ‚°,300000022,200000250,35.8707865,128.57078879999995
319,19,66930,λ€κµ¬ λ‘λ¥ ν­μ¤(FOX),λ¨ν…”,motel,40000,40000,,λ€κµ¬,μ„κµ¬ / λΉ„μ‚°,300000022,200000250,35.8629384,128.55528830000003
320,20,67797,λ€κµ¬ λ‘λ¥ μ•„ν…λ„¤,λ¨ν…”,motel,27900,0,μ„ μ°©μΏ ν°12%3μ²μ›μΏ ν°μ²΄ν¬!μ¶μ¥μ†λ‹ν™μμµμ €κ°€!!λ„·ν”λ¦­μ¤μ‹μ²­κ°€λ¥,λ€κµ¬,μ„κµ¬ / λΉ„μ‚°,300000022,200000250,35.86302178820625,128.55563579575124
321,21,76319,λ€κµ¬ ν‰λ¦¬λ™ λ” λ©”μΆ…(the maison),λ¨ν…”,motel,35000,35000,#μµμ‹ μν™” #λΉ λ¥Έμ…μ‹¤ #λ¬΄ν•λ€μ‹¤ #κ°μ‹¤ μƒμ‹ μ†λ… λ° λ°©μ—­ #,λ€κµ¬,μ„κµ¬ / λΉ„μ‚°,300000022,200000250,35.8700056,128.55616699999996
322,22,84360,λ€κµ¬ λ¶λ¶€μ •λ¥μ¥ μƒ¤λ„¤,λ¨ν…”,motel,25000,0,,λ€κµ¬,μ„κµ¬ / λΉ„μ‚°,300000022,200000250,35.88327933365617,128.55556425626835
323,23,82124,λ€κµ¬ μ›λ€λ™ μ†ν’,λ¨ν…”,motel,37000,0,,λ€κµ¬,μ„κµ¬ / λΉ„μ‚°,300000022,200000250,35.88641540811166,128.57813389949848
324,24,69786,λ€κµ¬ λ¶λ¶€μ •λ¥μ¥ νΈν…” μ¤λ,λ¨ν…”,motel,45000,45000,νν‹°λ£Έ μ—°λ°• μ΄λ²¤νΈ,λ€κµ¬,μ„κµ¬ / λΉ„μ‚°,300000022,200000250,35.886058,128.5557235
325,25,79128,λ€κµ¬ ν‰λ¦¬λ™ 8μ›”,λ¨ν…”,motel,25000,25000,,λ€κµ¬,μ„κµ¬ / λΉ„μ‚°,300000022,200000250,35.8657933,128.5564564
326,26,68724,λ€κµ¬ ν‰λ¦¬λ™ μ™€,λ¨ν…”,motel,30000,30000,,λ€κµ¬,μ„κµ¬ / λΉ„μ‚°,300000022,200000250,35.8682204,128.5546642
327,27,78104,λ€κµ¬ λ¶λ¶€μ •λ¥μ¥ νΈν…” μ‡Ό(Show),λ¨ν…”,motel,45000,45000,β¤μ•μ² μ μμ›μ΄ μ„ νƒν• νΈν…” β¤κ°€μ„±λΉ„ λνμ™•β¤ β¤ν›„κΈ° μ΄λ²¤νΈ μ¤‘ β¤λ¬΄λ£ μ™λ°•κ¶ μ κ³µβ¤,λ€κµ¬,μ„κµ¬ / λΉ„μ‚°,300000022,200000250,35.8886807,128.56201169999997
328,28,67228,λ€κµ¬ ν‰λ¦¬λ™ F2,λ¨ν…”,motel,0,0,,λ€κµ¬,μ„κµ¬ / λΉ„μ‚°,300000022,200000250,35.866544616882905,128.55660204284385
329,29,88637,λ€κµ¬ ν‰λ¦¬λ™ ν•΄ν”Ό,λ¨ν…”,motel,20000,0,,λ€κµ¬,μ„κµ¬ / λΉ„μ‚°,300000022,200000250,35.864207546026236,128.5583695776918
330,30,72546,λ€κµ¬ λ¶λ¶€μ •λ¥μ¥ ν…(TEN),λ¨ν…”,motel,50000,50000,,λ€κµ¬,μ„κµ¬ / λΉ„μ‚°,300000022,200000250,35.8886737,128.5594715
331,0,84535,λ€κµ¬ λ€λ…λ™ λΈλΌμ΄λ„νΈ λ€κµ¬μ„±λ‹Ήλ»μ ,λ¨ν…”,motel,70000,0,,λ€κµ¬,λ‚¨κµ¬ / λ΄‰λ•,300000022,200000251,35.84404192173069,128.5632607103779
332,1,79065,λ€κµ¬ the J Hotel,νΈν…”,hotel,85000,85000,,λ€κµ¬,λ‚¨κµ¬ / λ΄‰λ•,300000022,200000251,35.843533,128.591075
333,2,80656,λ€κµ¬ λ΄‰λ•λ™ BloByBlo HOTEL(λΈ”λ΅λ°”μ΄λΈ”λ΅ νΈν…”),λ¨ν…”,motel,75900,75900,β™¥μ„Έμ¤μ½”λ°©μ—­νΈν…”/μ—μ΄μ¤μΉ¨λ€β™¥,λ€κµ¬,λ‚¨κµ¬ / λ΄‰λ•,300000022,200000251,35.8437048,128.5908158
334,3,95953,λ€κµ¬ 2μ›”νΈν…” μ•μ‚°μ ,νΈν…”,hotel,65000,120000,,λ€κµ¬,λ‚¨κµ¬ / λ΄‰λ•,300000022,200000251,35.84176727847325,128.58239681860184
335,4,78832,λ€κµ¬ λ΄‰λ•λ™ the J Hotel,λ¨ν…”,motel,60000,0,β™¥λ·”νμ΅°μ‹λ§›μ§‘ ν™”~κΈ: 7:30~9:00 / ν† ~μΌ 7:30~9:30 μ΄μβ™¥,λ€κµ¬,λ‚¨κµ¬ / λ΄‰λ•,300000022,200000251,35.8435331,128.5910748
336,5,78591,λ€κµ¬ λ΄‰λ•λ™ μ¤μ„νΈ,λ¨ν…”,motel,45000,45000,,λ€κµ¬,λ‚¨κµ¬ / λ΄‰λ•,300000022,200000251,35.8474857,128.59827999999993
337,6,84652,λ€κµ¬ λ΄‰λ•λ™ 10λ²κ°€,λ¨ν…”,motel,40000,0,,λ€κµ¬,λ‚¨κµ¬ / λ΄‰λ•,300000022,200000251,35.84495302788048,128.59250308906192
338,7,76640,λ€κµ¬ λ΄‰λ•λ™ μ”μ”,λ¨ν…”,motel,45000,45000,# μ „κ°μ‹¤ μ¤ν μ•μ΅°λ΅ λ…Έκ³¤ν• λΈμ„ λ΄‰λ•λ™ μ”μ”μ™€ ν•¨κ» λ³΄λ‚΄λ”κ±΄ μ–΄λ–¤κ°€μ”~β™¬ #,λ€κµ¬,λ‚¨κµ¬ / λ΄‰λ•,300000022,200000251,35.84482879999999,128.59150840000007
339,8,80619,λ€κµ¬ μ•μ‚° λΉ„μ¦λ‹μ¤ νΈν…”,λ¨ν…”,motel,50000,50000,,λ€κµ¬,λ‚¨κµ¬ / λ΄‰λ•,300000022,200000251,35.8461586,128.5805018
340,9,76299,λ€κµ¬ λ€λ…λ™ μ  ,λ¨ν…”,motel,40000,40000,,λ€κµ¬,λ‚¨κµ¬ / λ΄‰λ•,300000022,200000251,35.8419365,128.57966669999996
341,10,77972,λ€κµ¬ λ€λ…λ™ μ‚μ—λ΅(PIERROT),λ¨ν…”,motel,40000,0,"μ „κ°μ‹¤ ν”„λ¦¬λ―Έμ—„ ν‚Ήλ² λ“/ λ„·ν”λ¦­μ¤&μ›¨μ΄λΈ λ¬΄λ£μ‹μ²­ / μ„Έμ¤μ½”λ°©μ—­,μ†λ…",λ€κµ¬,λ‚¨κµ¬ / λ΄‰λ•,300000022,200000251,35.8460538,128.56738100000007
342,11,81007,λ€κµ¬ λ€λ…λ™ λ¨λ‹(morning),λ¨ν…”,motel,35000,35000,β™¥ μ „κ°μ‹¤ PC& λ„·ν”λ¦­μ¤ μ‹μ²­κ°€λ¥ β™¥,λ€κµ¬,λ‚¨κµ¬ / λ΄‰λ•,300000022,200000251,35.8414902,128.5726565
343,12,85654,λ€κµ¬ λ΄‰λ•λ™ λ§μ΄λ”μ¤,λ¨ν…”,motel,40000,40000,,λ€κµ¬,λ‚¨κµ¬ / λ΄‰λ•,300000022,200000251,35.84065425927377,128.6031171341736
344,13,67066,λ€κµ¬ μ„λ¶€μ •λ¥μ¥ μ•¤(ANNE),λ¨ν…”,motel,44000,55000,,λ€κµ¬,λ‚¨κµ¬ / λ΄‰λ•,300000022,200000251,35.8388325,128.5607925
345,14,80166,λ€κµ¬ λ€λ…λ™ μ•Όν¬,λ¨ν…”,motel,0,0,,λ€κµ¬,λ‚¨κµ¬ / λ΄‰λ•,300000022,200000251,35.8468339,128.5803079
346,15,80699,λ€κµ¬ λ΄‰λ•λ™ μ•„λ°”(AVA),λ¨ν…”,motel,40000,40000,,λ€κµ¬,λ‚¨κµ¬ / λ΄‰λ•,300000022,200000251,35.8434481,128.5983562
347,16,72904,λ€κµ¬ 2μ›”νΈν…”(μ•μ‚°μ ),λ¨ν…”,motel,58000,0,# μ•„μΉ¨ μ΅°μ‹ μ κ³µ #,λ€κµ¬,λ‚¨κµ¬ / λ΄‰λ•,300000022,200000251,35.8417176,128.58244650000006
348,17,74084,λ€κµ¬ μ΄μ²λ™ Wλ‰΄μ•,λ¨ν…”,motel,35000,35000,,λ€κµ¬,λ‚¨κµ¬ / λ΄‰λ•,300000022,200000251,35.8551431,128.5989545
349,18,69598,λ€κµ¬ λ€λ…λ™ κ·Έλ¦°λΉ,λ¨ν…”,motel,0,0,,λ€κµ¬,λ‚¨κµ¬ / λ΄‰λ•,300000022,200000251,35.8396275,128.57199179999998
350,19,75875,λ€κµ¬ λ€λ…λ™ 9h (λ‚μΈμ•„μ›μ¤),λ¨ν…”,motel,45000,45000,,λ€κµ¬,λ‚¨κµ¬ / λ΄‰λ•,300000022,200000251,35.8561106,128.5833148
351,20,69702,λ€κµ¬ λ€λ…λ™ μΉ΄λΌ,λ¨ν…”,motel,40000,0,,λ€κµ¬,λ‚¨κµ¬ / λ΄‰λ•,300000022,200000251,35.84110716272467,128.582390254687
352,21,84604,λ€κµ¬ λ€λ…λ™ λ‰΄ν”„λ¦°μ¤ νΈν…”,λ¨ν…”,motel,45000,45000,,λ€κµ¬,λ‚¨κµ¬ / λ΄‰λ•,300000022,200000251,35.85568692053217,128.58318384309084
353,22,77889,λ€κµ¬ λ€λ…λ™ 1λ²κ°€,λ¨ν…”,motel,40000,40000,,λ€κµ¬,λ‚¨κµ¬ / λ΄‰λ•,300000022,200000251,35.84129939953817,128.57292847686674
354,23,84372,λ€κµ¬ λ€λ…λ™ Kλ¨ν…”,λ¨ν…”,motel,40000,40000,,λ€κµ¬,λ‚¨κµ¬ / λ΄‰λ•,300000022,200000251,35.84555086624264,128.59005985829907
355,0,75252,λ€κµ¬ μ¤νλ°Έλ¦¬ λ¦¬μ΅°νΈ νΈν…”λ“ν¬λ ,λ¦¬μ΅°νΈ,resort,109000,109000,[Picnic of Nature PKG] λ„¤μ΄μ²ν”Όν¬λ‹‰μ μ¶”μ–µμ„ λ‚¨κ²¨λ³΄μ„Έμ”,λ€κµ¬,λ‹¬μ„±κµ°,300000022,200000252,35.78828,128.635252
356,1,85887,λ€κµ¬ ν„ν’ λΈλΌμ΄λ„νΈ λ€κµ¬ν„ν’μ ,λ¨ν…”,motel,80000,0,βοΈ μ μ„ μμ•½ μ΅°μ‹λ·”ν λ¬΄λ£μ κ³µ / κ³ λ°”μ¨ μ»¤ν”Όμ (μ „λ©”λ‰΄) 10%ν• μΈμΏ ν° μ κ³µ βοΈ,λ€κµ¬,λ‹¬μ„±κµ°,300000022,200000252,35.691954549459076,128.45670993087694
357,2,69602,λ€κµ¬ ν„ν’ λ” λ””μΆ…νΈν…”,λ¨ν…”,motel,100000,100000,μ΅°μ‹μ κ³µβ¤οΈν•μ‹&ν† μ¤νΈ&μ”¨λ¦¬μ–Ό β¤οΈλΉ„μ¦λ‹μ¤νΈν…”,λ€κµ¬,λ‹¬μ„±κµ°,300000022,200000252,35.6918502,128.45617189999996
358,3,82808,λ€κµ¬ ν„ν’ Hotel λ…ΈλΈ”(NOBLE),λ¨ν…”,motel,150000,150000,"β¤οΈ λ¬΄λ£ μ΅°μ‹ μ„λΉ„μ¤(ν•μ‹), λΉ„μ¦λ‹μ¤ νΈν…” β¤οΈ",λ€κµ¬,λ‹¬μ„±κµ°,300000022,200000252,35.69032622715826,128.45514578888097
359,4,86971,λ‚¨ν•΄ λ‚¨ν•΄μ—μ„ν•λ£¨νμ…,νμ…,pension,139000,139000,,λ€κµ¬,λ‹¬μ„±κµ°,300000022,200000252,34.8256622862514,127.941593067043
360,5,79530,λ€κµ¬ λ…Όκ³µ λ£©μ¤,λ¨ν…”,motel,45000,0,,λ€κµ¬,λ‹¬μ„±κµ°,300000022,200000252,35.7284461,128.4417053
361,6,72561,λ€κµ¬ λ‹¬μ„± μ¤νƒ€(STAR),λ¨ν…”,motel,40000,0,,λ€κµ¬,λ‹¬μ„±κµ°,300000022,200000252,35.766883,128.40838929999995
362,7,72643,λ€κµ¬ ν„ν’ ν™μ‹,λ¨ν…”,motel,67000,0,,λ€κµ¬,λ‹¬μ„±κµ°,300000022,200000252,35.6999901,128.44181389999994
363,8,70428,λ€κµ¬ μ¥ν¬ μ΄λ„μ¤(IN-US),λ¨ν…”,motel,45000,0,,λ€κµ¬,λ‹¬μ„±κµ°,300000022,200000252,35.7906827,128.4706086
364,9,75314,λ€κµ¬ λ‹¬μ„± λ‹¤μ¬,λ¨ν…”,motel,0,0,,λ€κµ¬,λ‹¬μ„±κµ°,300000022,200000252,35.6494356,128.4192276
365,10,75643,λ€κµ¬ ν„ν’ μ—λ κ°•μ¤,λ¨ν…”,motel,55000,0,β¤μ—λ κ°•μ¤ 3EVENTβ¤,λ€κµ¬,λ‹¬μ„±κµ°,300000022,200000252,35.7016823,128.440514
366,11,72272,λ€κµ¬ ν„ν’ νλ“ ,λ¨ν…”,motel,55000,0,12μ‹ μ΄μ „ μ…μ‹¤ κ³ κ°λ¶„λ“¤κ» λ€μ‹¤ 4μ‹κ°„ μ κ³µ EVENT  (1μ‹¤ 1μ£Όμ°¨ κ°μ‹¤ μ μ™Έ),λ€κµ¬,λ‹¬μ„±κµ°,300000022,200000252,35.6703089,128.44962220000002
367,12,74621,λ€κµ¬ λ‹¬μ„± νΈν…” λ¦¬μ›€(RIUM),λ¨ν…”,motel,60000,60000,β…μ†΅ν•΄κ³µμ›β…,λ€κµ¬,λ‹¬μ„±κµ°,300000022,200000252,35.7906476,128.47365109999998
368,13,78046,λ€κµ¬ λ…Όκ³µ μ—λ΅μ¤,λ¨ν…”,motel,40000,40000,,λ€κµ¬,λ‹¬μ„±κµ°,300000022,200000252,35.7277043,128.45020610000006
369,14,72636,λ€κµ¬ λ‹¬μ„±κµ° μΉΈνΈν…”,λ¨ν…”,motel,0,0,,λ€κµ¬,λ‹¬μ„±κµ°,300000022,200000252,35.64232499989619,128.42160701932676
370,15,69322,λ€κµ¬ μ¥ν¬ μ¤λ,λ¨ν…”,motel,45000,0,,λ€κµ¬,λ‹¬μ„±κµ°,300000022,200000252,35.790575,128.4684972
371,16,67714,λ€κµ¬ λ…Όκ³µ μ•ν† ,λ¨ν…”,motel,50000,50000,,λ€κµ¬,λ‹¬μ„±κµ°,300000022,200000252,35.7740578,128.4227616
372,17,69428,λ€κµ¬ κ°€μ°½ λ λ“,λ¨ν…”,motel,40000,40000,,λ€κµ¬,λ‹¬μ„±κµ°,300000022,200000252,35.7335262,128.66532830000006
373,18,80872,λ€κµ¬ λ‹¬μ„±κµ° HOTEL G,λ¨ν…”,motel,60000,0,,λ€κµ¬,λ‹¬μ„±κµ°,300000022,200000252,35.6423476,128.4222562
374,19,76480,λ€κµ¬ μ¥ν¬ μ•¤(Anne),λ¨ν…”,motel,40000,40000,,λ€κµ¬,λ‹¬μ„±κµ°,300000022,200000252,35.7538342,128.50233679999997
375,20,77843,λ€κµ¬ λ…Όκ³µ μ  ,λ¨ν…”,motel,40000,40000,β¨λ„“μ€ μ£Όμ°¨μ¥ λ³΄μ β¨,λ€κµ¬,λ‹¬μ„±κµ°,300000022,200000252,35.7726941,128.41946459999997
376,21,78113,λ€κµ¬ κ°€μ°½ νλ§,λ¨ν…”,motel,40000,0,,λ€κµ¬,λ‹¬μ„±κµ°,300000022,200000252,35.7312305,128.6572132
377,22,85803,λ€κµ¬ μ¥ν¬ λΉ„λ„μ¤,λ¨ν…”,motel,42000,42000,,λ€κµ¬,λ‹¬μ„±κµ°,300000022,200000252,35.7462506651164,128.49190929485334
378,23,93894,μ²­μ–‘ μ½©λ°­λ§¤λ”λ•λ•μ΄νμ…(λ€ν•κ²¬κ°€λ¥),νμ…,pension,90000,90000,,λ€κµ¬,λ‹¬μ„±κµ°,300000022,200000252,36.4102235150916,126.833788272179
379,24,99773,λ€κµ¬ μ‚¬μ΄μ€ κ½ƒμ΄μ—λ‹¤,νμ…,pension,400000,400000,,λ€κµ¬,λ‹¬μ„±κµ°,300000022,200000252,35.7241477177982,128.633889623439
380,0,75252,λ€κµ¬ μ¤νλ°Έλ¦¬ λ¦¬μ΅°νΈ νΈν…”λ“ν¬λ ,λ¦¬μ΅°νΈ,resort,109000,109000,[Picnic of Nature PKG] λ„¤μ΄μ²ν”Όν¬λ‹‰μ μ¶”μ–µμ„ λ‚¨κ²¨λ³΄μ„Έμ”,λ€κµ¬,λ‹¬μ„±κµ°,300000022,200000252,35.78828,128.635252
381,1,85887,λ€κµ¬ ν„ν’ λΈλΌμ΄λ„νΈ λ€κµ¬ν„ν’μ ,λ¨ν…”,motel,80000,0,βοΈ μ μ„ μμ•½ μ΅°μ‹λ·”ν λ¬΄λ£μ κ³µ / κ³ λ°”μ¨ μ»¤ν”Όμ (μ „λ©”λ‰΄) 10%ν• μΈμΏ ν° μ κ³µ βοΈ,λ€κµ¬,λ‹¬μ„±κµ°,300000022,200000252,35.691954549459076,128.45670993087694
382,2,69602,λ€κµ¬ ν„ν’ λ” λ””μΆ…νΈν…”,λ¨ν…”,motel,100000,100000,μ΅°μ‹μ κ³µβ¤οΈν•μ‹&ν† μ¤νΈ&μ”¨λ¦¬μ–Ό β¤οΈλΉ„μ¦λ‹μ¤νΈν…”,λ€κµ¬,λ‹¬μ„±κµ°,300000022,200000252,35.6918502,128.45617189999996
383,3,82808,λ€κµ¬ ν„ν’ Hotel λ…ΈλΈ”(NOBLE),λ¨ν…”,motel,150000,150000,"β¤οΈ λ¬΄λ£ μ΅°μ‹ μ„λΉ„μ¤(ν•μ‹), λΉ„μ¦λ‹μ¤ νΈν…” β¤οΈ",λ€κµ¬,λ‹¬μ„±κµ°,300000022,200000252,35.69032622715826,128.45514578888097
384,4,86971,λ‚¨ν•΄ λ‚¨ν•΄μ—μ„ν•λ£¨νμ…,νμ…,pension,139000,139000,,λ€κµ¬,λ‹¬μ„±κµ°,300000022,200000252,34.8256622862514,127.941593067043
385,5,79530,λ€κµ¬ λ…Όκ³µ λ£©μ¤,λ¨ν…”,motel,45000,0,,λ€κµ¬,λ‹¬μ„±κµ°,300000022,200000252,35.7284461,128.4417053
386,6,72561,λ€κµ¬ λ‹¬μ„± μ¤νƒ€(STAR),λ¨ν…”,motel,40000,0,,λ€κµ¬,λ‹¬μ„±κµ°,300000022,200000252,35.766883,128.40838929999995
387,7,72643,λ€κµ¬ ν„ν’ ν™μ‹,λ¨ν…”,motel,67000,0,,λ€κµ¬,λ‹¬μ„±κµ°,300000022,200000252,35.6999901,128.44181389999994
388,8,70428,λ€κµ¬ μ¥ν¬ μ΄λ„μ¤(IN-US),λ¨ν…”,motel,45000,0,,λ€κµ¬,λ‹¬μ„±κµ°,300000022,200000252,35.7906827,128.4706086
389,9,75314,λ€κµ¬ λ‹¬μ„± λ‹¤μ¬,λ¨ν…”,motel,0,0,,λ€κµ¬,λ‹¬μ„±κµ°,300000022,200000252,35.6494356,128.4192276
390,10,75643,λ€κµ¬ ν„ν’ μ—λ κ°•μ¤,λ¨ν…”,motel,55000,0,β¤μ—λ κ°•μ¤ 3EVENTβ¤,λ€κµ¬,λ‹¬μ„±κµ°,300000022,200000252,35.7016823,128.440514
391,11,72272,λ€κµ¬ ν„ν’ νλ“ ,λ¨ν…”,motel,55000,0,12μ‹ μ΄μ „ μ…μ‹¤ κ³ κ°λ¶„λ“¤κ» λ€μ‹¤ 4μ‹κ°„ μ κ³µ EVENT  (1μ‹¤ 1μ£Όμ°¨ κ°μ‹¤ μ μ™Έ),λ€κµ¬,λ‹¬μ„±κµ°,300000022,200000252,35.6703089,128.44962220000002
392,12,74621,λ€κµ¬ λ‹¬μ„± νΈν…” λ¦¬μ›€(RIUM),λ¨ν…”,motel,60000,60000,β…μ†΅ν•΄κ³µμ›β…,λ€κµ¬,λ‹¬μ„±κµ°,300000022,200000252,35.7906476,128.47365109999998
393,13,78046,λ€κµ¬ λ…Όκ³µ μ—λ΅μ¤,λ¨ν…”,motel,40000,40000,,λ€κµ¬,λ‹¬μ„±κµ°,300000022,200000252,35.7277043,128.45020610000006
394,14,72636,λ€κµ¬ λ‹¬μ„±κµ° μΉΈνΈν…”,λ¨ν…”,motel,0,0,,λ€κµ¬,λ‹¬μ„±κµ°,300000022,200000252,35.64232499989619,128.42160701932676
395,15,69322,λ€κµ¬ μ¥ν¬ μ¤λ,λ¨ν…”,motel,45000,0,,λ€κµ¬,λ‹¬μ„±κµ°,300000022,200000252,35.790575,128.4684972
396,16,67714,λ€κµ¬ λ…Όκ³µ μ•ν† ,λ¨ν…”,motel,50000,50000,,λ€κµ¬,λ‹¬μ„±κµ°,300000022,200000252,35.7740578,128.4227616
397,17,69428,λ€κµ¬ κ°€μ°½ λ λ“,λ¨ν…”,motel,40000,40000,,λ€κµ¬,λ‹¬μ„±κµ°,300000022,200000252,35.7335262,128.66532830000006
398,18,80872,λ€κµ¬ λ‹¬μ„±κµ° HOTEL G,λ¨ν…”,motel,60000,0,,λ€κµ¬,λ‹¬μ„±κµ°,300000022,200000252,35.6423476,128.4222562
399,19,76480,λ€κµ¬ μ¥ν¬ μ•¤(Anne),λ¨ν…”,motel,40000,40000,,λ€κµ¬,λ‹¬μ„±κµ°,300000022,200000252,35.7538342,128.50233679999997
400,20,77843,λ€κµ¬ λ…Όκ³µ μ  ,λ¨ν…”,motel,40000,40000,β¨λ„“μ€ μ£Όμ°¨μ¥ λ³΄μ β¨,λ€κµ¬,λ‹¬μ„±κµ°,300000022,200000252,35.7726941,128.41946459999997
401,21,78113,λ€κµ¬ κ°€μ°½ νλ§,λ¨ν…”,motel,40000,0,,λ€κµ¬,λ‹¬μ„±κµ°,300000022,200000252,35.7312305,128.6572132
402,22,85803,λ€κµ¬ μ¥ν¬ λΉ„λ„μ¤,λ¨ν…”,motel,42000,42000,,λ€κµ¬,λ‹¬μ„±κµ°,300000022,200000252,35.7462506651164,128.49190929485334
403,23,93894,μ²­μ–‘ μ½©λ°­λ§¤λ”λ•λ•μ΄νμ…(λ€ν•κ²¬κ°€λ¥),νμ…,pension,90000,90000,,λ€κµ¬,λ‹¬μ„±κµ°,300000022,200000252,36.4102235150916,126.833788272179
404,24,99773,λ€κµ¬ μ‚¬μ΄μ€ κ½ƒμ΄μ—λ‹¤,νμ…,pension,400000,400000,,λ€κµ¬,λ‹¬μ„±κµ°,300000022,200000252,35.7241477177982,128.633889623439
