,index,code,name,grade,type,d_price,price,benefit,region_L,region_S,code_L,code_S,lat,lon
0,0,69450,μ—­μ‚Ό μΉ΄νμ¤,λ¨ν…”,motel,138800,0,"β¤οΈSuit κ°μ‹¤ μμ•½μ‹ μ™€μΈ, μ „ κ°μ‹¤ μλ£ λ¬΄λ£μ κ³µ / μ „κ°μ‹¤ λ„·ν”λ¦­μ¤μ΅΄β¤οΈ",μ„μΈ,κ°•λ‚¨ / μ—­μ‚Ό / μ‚Όμ„±,300000016,200000151,37.5015433,127.0411349
1,1,70287,μΉ΄νμ¤ νΈν…”,2μ„±κΈ‰,hotel,118800,120000,β¤οΈSuit κ°μ‹¤ μμ•½μ‹ μ™€μΈ λλ” λ¬΄λ£μλ£  μ κ³µ/μ „ κ°μ‹¤ λ„·ν”λ¦­μ¤ μ‹μ²­κ°€λ¥β¤οΈ,μ„μΈ,κ°•λ‚¨ / μ—­μ‚Ό / μ‚Όμ„±,300000016,200000151,37.501458,127.041135
2,2,66994,μ—­μ‚Ό μ•„λ“λ¦¬κ²,λ¨ν…”,motel,69800,55000,β¤οΈλ„“μ€ λ©΄μ +μ „ κ°μ‹¤ μ—μ΄μ¤ μΉ¨λ€+μ¤νμ•μ΅°(μΌλ¶€)β¤οΈ,μ„μΈ,κ°•λ‚¨ / μ—­μ‚Ό / μ‚Όμ„±,300000016,200000151,37.5008697,127.0390985
3,3,85926,μ—­μ‚Ό λΈλΌμ΄λ„νΈ μ—­μ‚Όμ ,λ¨ν…”,motel,90000,0,"β¨λ„·ν”λ¦­μ¤,μ›¨μ΄λΈ,ν‹°λΉ™,λ””μ¦λ‹+ν”„λ¦¬β¨ μ„ΈλΌμ ¬μ•λ§μμ μ΄μβοΈλ£¨ν”„νƒ‘ λ‹¨λ… λ€κ΄€ μ΄μ©(BBQ,λ…Έλλ°©,λΉ”ν”„λ΅μ νΈ μ‚¬μ©κ°€λ¥)",μ„μΈ,κ°•λ‚¨ / μ—­μ‚Ό / μ‚Όμ„±,300000016,200000151,37.50284516018402,127.040286243305
4,4,70392,μ—­μ‚Ό XYM,λ¨ν…”,motel,59800,0,β¤οΈμ „κ°μ‹¤ 65'TV / λ„·ν”λ¦­μ¤ Free / μ νλΈ / OTTκ°€λ¥β¤οΈ,μ„μΈ,κ°•λ‚¨ / μ—­μ‚Ό / μ‚Όμ„±,300000016,200000151,37.501038,127.039672
5,5,73890,κΈ€λλ“ κ°•λ‚¨ μ½”μ—‘μ¤μ„Όν„°,3μ„±κΈ‰,hotel,308490,308490,,μ„μΈ,κ°•λ‚¨ / μ—­μ‚Ό / μ‚Όμ„±,300000016,200000151,37.508793,127.064544
6,6,68173,μ—­μ‚Ό λ¦¬μΉμ›°,λ¨ν…”,motel,79800,0,β¤οΈμ„ μ°©μ ν• μΈ μΏ ν°/ λ¬΄λ£ μ£Όμ°¨ / μ•μ΅° λ³΄μ β¤οΈ,μ„μΈ,κ°•λ‚¨ / μ—­μ‚Ό / μ‚Όμ„±,300000016,200000151,37.502839017175596,127.03982637116394
7,7,67307,λ…Όν„(μ‹ μ‚¬) ν•μ΄λλ“,λ¨ν…”,motel,85000,96800,,μ„μΈ,κ°•λ‚¨ / μ—­μ‚Ό / μ‚Όμ„±,300000016,200000151,37.5187653,127.0267969
8,9,71089,νΈν…” μΈ λ‚μΈ κ°•λ‚¨,νΈν…”,hotel,238000,238000,"9, 10μ›” κΈμ”μΌλ§λ‹¤ νΈν…” λ£¨ν”„νƒ‘μ—μ„ λμ„¬ λ“λ΅  λΌμ΄νΈμ‡Όλ¥Ό μ¦κΈ°μ„Έμ”!)",μ„μΈ,κ°•λ‚¨ / μ—­μ‚Ό / μ‚Όμ„±,300000016,200000151,37.515469,127.060066
9,10,70213,μ‹ λΌμ¤ν…μ΄ μ—­μ‚Ό,νΈν…”,hotel,199000,199000,,μ„μΈ,κ°•λ‚¨ / μ—­μ‚Ό / μ‚Όμ„±,300000016,200000151,37.504696,127.041237
10,11,79482,μ‹ λΌμ¤ν…μ΄ μ‚Όμ„±,νΈν…”,hotel,308000,308000,,μ„μΈ,κ°•λ‚¨ / μ—­μ‚Ό / μ‚Όμ„±,300000016,200000151,37.509887,127.063171
11,12,73846,L7 κ°•λ‚¨,4μ„±κΈ‰,hotel,319000,319000,,μ„μΈ,κ°•λ‚¨ / μ—­μ‚Ό / μ‚Όμ„±,300000016,200000151,37.505725,127.051738
12,13,70400,μΈν„°μ»¨ν‹°λ„¨νƒ μ„μΈ μ½”μ—‘μ¤,5μ„±κΈ‰,hotel,0,0,,μ„μΈ,κ°•λ‚¨ / μ—­μ‚Ό / μ‚Όμ„±,300000016,200000151,37.513526,127.057161
13,14,81112,κ·Έλλ“ μΈν„°μ»¨ν‹°λ„¨νƒ μ„μΈ νλ¥΄λ‚μ¤,5μ„±κΈ‰,hotel,1028500,1028500,,μ„μΈ,κ°•λ‚¨ / μ—­μ‚Ό / μ‚Όμ„±,300000016,200000151,37.509132,127.060851
14,15,82949,μ΅°μ„  ν°λ¦¬μ¤ μ„μΈ κ°•λ‚¨ λ­μ…”λ¦¬ μ»¬λ ‰μ… νΈν…”,5μ„±κΈ‰,hotel,825000,825000,,μ„μΈ,κ°•λ‚¨ / μ—­μ‚Ό / μ‚Όμ„±,300000016,200000151,37.503214,127.041506
15,16,72475,λ„λ―ΈμΈ μ„μΈ κ°•λ‚¨,νΈν…”,hotel,189900,189900,,μ„μΈ,κ°•λ‚¨ / μ—­μ‚Ό / μ‚Όμ„±,300000016,200000151,37.505607,127.029448
16,17,80481,νν¬ ν•μ–νΈ μ„μΈ,5μ„±κΈ‰,hotel,677600,677600,,μ„μΈ,κ°•λ‚¨ / μ—­μ‚Ό / μ‚Όμ„±,300000016,200000151,37.508624,127.064147
17,18,75600,μ—μ΄λ“  λ°”μ΄ λ² μ¤νΈμ›¨μ¤ν„΄ μ²­λ‹΄,3μ„±κΈ‰,hotel,195000,300000,,μ„μΈ,κ°•λ‚¨ / μ—­μ‚Ό / μ‚Όμ„±,300000016,200000151,37.520017,127.03045
18,19,69963,λ…Έλ³΄ν…” μ•°λ°°μ„λ” κ°•λ‚¨,5μ„±κΈ‰,hotel,302500,302500,,μ„μΈ,κ°•λ‚¨ / μ—­μ‚Ό / μ‚Όμ„±,300000016,200000151,37.505377,127.02885
19,20,75853,νΈν…” ν¬λ μ„Όλ„ μ„μΈ,3μ„±κΈ‰,hotel,220000,220000,,μ„μΈ,κ°•λ‚¨ / μ—­μ‚Ό / μ‚Όμ„±,300000016,200000151,37.510712,127.046922
20,21,69852,λ² μ¤νΈμ›¨μ¤ν„΄ ν”„λ¦¬λ―Έμ–΄ κ°•λ‚¨,νΈν…”,hotel,173000,300000,,μ„μΈ,κ°•λ‚¨ / μ—­μ‚Ό / μ‚Όμ„±,300000016,200000151,37.50634,127.029774
21,22,69895,νΈν…” μ‚Όμ • κ°•λ‚¨,4μ„±κΈ‰,hotel,0,0,,μ„μΈ,κ°•λ‚¨ / μ—­μ‚Ό / μ‚Όμ„±,300000016,200000151,37.505795,127.031298
22,23,80457,μ¤ν¬μ°λ“ ν”„λ¦¬λ―Έμ–΄ μ„μΈ μ½”μ—‘μ¤,5μ„±κΈ‰,hotel,0,0,,μ„μΈ,κ°•λ‚¨ / μ—­μ‚Ό / μ‚Όμ„±,300000016,200000151,37.510982,127.05809
23,24,69911,μ΄λΉ„μ¤ μ¤νƒ€μΌ μ•°λ°°μ„λ” κ°•λ‚¨,νΈν…”,hotel,0,0,,μ„μΈ,κ°•λ‚¨ / μ—­μ‚Ό / μ‚Όμ„±,300000016,200000151,37.505067,127.057053
24,25,74789,νΈν…” λ‰΄λΈ,3μ„±κΈ‰,hotel,165000,165000,,μ„μΈ,κ°•λ‚¨ / μ—­μ‚Ό / μ‚Όμ„±,300000016,200000151,37.502993,127.049089
25,26,88342,μ•„λ‚ν‹° μ•³ κ°•λ‚¨,4μ„±κΈ‰,hotel,637200,637200,,μ„μΈ,κ°•λ‚¨ / μ—­μ‚Ό / μ‚Όμ„±,300000016,200000151,37.517546576606144,127.02953397253464
26,27,72671,νΈν…” μ λ¦¬μ•¤,νΈν…”,hotel,253000,253000,,μ„μΈ,κ°•λ‚¨ / μ—­μ‚Ό / μ‚Όμ„±,300000016,200000151,37.508904,127.057602
27,28,90825,μ‚¬μ›”νΈν…”,νΈν…”,hotel,130000,130000,μµμƒκΈ‰ λ§¤νΈλ¦¬μ¤/SMART TV/λ„·ν”λ¦­μ¤&λ””μ¦λ‹ FREE ZONE,μ„μΈ,κ°•λ‚¨ / μ—­μ‚Ό / μ‚Όμ„±,300000016,200000151,37.50169243838685,127.04184352138718
28,29,92672,λ§λ¦¬νΈν…”,νΈν…”,hotel,120000,120000,μ „κΈ°μ°¨ μ¶©μ „ λ¬΄λ£ μ΄λ²¤νΈ,μ„μΈ,κ°•λ‚¨ / μ—­μ‚Ό / μ‚Όμ„±,300000016,200000151,37.50164787738782,127.04208750897966
29,30,69833,νΈν…” κ·ΈλΌλ¨μ¤,νΈν…”,hotel,300000,1355200,,μ„μΈ,κ°•λ‚¨ / μ—­μ‚Ό / μ‚Όμ„±,300000016,200000151,37.502537,127.03985
30,31,86236,"λ³΄μ½”μ„μΈκ°•λ‚¨, IHG νΈν…”",4μ„±κΈ‰,hotel,592900,592900,β…24μ‹κ°„ κ³µμ  μ£Όλ°© and μ…€ν”„ μ„Ένƒμ‹¤ λ³΄μ β…,μ„μΈ,κ°•λ‚¨ / μ—­μ‚Ό / μ‚Όμ„±,300000016,200000151,37.517763,127.024611
31,32,70243,νΈν…” λ” λ””μμ΄λ„μ¤ λ¦¬μ¦ κ°•λ‚¨,νΈν…”,hotel,215000,260000,,μ„μΈ,κ°•λ‚¨ / μ—­μ‚Ό / μ‚Όμ„±,300000016,200000151,37.50517,127.025842
32,33,75032,νν‹°μ¤μ„ΈλΈ νΈν…”,νΈν…”,hotel,153000,153000,,μ„μΈ,κ°•λ‚¨ / μ—­μ‚Ό / μ‚Όμ„±,300000016,200000151,37.51777,127.029241
33,34,70253,μΉ΄ν‘ΈμΉλ…Έ νΈν…”,3μ„±κΈ‰,hotel,180000,180000,,μ„μΈ,κ°•λ‚¨ / μ—­μ‚Ό / μ‚Όμ„±,300000016,200000151,37.506801,127.031485
34,35,88789,λ ‰μ¤κ΄€κ΄‘νΈν…”,νΈν…”,hotel,108000,108000,,μ„μΈ,κ°•λ‚¨ / μ—­μ‚Ό / μ‚Όμ„±,300000016,200000151,37.514368373933905,127.02053186090096
35,37,70194,μΈλ”μ‹ν‹° λΉ„μ¦λ‹μ¤ νΈν…”,νΈν…”,hotel,90000,140000,,μ„μΈ,κ°•λ‚¨ / μ—­μ‚Ό / μ‚Όμ„±,300000016,200000151,37.503021,127.039979
36,38,73088,νΈν…” μ»¬λ¦¬λ„ κ°ν¬,νΈν…”,hotel,100000,189000,,μ„μΈ,κ°•λ‚¨ / μ—­μ‚Ό / μ‚Όμ„±,300000016,200000151,37.476808,127.04591
37,39,81361,κ°•λ‚¨ 648νΈν…”,νΈν…”,hotel,0,0,,μ„μΈ,κ°•λ‚¨ / μ—­μ‚Ό / μ‚Όμ„±,300000016,200000151,37.500002,127.031876
38,41,85166,μ—­μ‚Ό μ•„λ¥΄λ„λ³΄μ”¨ν‹° νΈν…” μ•¤ λ μ§€λμ¤,νΈν…”,hotel,79900,500000,,μ„μΈ,κ°•λ‚¨ / μ—­μ‚Ό / μ‚Όμ„±,300000016,200000151,37.503421,127.04284
39,42,70110,νΈν…” λ°λ‹,2μ„±κΈ‰,hotel,120000,120000,,μ„μΈ,κ°•λ‚¨ / μ—­μ‚Ό / μ‚Όμ„±,300000016,200000151,37.476083,127.04663
40,43,70260,νΈν…” νμ΄ν†  μ‚Όμ„±,3μ„±κΈ‰,hotel,264000,270000,,μ„μΈ,κ°•λ‚¨ / μ—­μ‚Ό / μ‚Όμ„±,300000016,200000151,37.508408,127.058676
41,44,74673,μ¤μ›”νΈν…”,1μ„±κΈ‰,hotel,220000,220000,,μ„μΈ,κ°•λ‚¨ / μ—­μ‚Ό / μ‚Όμ„±,300000016,200000151,37.500582,127.041064
42,45,97582,AC νΈν…” λ°”μ΄ λ©”λ¦¬μ–΄νΈ μ„μΈ κ°•λ‚¨,νΈν…”,hotel,0,0,"λ„μ‹¬ μ‹ν‹°λ·°β…21F, λ£¨ν”„νƒ‘ λ°” ν΄λΌμ°λ“",μ„μΈ,κ°•λ‚¨ / μ—­μ‚Ό / μ‚Όμ„±,300000016,200000151,37.50124168345747,127.03542446670134
43,46,68377,μ—­μ‚Ό CF,λ¨ν…”,motel,70000,0,λΉ„ν΅μ—° κ³ κ°μ„μ„ν• κΈμ—°κ°μ‹¤ μ΄μ!!,μ„μΈ,κ°•λ‚¨ / μ—­μ‚Ό / μ‚Όμ„±,300000016,200000151,37.5012406,127.0422948
44,47,78817,μ„ λ¦‰ HOTEL GRAY,λ¨ν…”,motel,65000,0,,μ„μΈ,κ°•λ‚¨ / μ—­μ‚Ό / μ‚Όμ„±,300000016,200000151,37.5048662,127.05289909999999
45,48,72124,λ”” μ•„ν‹°μ¤νΈ νΈν…” μ—­μ‚Όμ ,2μ„±κΈ‰,hotel,110000,300000,,μ„μΈ,κ°•λ‚¨ / μ—­μ‚Ό / μ‚Όμ„±,300000016,200000151,37.502355,127.03846
46,49,70005,μ λ¦¬μ¤ν”λλ‹› νΈν…” κ°•λ‚¨,1μ„±κΈ‰,hotel,0,0,,μ„μΈ,κ°•λ‚¨ / μ—­μ‚Ό / μ‚Όμ„±,300000016,200000151,37.499008,127.028512
47,50,70063,λ² λ‹ν‚¤μ•„ κ°•λ‚¨ λ…ΈλΈ”λ μ¤,νΈν…”,hotel,0,0,,μ„μΈ,κ°•λ‚¨ / μ—­μ‚Ό / μ‚Όμ„±,300000016,200000151,37.501358,127.035778
48,51,80644,μ—­μ‚Ό μ»¬λ¦¬λ„,λ¨ν…”,motel,79800,0,β¤οΈλ„·ν”λ¦­μ¤ / λΉ„λ° / μ•μ΅° / μµκ³ κΈ‰ λ€ν• μ¤μ„νΈλ£Έβ¤οΈ,μ„μΈ,κ°•λ‚¨ / μ—­μ‚Ό / μ‚Όμ„±,300000016,200000151,37.5013942,127.0420928
49,52,89388,μ‚Όμ„± νƒ€λΌνΈν…”,λ¨ν…”,motel,200000,0,,μ„μΈ,κ°•λ‚¨ / μ—­μ‚Ό / μ‚Όμ„±,300000016,200000151,37.5066825,127.0518793
50,54,70119,H Avenue μ—­μ‚Όμ ,νΈν…”,hotel,120000,120000,2004λ…„μƒ μƒμΌμ§€λ‚ κ²½μ° μ…μ‹¤κ°€λ¥,μ„μΈ,κ°•λ‚¨ / μ—­μ‚Ό / μ‚Όμ„±,300000016,200000151,37.502432,127.038733
51,55,80800,κ°ν¬ νΈν…”λ°λ‹ (DENIM),λ¨ν…”,motel,120000,0,,μ„μΈ,κ°•λ‚¨ / μ—­μ‚Ό / μ‚Όμ„±,300000016,200000151,37.4761867,127.0465993
52,56,74551,νΈν…” μ„Έλ κ°•λ‚¨,νΈν…”,hotel,89000,150000,,μ„μΈ,κ°•λ‚¨ / μ—­μ‚Ό / μ‚Όμ„±,300000016,200000151,37.503903,127.035093
53,58,70349,νΈν…” μ†μΈν•λ‹¤,νΈν…”,hotel,130000,140000,,μ„μΈ,κ°•λ‚¨ / μ—­μ‚Ό / μ‚Όμ„±,300000016,200000151,37.4987567180495,127.03253042264815
54,59,68363,κ°•λ‚¨ νΈν…” λ” λ””μμ΄λ„μ¤ λ¦¬μ¦ ν”„λ¦¬λ―Έμ–΄,λ¨ν…”,motel,240000,0,"λ„·ν”λ¦­μ¤ μ‹μ²­κ°€λ¥, λ³ΈμΈκ³„μ •μΌλ΅λ§ μ‹μ²­κ°€λ¥",μ„μΈ,κ°•λ‚¨ / μ—­μ‚Ό / μ‚Όμ„±,300000016,200000151,37.5052097,127.0258797
55,60,77616,μ—­μ‚Ό SUNG SIM,λ¨ν…”,motel,60000,0,RTX 3070 κ²μ΄λ° PC μ…‹μ—…!170Hz κ²μ΄λ° λ¨λ‹ν„°β™¥λ””μ¦λ‹β™¥μ• ν”ν‹°λΉ„β™¥λ„·ν”λ¦­μ¤β™¥κµ¬κΈ€λ¬΄λΉ„β™¥μ›¨μ΄λΈλ¬΄λ£,μ„μΈ,κ°•λ‚¨ / μ—­μ‚Ό / μ‚Όμ„±,300000016,200000151,37.5007503,127.04008299999998
56,62,70571,μ—­μ‚Ό Hotel The Artist,λ¨ν…”,motel,110000,0,μ „ μ°¨μΆ… μ£Όμ°¨ κ°€λ¥β­λ¬΄λ£ λ°λ › μ„λΉ„μ¤β¨λ¬΄λ£ μ΅°μ‹ μ„λΉ„μ¤β¤οΈ,μ„μΈ,κ°•λ‚¨ / μ—­μ‚Ό / μ‚Όμ„±,300000016,200000151,37.502330485125945,127.03845690244675
57,63,69186,κ°•λ‚¨ μΊ νΌμ¤,λ¨ν…”,motel,80000,0,β…κ°•λ‚¨μ—­ 1λ² μ¶κµ¬ λ„λ³΄ 1λ¶„κ±°λ¦¬β…,μ„μΈ,κ°•λ‚¨ / μ—­μ‚Ό / μ‚Όμ„±,300000016,200000151,37.4973142,127.0291977
58,64,66718,μ—­μ‚Ό λ²¤,λ¨ν…”,motel,65000,0,"β…μ „κ°μ‹¤ λ„·ν”λ¦­μ¤ λ¬΄λ£μ‹μ²­,κ³ λ°κΈ° κ³µκΈ°μ²­μ •κΈ° μ„¤μΉ~",μ„μΈ,κ°•λ‚¨ / μ—­μ‚Ό / μ‚Όμ„±,300000016,200000151,37.5007057,127.0398487
59,65,79827,μ—­μ‚Ό μ‚¬μ›”,λ¨ν…”,motel,130000,0,μµμƒκΈ‰ λ§¤νΈλ¦¬μ¤/SMART TV/λ„·ν”λ¦­μ¤&λ””μ¦λ‹ FREE ZONE,μ„μΈ,κ°•λ‚¨ / μ—­μ‚Ό / μ‚Όμ„±,300000016,200000151,37.5016745,127.0418242
60,66,86858,μ—­μ‚Ό H Avenue μ—­μ‚Όμ ,λ¨ν…”,motel,100000,0,β…2004λ…„μƒ μƒμΌμ§€λ‚μ•Όλ§ μ…μ‹¤κ°€λ¥(ν™λ¶λ¶κ°€)β…,μ„μΈ,κ°•λ‚¨ / μ—­μ‚Ό / μ‚Όμ„±,300000016,200000151,37.502493413182584,127.03874071403108
61,67,69776,λ€μΉ μ»¬λ¦¬λ„,λ¨ν…”,motel,80000,0,μ²­κ²°κ³Ό μ„μƒμ„ μ² μ €νν•©λ‹λ‹¤~!,μ„μΈ,κ°•λ‚¨ / μ—­μ‚Ό / μ‚Όμ„±,300000016,200000151,37.5051159,127.0542632
62,68,68815,μ‚Όμ„± JS λ¶€λ λ„νΈν…”,λ¨ν…”,motel,70000,0,24μ‹κ°„ μ§μ› μƒμ‹ κ·Όλ¬΄μ¦(19μ„Έλ―Έλ§μμ•½λ¶κ°€),μ„μΈ,κ°•λ‚¨ / μ—­μ‚Ό / μ‚Όμ„±,300000016,200000151,37.5064379,127.0514865
63,69,69396,μ—­μ‚Ό μ•„λ§λ ,λ¨ν…”,motel,70000,0,"μ „κ°μ‹¤ 55μΈμΉμ¤λ§νΈTV,λ„·ν”λ¦­μ¤ μ‹μ²­κ°€λ¥",μ„μΈ,κ°•λ‚¨ / μ—­μ‚Ό / μ‚Όμ„±,300000016,200000151,37.4946337,127.0402482
64,70,79776,κ°•λ‚¨ μ†μΈν•λ‹¤,λ¨ν…”,motel,120000,0,,μ„μΈ,κ°•λ‚¨ / μ—­μ‚Ό / μ‚Όμ„±,300000016,200000151,37.4987198,127.0325182
65,72,66715,κ°•λ‚¨ λ ‰μ‹,λ¨ν…”,motel,80000,0,β¤μ—¬λ¦„λ§μ΄ μ—μ–΄μ»¨ν΄λ¦¬λ‹ μ‹¤μ‹,μ„μΈ,κ°•λ‚¨ / μ—­μ‚Ό / μ‚Όμ„±,300000016,200000151,37.4987923,127.03395580000006
66,73,72066,μ—­μ‚Ό νΈν…”μ¤νƒ€ ν”„λ¦¬λ―Έμ–΄,λ¨ν…”,motel,70000,70000,β…2004λ…„μƒ μƒμΌμ§€λ‚μ•Όλ§ μ…μ‹¤κ°€λ¥(ν™λ¶λ¶κ°€)β…,μ„μΈ,κ°•λ‚¨ / μ—­μ‚Ό / μ‚Όμ„±,300000016,200000151,37.5027068,127.0403273
67,74,72951,μ—­μ‚Ό λ…Ήμ¤ νΈν…”,λ¨ν…”,motel,70000,0,"1. μ£Όμ¤‘ λ¬΄ν• λ€μ‹¤ μµμ¥ 10μ‹κ°„, μ „ κ°μ‹¤ λ„·ν”λ¦­μ¤ ν”„λ¦¬μ΅΄",μ„μΈ,κ°•λ‚¨ / μ—­μ‚Ό / μ‚Όμ„±,300000016,200000151,37.5027017,127.0397594
68,76,80894,κ°ν¬ μ»¬λ¦¬λ„,λ¨ν…”,motel,90000,0,,μ„μΈ,κ°•λ‚¨ / μ—­μ‚Ό / μ‚Όμ„±,300000016,200000151,37.4768502,127.045925
69,77,75630,μ„ λ¦‰ νΈν…” μ¤νƒ€,λ¨ν…”,motel,80000,0,μ¤νƒ λ‹¤λ“B κ°μ‹¤ (λ³ΈμΈκ³„μ •)λ„·ν”λ¦­μ¤ μ΄μ©κ°€λ¥,μ„μΈ,κ°•λ‚¨ / μ—­μ‚Ό / μ‚Όμ„±,300000016,200000151,37.5053094,127.0494151
70,78,81610,μ‚Όμ„± λΌμ—  (LaM),λ¨ν…”,motel,65000,85000,μ „κ°μ‹¤ λ„·ν”λ¦­μ¤ SMART VIEW μ—°λ™κ°€λ¥,μ„μΈ,κ°•λ‚¨ / μ—­μ‚Ό / μ‚Όμ„±,300000016,200000151,37.516814,127.0657865
71,79,66773,μ—­μ‚Ό A-NA HOTEL,λ¨ν…”,motel,60000,60000,,μ„μΈ,κ°•λ‚¨ / μ—­μ‚Ό / μ‚Όμ„±,300000016,200000151,37.501168,127.0404898
72,80,78517,μ—­μ‚Ό νΈν…” μμ¤(Hotel Yes),λ¨ν…”,motel,70000,0,μ—°λ°•μ‹ μ¶”κ°€μ”κΈμ΄ λ°μƒν•©λ‹λ‹¤.PCλ°© μµκ³ μ‚¬μ–‘.μ „κ°μ‹¤μ„Έμ¤μ½”λΉ„λ°λ°LGκ³µκΈ°μ²­μ •κΈ°μ„¤μΉ. λ„·ν”λ¦­μ¤.μ›¨μ΄λΈλ¬΄λ£κ³„μ •,μ„μΈ,κ°•λ‚¨ / μ—­μ‚Ό / μ‚Όμ„±,300000016,200000151,37.50112379999999,127.04114019999997
73,81,68796,κ°•λ‚¨ λ°λ―Έμ•νΈν…”,λ¨ν…”,motel,70000,0,,μ„μΈ,κ°•λ‚¨ / μ—­μ‚Ό / μ‚Όμ„±,300000016,200000151,37.4926942,127.04309130000001
74,82,67994,μ—­μ‚Ό HOTEL λ¦° LIN,λ¨ν…”,motel,55000,70000,λ…Έν•λ“/I5-9400/16G/RTX2060/144hz/λ„·ν”λ¦­μ¤,μ„μΈ,κ°•λ‚¨ / μ—­μ‚Ό / μ‚Όμ„±,300000016,200000151,37.5007029,127.0391452
75,83,69323,κ°•λ‚¨ YAJA κ°•λ‚¨ λ…Όν„μ ,λ¨ν…”,motel,80000,0,,μ„μΈ,κ°•λ‚¨ / μ—­μ‚Ό / μ‚Όμ„±,300000016,200000151,37.5088581,127.0372657
76,84,76133,κ°•λ‚¨ νΈν…” ν΄λ¦­,λ¨ν…”,motel,70000,0,,μ„μΈ,κ°•λ‚¨ / μ—­μ‚Ό / μ‚Όμ„±,300000016,200000151,37.5108874,127.04478110000002
77,85,67603,κ°•λ‚¨ μ‹μ• ν‹€,λ¨ν…”,motel,60000,0,,μ„μΈ,κ°•λ‚¨ / μ—­μ‚Ό / μ‚Όμ„±,300000016,200000151,37.4958567,127.0299851
78,86,99488,νΈν…”μ¤νƒ€ν”„λ¦¬λ―Έμ–΄ μ—­μ‚Ό,νΈν…”,hotel,185000,200000,,μ„μΈ,κ°•λ‚¨ / μ—­μ‚Ό / μ‚Όμ„±,300000016,200000151,37.50270825801202,127.04033383914391
79,87,84724,μ²­μ£Ό ν¬λΉ„μΈ,λ¨ν…”,motel,35000,0,,μ„μΈ,κ°•λ‚¨ / μ—­μ‚Ό / μ‚Όμ„±,300000016,200000151,36.63430752617118,127.45790317422703
80,88,69756,μ‚Όμ„± λ”” μ—μ΄μ¤,λ¨ν…”,motel,80000,60000,κ³ λ€κΈ° λ€μ—¬ μ™„λΉ„,μ„μΈ,κ°•λ‚¨ / μ—­μ‚Ό / μ‚Όμ„±,300000016,200000151,37.5069509,127.05405629999996
81,89,97780,μ—­μ‚Ό μ•„λ¥΄λ„λ³΄ νΈν…”,λ¨ν…”,motel,0,0,,μ„μΈ,κ°•λ‚¨ / μ—­μ‚Ό / μ‚Όμ„±,300000016,200000151,37.5033786,127.0428441
82,90,85448,λ‹¨μ–‘ λ“¤κ½ƒμ •μ›νμ…,νμ…,pension,72000,80000,,μ„μΈ,κ°•λ‚¨ / μ—­μ‚Ό / μ‚Όμ„±,300000016,200000151,36.8870775596214,128.299824873257
83,91,85388,μ—¬μ νν¬,λ¨ν…”,motel,50000,0,,μ„μΈ,κ°•λ‚¨ / μ—­μ‚Ό / μ‚Όμ„±,300000016,200000151,34.764710664790144,127.6645575422916
84,92,94196,κ°€ν‰ λ…μ±„ν’€λΉλΌλ μΈλ³΄μ°νμ…,νμ…,pension,250000,250000,,μ„μΈ,κ°•λ‚¨ / μ—­μ‚Ό / μ‚Όμ„±,300000016,200000151,37.8789311308169,127.583500875621
85,93,99760,ν¬ν•­ μ΄μ¤ν„΄λ¨μ¤νΈμΉ΄λΌλ°μΊ ν•‘,νμ…,pension,99000,180000,,μ„μΈ,κ°•λ‚¨ / μ—­μ‚Ό / μ‚Όμ„±,300000016,200000151,36.0169429025972,129.580917667004
86,94,99821,νƒμ•(μ•λ©΄λ„) μ μ΄ν’€λΉλΌν‚¤μ¦,νμ…,pension,350000,350000,,μ„μΈ,κ°•λ‚¨ / μ—­μ‚Ό / μ‚Όμ„±,300000016,200000151,36.5917576018221,126.330062190776
87,95,87910,νƒμ• μ‹ λ‘λ¦¬ν•΄μ•μ‚¬κµ¬νμ…,νμ…,pension,90000,90000,,μ„μΈ,κ°•λ‚¨ / μ—­μ‚Ό / μ‚Όμ„±,300000016,200000151,36.8435828024657,126.194468745797
88,0,72719,μ‹ λΌμ¤ν…μ΄ μ„μ΄,3μ„±κΈ‰,hotel,206910,206910,,μ„μΈ,μ„μ΄ / κµλ€ / λ°©λ°°,300000016,200000152,37.489359,127.030137
89,1,75942,μ¤λΌμΉ΄μ΄ μ²­κ³„μ‚° νΈν…”,4μ„±κΈ‰,hotel,149000,149000,,μ„μΈ,μ„μ΄ / κµλ€ / λ°©λ°°,300000016,200000152,37.448785,127.054886
90,2,70040,νΈν…” μ†μ„¤,νΈν…”,hotel,143000,143000,,μ„μΈ,μ„μ΄ / κµλ€ / λ°©λ°°,300000016,200000152,37.486302,127.013789
91,3,93420,JW λ©”λ¦¬μ–΄νΈ νΈν…” μ„μΈ,5μ„±κΈ‰,hotel,762300,762300,,μ„μΈ,μ„μ΄ / κµλ€ / λ°©λ°°,300000016,200000152,37.50555210770678,127.00356622371417
92,4,70076,The-K νΈν…” μ„μΈ,4μ„±κΈ‰,hotel,119000,119000,,μ„μΈ,μ„μ΄ / κµλ€ / λ°©λ°°,300000016,200000152,37.466739,127.033183
93,5,83671,ννΌ κ°€λ“ μΈ μ„μΈ κ°•λ‚¨,4μ„±κΈ‰,hotel,280500,280500,,μ„μΈ,μ„μ΄ / κµλ€ / λ°©λ°°,300000016,200000152,37.485933,127.032766
94,6,70065,μ¤ν΄λΌμ°λ“ νΈν…”,νΈν…”,hotel,0,0,,μ„μΈ,μ„μ΄ / κµλ€ / λ°©λ°°,300000016,200000152,37.503013,127.023759
95,7,70202,νΈν…” νμ΄ν†  κ°•λ‚¨,νΈν…”,hotel,187000,270000,,μ„μΈ,μ„μ΄ / κµλ€ / λ°©λ°°,300000016,200000152,37.486485,127.032632
96,8,88978,λ¥΄μ»¬λ ‰ν‹°λΈ μ„μΈμ„μ΄,νΈν…”,hotel,458910,458910,,μ„μΈ,μ„μ΄ / κµλ€ / λ°©λ°°,300000016,200000152,37.48697903763651,127.01351145038728
97,9,70054,μ–΄λ°ν”λ μ΄μ¤ κ°•λ‚¨,νΈν…”,hotel,0,0,,μ„μΈ,μ„μ΄ / κµλ€ / λ°©λ°°,300000016,200000152,37.491632,127.02901
98,10,69864,ν”„λ΅λΉ„μ¤νƒ€ νΈν…”,2μ„±κΈ‰,hotel,163700,290000,,μ„μΈ,μ„μ΄ / κµλ€ / λ°©λ°°,300000016,200000152,37.494816,127.018611
99,11,98839,UH FLAT The μ„μ΄,νΈν…”,hotel,0,0,β†μ—°λ°• μ¬μ‹¤μ²­μ† λ¬΄λ£ / 3λ°• μ™λ°•μ‹ μΉ¨κµ¬λ¥ κµμ²΄ 1νβ†,μ„μΈ,μ„μ΄ / κµλ€ / λ°©λ°°,300000016,200000152,37.48697903763651,127.01351145038728
100,12,97717,WJνΈν…” ν’€ν•μ°μ¤,νΈν…”,hotel,60000,100000,,μ„μΈ,μ„μ΄ / κµλ€ / λ°©λ°°,300000016,200000152,37.34556886593259,128.00970237434885
101,13,69863,κ°•λ‚¨μ•„λ¥΄λ„λ³΄μ”¨ν‹° νΈν…”,νΈν…”,hotel,271000,271000,,μ„μΈ,μ„μ΄ / κµλ€ / λ°©λ°°,300000016,200000152,37.493376,127.028125
102,14,70270,νΈν…” ν‹°λ΅¤,2μ„±κΈ‰,hotel,100000,180000,,μ„μΈ,μ„μ΄ / κµλ€ / λ°©λ°°,300000016,200000152,37.515039,127.017119
103,15,89321,μ„μ΄μΈν¬λΌμ¨νΈν…”μ•¤λ μ§€λμ¤,νΈν…”,hotel,0,0,β¨λ””λ­μ¤β–¶ν”„λ¦¬λ―Έμ–΄ μ¤μ„νΈ λ¬΄λ£ μ—…κ·Έλ μ΄λ“β¨,μ„μΈ,μ„μ΄ / κµλ€ / λ°©λ°°,300000016,200000152,37.48697903763651,127.01351145038728
104,16,69874,λ” λ¦¬λ²„μ‚¬μ΄λ“ νΈν…”,3μ„±κΈ‰,hotel,145000,231000,,μ„μΈ,μ„μ΄ / κµλ€ / λ°©λ°°,300000016,200000152,37.518532,127.018072
105,17,88667,μ„μ΄ μ•„λ¥΄λ„λ³΄μ”¨ν‹° νΈν…” μ•¤ λ μ§€λμ¤,νΈν…”,hotel,0,0,,μ„μΈ,μ„μ΄ / κµλ€ / λ°©λ°°,300000016,200000152,37.49616859441289,127.02048260634609
106,18,100117,λ¥΄μ»¬λ ‰ν‹°λΈ μ„μ΄ μ•„ν‹€λ¦¬μ—,νΈν…”,hotel,143910,143910,,μ„μΈ,μ„μ΄ / κµλ€ / λ°©λ°°,300000016,200000152,37.48614661636984,127.01250259808866
107,19,70102,μ μ›νΈν…” λ‚¨λ¶€ν„°λ―Έλ„,νΈν…”,hotel,79800,150000,,μ„μΈ,μ„μ΄ / κµλ€ / λ°©λ°°,300000016,200000152,37.485211,127.012823
108,20,76526,κ°•λ‚¨ λ΄„ νΈν…”,λ¨ν…”,motel,100000,0,ν¬λ¦¬μ¤λ§μ¤ μ΄λ²¤νΈ,μ„μΈ,μ„μ΄ / κµλ€ / λ°©λ°°,300000016,200000152,37.5049695,127.02342440000007
109,21,76320,μ„μ΄ λ‚μΈμ¤,νΈν…”,hotel,95000,95000,,μ„μΈ,μ„μ΄ / κµλ€ / λ°©λ°°,300000016,200000152,37.486245,127.013609
110,22,88668,μμ² μμ²νμ…702(μμ²λ§μµμ§€λ„λ³΄1λ¶„κ±°λ¦¬),νμ…,pension,95000,95000,,μ„μΈ,μ„μ΄ / κµλ€ / λ°©λ°°,300000016,200000152,34.8866817537925,127.50517110051
111,23,66765,μ„μ΄ LAVA κµλ€λ‚¨λ¶€ν„°λ―Έλ„,λ¨ν…”,motel,80000,0,ν¬ν†  λ¦¬λ·° λ¬΄λ£ λ€μ‹¤ μ¦μ • μ΄λ²¤νΈ,μ„μΈ,μ„μ΄ / κµλ€ / λ°©λ°°,300000016,200000152,37.4864773,127.01358670000002
112,24,66722,μ–‘μ¬ νΈν…” μ‹ νΈλΌ,λ¨ν…”,motel,80000,0,1.λ¬΄ν•λ€μ‹¤ κ·Έλλ“ μ¤ν” μ΄λ²¤νΈ,μ„μΈ,μ„μ΄ / κµλ€ / λ°©λ°°,300000016,200000152,37.4846703,127.0292263
113,25,75182,λ°©λ°° STYLE,λ¨ν…”,motel,70000,0,,μ„μΈ,μ„μ΄ / κµλ€ / λ°©λ°°,300000016,200000152,37.4942914,126.9859035
114,26,66818,μ„μ΄ NINETH λ‚¨λ¶€ν„°λ―Έλ„,λ¨ν…”,motel,80000,0,"μµμ‹  κ³ μ‚¬μ–‘ κ²μ΄λ° pc λ°°μΉμ™„λ£ (1pc,2pc)",μ„μΈ,μ„μ΄ / κµλ€ / λ°©λ°°,300000016,200000152,37.4862522,127.0135802
115,27,76018,λ°©λ°° HOTEL 2001,λ¨ν…”,motel,65000,0,,μ„μΈ,μ„μ΄ / κµλ€ / λ°©λ°°,300000016,200000152,37.4947262,126.986244
116,28,68464,μ‹ μ‚¬ LA TREE(λΌ νΈλ¦¬),λ¨ν…”,motel,0,0,,μ„μΈ,μ„μ΄ / κµλ€ / λ°©λ°°,300000016,200000152,37.5159891,127.01837410000007
117,29,68868,μ„μ΄ JASMIN,λ¨ν…”,motel,70000,0,β…λ΄„μ— μ™μΈ λ„~~μμ¤λ―Όκ³Όν•¨κ»~~,μ„μΈ,μ„μ΄ / κµλ€ / λ°©λ°°,300000016,200000152,37.487371,127.01386909999997
118,30,67204,μ„μ΄ μ μ›νΈν…” λ‚¨λ¶€ν„°λ―Έλ„,λ¨ν…”,motel,69800,0,κ°€μ„±λΉ„ μΆ‹κ³  μΆ‹μ€ μ μ΄ μ“μ΄λ” μ μ› νΈν…”,μ„μΈ,μ„μ΄ / κµλ€ / λ°©λ°°,300000016,200000152,37.4851564,127.01282049999998
119,31,67557,λ°©λ°° M,λ¨ν…”,motel,45000,45000,,μ„μΈ,μ„μ΄ / κµλ€ / λ°©λ°°,300000016,200000152,37.4913642,126.99172069999997
120,32,81163,μ–‘μ¬ 30Month Hotel,λ¨ν…”,motel,70000,0,λ¬΄ν•λ€μ‹¤ 7μ‹κ°„ μ΄λ²¤νΈ μ‹¤μ‹μ¤‘,μ„μΈ,μ„μ΄ / κµλ€ / λ°©λ°°,300000016,200000152,37.4840343,127.0386744
121,33,80593,μ„μ΄ LAVA,νΈν…”,hotel,120000,200000,,μ„μΈ,μ„μ΄ / κµλ€ / λ°©λ°°,300000016,200000152,37.486514,127.013666
122,34,99092,κ²½μ£Ό ν’€λΉλΌλ½νμ…(23.8μ›” μ‹ μ¶•),νμ…,pension,280000,380000,,μ„μΈ,μ„μ΄ / κµλ€ / λ°©λ°°,300000016,200000152,35.8936595448404,129.290640766807
123,35,93678,μ„μ΄ μΈν¬λΌμ¨νΈν…”μ•¤λ μ§€λμ¤,λ¨ν…”,motel,0,0,,μ„μΈ,μ„μ΄ / κµλ€ / λ°©λ°°,300000016,200000152,37.48697903763651,127.01351145038728
124,0,70323,μ‹ λΌμ¤ν…μ΄ κµ¬λ΅,νΈν…”,hotel,143350,295000,,μ„μΈ,μ‚¬λ‹Ή,300000016,200000153,37.485621,126.904518
125,1,70429,ν•Έλ“ν”½νΈ νΈν…”,νΈν…”,hotel,89000,176000,,μ„μΈ,μ‚¬λ‹Ή,300000016,200000153,37.501189,126.933533
126,2,69889,SR νΈν…” μ‚¬λ‹Ήμ ,2μ„±κΈ‰,hotel,120000,120000,β…λ‹¨λ…νΉκ°€ νλ§¤μ¤‘β…,μ„μΈ,μ‚¬λ‹Ή,300000016,200000153,37.47709,126.980416
127,3,82975,ν”λ ‰μ¤ λ μ§€λμ¤,νΈν…”,hotel,100000,250000,,μ„μΈ,μ‚¬λ‹Ή,300000016,200000153,37.485202,126.980264
128,4,73575,μ‚¬λ‹Ή MRG,λ¨ν…”,motel,50000,0,"β…β…β…μ „ κ°μ‹¤ λ„·ν”λ¦­μ¤ μ„¤μΉ  (λ¬΄λ£μν™”).                                  β…β…β… CESCO  μ†λ…,λ°©μ—­  μ‹ν–‰μ—…μ²΄ μ…λ‹λ‹¤.",μ„μΈ,μ‚¬λ‹Ή,300000016,200000153,37.4807965,126.98122190000004
129,5,68834,λ…Έλ‰μ§„ λ‹‰μ¤,λ¨ν…”,motel,40000,0,"λ„·ν”λ¦­μ¤,μ›¨μ΄λΈ λ¬΄λ£ μ‹μ²­ / μ—μ–΄μ»¨ λ¶„ν•΄ μ‚΄κ· μ„Έμ²™ μ™„λ£",μ„μΈ,μ‚¬λ‹Ή,300000016,200000153,37.5130869,126.9361483
130,6,68836,λ…Έλ‰μ§„ N.Stay,λ¨ν…”,motel,0,0,,μ„μΈ,μ‚¬λ‹Ή,300000016,200000153,37.512941422,126.947760787
131,7,75513,λ…Έλ‰μ§„ λ€ν¥,λ¨ν…”,motel,55000,0,,μ„μΈ,μ‚¬λ‹Ή,300000016,200000153,37.5130359,126.9379306
132,8,79596,λ…Έλ‰μ§„ λ…ΈλΈ”,λ¨ν…”,motel,40000,0,,μ„μΈ,μ‚¬λ‹Ή,300000016,200000153,37.5096328,126.9404705
133,9,81954,λ…Έλ‰μ§„ ν¥μ¤ν…μ΄,λ¨ν…”,motel,55000,0,"μ½”λ΅λ‚μλ°© μ†λ… μ¤‘, κΉ¨λ—ν• μΈν…λ¦¬μ–΄, μΉ¨κµ¬λ¥",μ„μΈ,μ‚¬λ‹Ή,300000016,200000153,37.512899,126.9358477
134,10,69165,λ…Έλ‰μ§„ JH9,λ¨ν…”,motel,43000,43000,,μ„μΈ,μ‚¬λ‹Ή,300000016,200000153,37.5127931,126.9420428
135,11,92450,μ‚¬λ‹Ή ν”λ ‰μ¤ λ μ§€λμ¤,λ¨ν…”,motel,100000,0,,μ„μΈ,μ‚¬λ‹Ή,300000016,200000153,37.485215727645084,126.98026694758228
136,12,78869,λ™μ‘(λ€λ°©) ν΄,λ¨ν…”,motel,40000,0,7νΈμ„  μ‹ λ€λ°©μ‚Όκ±°λ¦¬μ—­ 3λ²μ¶κµ¬ 20Mκ±°λ¦¬μ— μ„μΉν• ν΄ λ¨ν…”μ…λ‹λ‹¤.,μ„μΈ,μ‚¬λ‹Ή,300000016,200000153,37.49936652081995,126.9268307897379
137,0,69928,νΈν…” λ¦¬λ² λΌ μ²­λ‹΄,4μ„±κΈ‰,hotel,182000,300000,,μ„μΈ,μ‹ μ‚¬ / μ••κµ¬μ • / μ²­λ‹΄,300000016,200000154,37.523764,127.054262
138,1,81129,μ•λ‹¤μ¦ μ„μΈ κ°•λ‚¨,5μ„±κΈ‰,hotel,528800,528800,,μ„μΈ,μ‹ μ‚¬ / μ••κµ¬μ • / μ²­λ‹΄,300000016,200000154,37.525194,127.028845
139,2,69866,νΈν…” μ„ μƒ¤μΈ μ„μΈ,νΈν…”,hotel,156400,156400,λ‹¨λ…β…18μ‹ μ²΄ν¬μΈ νΉκ°€ νλ§¤ μ¤‘,μ„μΈ,μ‹ μ‚¬ / μ••κµ¬μ • / μ²­λ‹΄,300000016,200000154,37.520312,127.028816
140,3,70164,λΌκΉμ‚¬ νΈν…” μ„μΈ,3μ„±κΈ‰,hotel,0,0,,μ„μΈ,μ‹ μ‚¬ / μ••κµ¬μ • / μ²­λ‹΄,300000016,200000154,37.52215,127.019553
141,4,81728,μ•ν…λ£Έ μ„μΈ,3μ„±κΈ‰,hotel,280000,280000,,μ„μΈ,μ‹ μ‚¬ / μ••κµ¬μ • / μ²­λ‹΄,300000016,200000154,37.518866,127.025225
142,5,93529,ν¬ν¬μΈμΈ  λ°”μ΄ μ‰λΌν†¤ μ„μΈ κ°•λ‚¨,4μ„±κΈ‰,hotel,0,0,,μ„μΈ,μ‹ μ‚¬ / μ••κµ¬μ • / μ²­λ‹΄,300000016,200000154,37.52030445868199,127.0285195187874
143,6,70180,ν”„λ¦°μ„Έμ¤ νΈν…”,νΈν…”,hotel,0,0,,μ„μΈ,μ‹ μ‚¬ / μ••κµ¬μ • / μ²­λ‹΄,300000016,200000154,37.527348,127.036624
144,7,72109,νΈν…” μ—”νΈλΌ κ°•λ‚¨,3μ„±κΈ‰,hotel,388000,388000,,μ„μΈ,μ‹ μ‚¬ / μ••κµ¬μ • / μ²­λ‹΄,300000016,200000154,37.523999,127.048448
145,8,74817,λΌλΉ„νƒ€ νΈν…”,νΈν…”,hotel,120000,200000,,μ„μΈ,μ‹ μ‚¬ / μ••κµ¬μ • / μ²­λ‹΄,300000016,200000154,37.521373,127.056868
146,9,76520,μ‹ μ‚¬ μ• μΈ(λ¬΄μΈ)νΈν…”,λ¨ν…”,motel,80000,0,β…κ°μ‹¤ μ—…κ·Έλ μ΄λ“ μ΄λ²¤νΈβ…,μ„μΈ,μ‹ μ‚¬ / μ••κµ¬μ • / μ²­λ‹΄,300000016,200000154,37.521313,127.01912300000004
147,10,75040,μ‹ μ‚¬ μ§,λ¨ν…”,motel,65000,65000,,μ„μΈ,μ‹ μ‚¬ / μ••κµ¬μ • / μ²­λ‹΄,300000016,200000154,37.5173059,127.01964799999996
148,11,84103,κ°€ν‰ μ΄μ½”ν‚¤μ¦ν’€λΉλΌ,νμ…,pension,100000,140000,,μ„μΈ,μ‹ μ‚¬ / μ••κµ¬μ • / μ²­λ‹΄,300000016,200000154,37.7751786684256,127.506451778287
149,0,67071,μ μ‹¤ ν†°μ§€,λ¨ν…”,motel,65000,0,μ¬λ°μ΄νƒ€μ…μ„ μ μ™Έν• λ¨λ“ κ°μ‹¤ μ—°λ°•μ΄μ©μ‹ μ¶”κ°€μ”κΈ λ°μƒ !,μ„μΈ,μ μ‹¤ / μ†΅ν / μ μ‹¤μƒλ‚΄ / μ²νΈ / κ°•λ™,300000016,200000155,37.5155501,127.1095007
150,1,78951,μ μ‹¤(λ°©μ΄) νΈν…” λ” μΊμ¬ 1νΈμ ,λ¨ν…”,motel,70000,0,,μ„μΈ,μ μ‹¤ / μ†΅ν / μ μ‹¤μƒλ‚΄ / μ²νΈ / κ°•λ™,300000016,200000155,37.5154133904476,127.10903840859828
151,2,80037,μ²νΈ AUGUST(8μ›”)HOTEL,λ¨ν…”,motel,55000,0,β–¨β–§β–¨μ „ κ°μ‹¤ λ„·ν”λ¦­μ¤&μ νλΈ μ„¤μΉ μ™„λ£β–§β–¨β–§,μ„μΈ,μ μ‹¤ / μ†΅ν / μ μ‹¤μƒλ‚΄ / μ²νΈ / κ°•λ™,300000016,200000155,37.540014,127.1262573
152,3,83487,μ†ν”Όν…” μ•°λ°°μ„λ” μ„μΈ νΈν…”&μ„λΉ„μ¤λ“ λ μ§€λμ¤,5μ„±κΈ‰,hotel,467500,467500,,μ„μΈ,μ μ‹¤ / μ†΅ν / μ μ‹¤μƒλ‚΄ / μ²νΈ / κ°•λ™,300000016,200000155,37.513871,127.106364
153,4,86162,"κ°•λ¦‰ λ°”λ‹¤μ™€νμ…(λ¦¬λ¨λΈλ§, μ• κ²¬λ™λ°, ν•΄μμ•μ¥ μ•)",νμ…,pension,90000,120000,,μ„μΈ,μ μ‹¤ / μ†΅ν / μ μ‹¤μƒλ‚΄ / μ²νΈ / κ°•λ™,300000016,200000155,37.8453885784025,128.869316784671
154,6,73449,νν¬ ν•λΉ„μ¤ νΈν…”,3μ„±κΈ‰,hotel,172420,314600,,μ„μΈ,μ μ‹¤ / μ†΅ν / μ μ‹¤μƒλ‚΄ / μ²νΈ / κ°•λ™,300000016,200000155,37.482085,127.123578
155,7,84576,μ‹κ·Έλ‹μ— μ„μΈ,5μ„±κΈ‰,hotel,726000,726000,,μ„μΈ,μ μ‹¤ / μ†΅ν / μ μ‹¤μƒλ‚΄ / μ²νΈ / κ°•λ™,300000016,200000155,37.51257,127.102563
156,8,70154,λ΅―λ°νΈν…” μ›”λ“,5μ„±κΈ‰,hotel,459800,459800,,μ„μΈ,μ μ‹¤ / μ†΅ν / μ μ‹¤μƒλ‚΄ / μ²νΈ / κ°•λ™,300000016,200000155,37.511235,127.098027
157,9,74154,μ‹ μ² μƒμ£Ό νΈν…”,νΈν…”,hotel,0,0,,μ„μΈ,μ μ‹¤ / μ†΅ν / μ μ‹¤μƒλ‚΄ / μ²νΈ / κ°•λ™,300000016,200000155,37.510043,127.080544
158,10,69969,λ μ΄ν¬ νΈν…”,3μ„±κΈ‰,hotel,0,0,,μ„μΈ,μ μ‹¤ / μ†΅ν / μ μ‹¤μƒλ‚΄ / μ²νΈ / κ°•λ™,300000016,200000155,37.506831,127.100985
159,11,84682,λ¥΄λ©”μΈνΈν…” μ„κ·€ν¬,νΈν…”,hotel,150000,300000,,μ„μΈ,μ μ‹¤ / μ†΅ν / μ μ‹¤μƒλ‚΄ / μ²νΈ / κ°•λ™,300000016,200000155,33.246247,126.333544
160,12,70292,μ μ‹¤2.4νΈν…”,2μ„±κΈ‰,hotel,80000,80000,,μ„μΈ,μ μ‹¤ / μ†΅ν / μ μ‹¤μƒλ‚΄ / μ²νΈ / κ°•λ™,300000016,200000155,37.515703,127.113867
161,13,84205,μ μ‹¤(λ°©μ΄2νΈ)νΈν…” λ” μΊμ¬,1μ„±κΈ‰,hotel,95000,100000,,μ„μΈ,μ μ‹¤ / μ†΅ν / μ μ‹¤μƒλ‚΄ / μ²νΈ / κ°•λ™,300000016,200000155,37.515352,127.109137
162,14,70330,κ°€λ½κ΄€κ΄‘νΈν…”,νΈν…”,hotel,108000,120000,,μ„μΈ,μ μ‹¤ / μ†΅ν / μ μ‹¤μƒλ‚΄ / μ²νΈ / κ°•λ™,300000016,200000155,37.493815,127.118727
163,15,69952,λ΅μ‚¬λ‚ νΈν…”,3μ„±κΈ‰,hotel,0,0,"μ‚Όμ„±μλ£μ›, μ•„μ‚°λ³‘μ› μΈκ·ΌνΈν…”",μ„μΈ,μ μ‹¤ / μ†΅ν / μ μ‹¤μƒλ‚΄ / μ²νΈ / κ°•λ™,300000016,200000155,37.506022,127.097572
164,17,79226,μ μ‹¤(λ°©μ΄1νΈ)νΈν…” λ” μΊμ¬,νΈν…”,hotel,95000,95000,,μ„μΈ,μ μ‹¤ / μ†΅ν / μ μ‹¤μƒλ‚΄ / μ²νΈ / κ°•λ™,300000016,200000155,37.515313,127.109123
165,18,77994,μ‹ μ²(μ μ‹¤μƒλ‚΄) νΈν…” λ” μΊμ¬,νΈν…”,hotel,135000,150000,,μ„μΈ,μ μ‹¤ / μ†΅ν / μ μ‹¤μƒλ‚΄ / μ²νΈ / κ°•λ™,300000016,200000155,37.511044,127.081806
166,19,69859,νλ΅μ¤ νΈν…”,3μ„±κΈ‰,hotel,140000,140000,"νƒ€ νΈν…” λ€λΉ„ 30%μ΄μƒ, λ„“μ€ κ°μ‹¤ ν¬κΈ°",μ„μΈ,μ μ‹¤ / μ†΅ν / μ μ‹¤μƒλ‚΄ / μ²νΈ / κ°•λ™,300000016,200000155,37.511038,127.081126
167,20,76857,μ‹ μ²(μ μ‹¤μƒλ‚΄) νΈν…” λ” μΊμ¬,λ¨ν…”,motel,70000,0,"EVENT_1 Netflix,YouTube",μ„μΈ,μ μ‹¤ / μ†΅ν / μ μ‹¤μƒλ‚΄ / μ²νΈ / κ°•λ™,300000016,200000155,37.511044,127.0818061
168,21,75463,μ μ‹¤ ν¬λ μ¤νƒ€ 2 νΈν…”,νΈν…”,hotel,80000,80000,β™¥ (New) μµλ€ 9μ‹κ°„! λ°λ‚μ  νΈμΊ‰μ¤ μ¦κΈ°μ!,μ„μΈ,μ μ‹¤ / μ†΅ν / μ μ‹¤μƒλ‚΄ / μ²νΈ / κ°•λ™,300000016,200000155,37.510915,127.081374
169,22,70261,νΈν…” μΈν”Όλ‹,2μ„±κΈ‰,hotel,88000,160000,μ „ κ°μ‹¤ λ„·ν”λ¦­μ¤ μ΄μ© κ°€λ¥(κ°μΈ κ³„μ • μ‚¬μ©),μ„μΈ,μ μ‹¤ / μ†΅ν / μ μ‹¤μƒλ‚΄ / μ²νΈ / κ°•λ™,300000016,200000155,37.502161,127.096069
170,23,83935,μ μ‹¤ μ¤ν…μ΄ νΈν…”(JS STAY),λ¨ν…”,motel,75000,0,μ μ‹¤ μΆ…ν•©μ΄λ™μ¥μ—μ„ λ„λ³΄ 15λ¶„κ±°λ¦¬,μ„μΈ,μ μ‹¤ / μ†΅ν / μ μ‹¤μƒλ‚΄ / μ²νΈ / κ°•λ™,300000016,200000155,37.50491287250319,127.08804776541238
171,24,72385,μ μ‹¤ λ”λΌμ΄νΈνΈν…”,2μ„±κΈ‰,hotel,0,0,,μ„μΈ,μ μ‹¤ / μ†΅ν / μ μ‹¤μƒλ‚΄ / μ²νΈ / κ°•λ™,300000016,200000155,37.515351,127.109297
172,25,69973,μ¬λ¦Όν”½ νν¬ν…”,νΈν…”,hotel,0,0,,μ„μΈ,μ μ‹¤ / μ†΅ν / μ μ‹¤μƒλ‚΄ / μ²νΈ / κ°•λ™,300000016,200000155,37.522265,127.116541
173,26,69947,λ°”κ³  νΈν…”,1μ„±κΈ‰,hotel,60000,60000,,μ„μΈ,μ μ‹¤ / μ†΅ν / μ μ‹¤μƒλ‚΄ / μ²νΈ / κ°•λ™,300000016,200000155,37.545774,127.125085
174,27,98426,μ—λ¨λ©ν†  κ΄‘μ•,νΈν…”,hotel,50000,300000,,μ„μΈ,μ μ‹¤ / μ†΅ν / μ μ‹¤μƒλ‚΄ / μ²νΈ / κ°•λ™,300000016,200000155,35.14994632545314,129.11530571611078
175,28,70066,ν•λ¨λ‹ νΈν…”,2μ„±κΈ‰,hotel,0,0,,μ„μΈ,μ μ‹¤ / μ†΅ν / μ μ‹¤μƒλ‚΄ / μ²νΈ / κ°•λ™,300000016,200000155,37.538074,127.138005
176,29,74146,μ μ‹¤ ν¬λ μ¤νƒ€ νΈν…”,νΈν…”,hotel,80000,100000,β™¥ λ°λ‚μ  νΈμΊ‰μ¤ μƒν’ μ¶μ‹ β™¥,μ„μΈ,μ μ‹¤ / μ†΅ν / μ μ‹¤μƒλ‚΄ / μ²νΈ / κ°•λ™,300000016,200000155,37.510933,127.081655
177,30,73139,μ μ‹¤ μ½”λ„νΈν…”,2μ„±κΈ‰,hotel,85000,90000,,μ„μΈ,μ μ‹¤ / μ†΅ν / μ μ‹¤μƒλ‚΄ / μ²νΈ / κ°•λ™,300000016,200000155,37.501646,127.109766
178,31,78978,μ μ‹¤(κ°€λ½) XYM,λ¨ν…”,motel,70000,0,μμ•½μ „ λ°λ“μ‹ μ΄μ©μ•λ‚΄ ν™•μΈ λ¶€νƒλ“λ¦½λ‹λ‹¤.,μ„μΈ,μ μ‹¤ / μ†΅ν / μ μ‹¤μƒλ‚΄ / μ²νΈ / κ°•λ™,300000016,200000155,37.4968497,127.12136829999997
179,32,66709,μ²νΈ HOTEL H,λ¨ν…”,motel,55000,0,β™΅λΉΌλΉΌλ΅λ°μ΄β™΅,μ„μΈ,μ μ‹¤ / μ†΅ν / μ μ‹¤μƒλ‚΄ / μ²νΈ / κ°•λ™,300000016,200000155,37.53971923963466,127.12599719077264
180,35,93684,μ μ‹¤ λ©”λ¦¬μ μΈ,λ¨ν…”,motel,110000,0,,μ„μΈ,μ μ‹¤ / μ†΅ν / μ μ‹¤μƒλ‚΄ / μ²νΈ / κ°•λ™,300000016,200000155,37.485647543215734,127.12355714496417
181,36,88083,μ„κ·€ν¬ λ΅μ¦λ§λ¦¬νμ…,νμ…,pension,71100,79000,,μ„μΈ,μ μ‹¤ / μ†΅ν / μ μ‹¤μƒλ‚΄ / μ²νΈ / κ°•λ™,300000016,200000155,33.2348484425731,126.367249017075
182,37,68853,μ μ‹¤ λΌμ,λ¨ν…”,motel,60000,0,λ―Έλ¦¬μ£Όμ°¨λ¶κ°€ λ¦¬λ¨λΈλ§ μ™„λ£! μ „ κ°μ‹¤ μ¤νƒ€μΌλ¬ λΉ„μΉ,μ„μΈ,μ μ‹¤ / μ†΅ν / μ μ‹¤μƒλ‚΄ / μ²νΈ / κ°•λ™,300000016,200000155,37.51540364,127.108236654
183,38,87138,κ°€ν‰(λ‚¨μ΄μ„¬) μ‹μ—λ¥΄ν’€λΉλΌνμ…(μ‹ μ¶•),νμ…,pension,118800,235000,,μ„μΈ,μ μ‹¤ / μ†΅ν / μ μ‹¤μƒλ‚΄ / μ²νΈ / κ°•λ™,300000016,200000155,37.8036039409115,127.522881858845
184,39,77697,μ μ‹¤ λ„λ²„25 λ°©μ΄μ ,λ¨ν…”,motel,55000,60000,"β—λ„·ν”λ¦­μ¤,λ””μ¦λ‹ν”λ¬μ¤β—",μ„μΈ,μ μ‹¤ / μ†΅ν / μ μ‹¤μƒλ‚΄ / μ²νΈ / κ°•λ™,300000016,200000155,37.51548,127.10923279999997
185,40,85202,μ μ£Ό λ§λ‹μ£Όνμ…,νμ…,pension,130000,130000,,μ„μΈ,μ μ‹¤ / μ†΅ν / μ μ‹¤μƒλ‚΄ / μ²νΈ / κ°•λ™,300000016,200000155,33.5089326837323,126.472235233242
186,41,83419,μ μ‹¤(λ°©μ΄) νΈν…” λ” μΊμ¬ 2νΈμ ,λ¨ν…”,motel,70000,0,λ°©μ΄λ™ μµκ³ μ νΈν…” λ” μΊμ¬ 2νΈμ  μ‹ μ¶•μ¤ν”! (μ°¨λ‰μ£Όμ°¨λ¶κ°€),μ„μΈ,μ μ‹¤ / μ†΅ν / μ μ‹¤μƒλ‚΄ / μ²νΈ / κ°•λ™,300000016,200000155,37.51535207895654,127.10913689525994
187,42,91151,μ§„μ£Ό λ“λ¦ΌνΈν…”,λ¨ν…”,motel,38000,0,,μ„μΈ,μ μ‹¤ / μ†΅ν / μ μ‹¤μƒλ‚΄ / μ²νΈ / κ°•λ™,300000016,200000155,35.19092758203094,128.08819179976624
188,43,88997,μ–‘μ–‘ JM λ¬΄μΈν…”,λ¨ν…”,motel,50000,0,,μ„μΈ,μ μ‹¤ / μ†΅ν / μ μ‹¤μƒλ‚΄ / μ²νΈ / κ°•λ™,300000016,200000155,38.12890819184381,128.58369196367173
189,44,68858,μ μ‹¤ μ½”λ„νΈν…”,λ¨ν…”,motel,110000,0,1μΈµ μΉ΄νμ—μ„ λ¨μ„ & λΉ„μ¦λ‹μ¤ λ―Έν…λ„ κ°€λ¥ν•©λ‹λ‹¤.,μ„μΈ,μ μ‹¤ / μ†΅ν / μ μ‹¤μƒλ‚΄ / μ²νΈ / κ°•λ™,300000016,200000155,37.501659415,127.109781709
190,45,66922,μ‹ μ² μƒμ£Ό νΈν…”,λ¨ν…”,motel,0,0,κΈ°κ°„ν•μ • λ¬΄λ£μ΅°μ‹ μ΄λ²¤νΈ μ§„ν–‰μ¤‘βΊ,μ„μΈ,μ μ‹¤ / μ†΅ν / μ μ‹¤μƒλ‚΄ / μ²νΈ / κ°•λ™,300000016,200000155,37.5100494,127.0805539
191,46,73791,κ°•λ™ μ›” λ¶€λ λ„νΈν…”,λ¨ν…”,motel,55000,0,νΉμ‹¤μ—…κΈ€! μ•λ§κΈ°λ” κΈ°λ³Έ.μ¤νƒ€μΌλ¬ μ™„λΉ„!,μ„μΈ,μ μ‹¤ / μ†΅ν / μ μ‹¤μƒλ‚΄ / μ²νΈ / κ°•λ™,300000016,200000155,37.5342238,127.1335275
192,47,68872,μ‹ μ² μ(WYNN),λ¨ν…”,motel,50000,0,ν¬μΈνΈ μ λ¦½,μ„μΈ,μ μ‹¤ / μ†΅ν / μ μ‹¤μƒλ‚΄ / μ²νΈ / κ°•λ™,300000016,200000155,37.511226559,127.084187856
193,48,69716,μ‹ μ² λΌλΉ„μ•™νΈν…”,λ¨ν…”,motel,60000,0,μ…μ‹¤ μ‹κ°„μ „ λ―Έλ¦¬μ£Όμ°¨ λ¶κ°€λ¥ν•©λ‹λ‹¤,μ„μΈ,μ μ‹¤ / μ†΅ν / μ μ‹¤μƒλ‚΄ / μ²νΈ / κ°•λ™,300000016,200000155,37.5110847,127.0822811
194,49,86280,λ¶€μ‚° κΈ°μ¥ λΈλΌμ΄λ„νΈ κΈ°μ¥μ—­μ ,λ¨ν…”,motel,50000,0,"π€ κΈ°μ¥ μ μΌ 1μΈµ νΈμμ , λ€ν•ν‚¤μ¦ν’€, μ»¤ν”PC, μ¤νƒ€μΌλ¬, λ³µμΈµνν‹°λ£Έ κµ¬λΉ„, 22λ…„ 5μ›” μ¤ν” π€",μ„μΈ,μ μ‹¤ / μ†΅ν / μ μ‹¤μƒλ‚΄ / μ²νΈ / κ°•λ™,300000016,200000155,35.25132376483517,129.20827788329112
195,50,75195,μ‹ μ²(μ μ‹¤μƒλ‚΄) FORESTAR 2νΈμ  (ν¬λ μ¤νƒ€2),λ¨ν…”,motel,70000,0,β…(NEW) λ°λ‚μ  νΈμΊ‰μ¤ μƒν’ μ¶μ‹ !,μ„μΈ,μ μ‹¤ / μ†΅ν / μ μ‹¤μƒλ‚΄ / μ²νΈ / κ°•λ™,300000016,200000155,37.5109743,127.08139860000006
196,51,77893,μ μ‹¤ μ–΄λ°,λ¨ν…”,motel,55000,0,μ „ κ°μ‹¤ Netflix+wavve μλ™λ΅κ·ΈμΈ/ μ „ κ°μ‹¤μ¤ν&μ•μ΅°μ™„λΉ„/μ—μ΄μ¤ λ“€μ¤ν…ν¬μΉ¨λ€/65μΈμΉ TV / μ•λ§μμ/μ¤νƒ€μΌλ¬,μ„μΈ,μ μ‹¤ / μ†΅ν / μ μ‹¤μƒλ‚΄ / μ²νΈ / κ°•λ™,300000016,200000155,37.5158868,127.10988180000004
197,52,73931,μ²νΈ HOTEL κ°,λ¨ν…”,motel,55000,0,λ„·ν”λ¦­μ¤ μ„¤μΉ μ™„λ£~ κ³ μ‚¬μ–‘ P.Cμ…κ³ ~!,μ„μΈ,μ μ‹¤ / μ†΅ν / μ μ‹¤μƒλ‚΄ / μ²νΈ / κ°•λ™,300000016,200000155,37.5383916,127.12869820000003
198,53,69103,μ μ‹¤ μ²΄λ¦¬,λ¨ν…”,motel,50000,0,μΏ ν°μ λ¦½ 5νμ΄μ© μ‹ 1νλ¬΄λ£,μ„μΈ,μ μ‹¤ / μ†΅ν / μ μ‹¤μƒλ‚΄ / μ²νΈ / κ°•λ™,300000016,200000155,37.5152465,127.10833449999996
199,54,87984,κΈΈλ™ λ„λ²„25 κΈΈλ™μ ,λ¨ν…”,motel,45000,0,π’•λ„·ν”λ¦­μ¤/ μ»¤ν”PC / ν—¤λ“μ…‹ /μ»¤ν”Ό λ¨Έμ‹ π’•,μ„μΈ,μ μ‹¤ / μ†΅ν / μ μ‹¤μƒλ‚΄ / μ²νΈ / κ°•λ™,300000016,200000155,37.53812769484327,127.13759203696364
200,55,72907,μ²νΈ λ°”κ³ νΈν…”,λ¨ν…”,motel,50000,0,β€» κ°μ‹¤ Soft μ•μ΅° λΉ„μΉ  / μΉμ ν• λ°λ ›νν‚Ή μ„λΉ„μ¤,μ„μΈ,μ μ‹¤ / μ†΅ν / μ μ‹¤μƒλ‚΄ / μ²νΈ / κ°•λ™,300000016,200000155,37.5457332,127.125071
201,56,88001,μ„μ‚° λ²μ²ν¬μ¤ν† μΊ ν•‘μ¥,νμ…,pension,0,0,,μ„μΈ,μ μ‹¤ / μ†΅ν / μ μ‹¤μƒλ‚΄ / μ²νΈ / κ°•λ™,300000016,200000155,36.970157078274,126.335676021391
202,57,67347,κΈΈλ™ MARI (λ§λ¦¬),λ¨ν…”,motel,45000,0,"μ§€κΈκΉμ§€ μ΄λ°κ³³μ€ μ—†μ—λ‹¤. Hotel μΈκ°€, PCλ°©μΈκ°€ μµμ‹ μ‚¬μ–‘ PCλ£Έ μ¤ν”!!",μ„μΈ,μ μ‹¤ / μ†΅ν / μ μ‹¤μƒλ‚΄ / μ²νΈ / κ°•λ™,300000016,200000155,37.5374563,127.138112
203,58,68860,μ μ‹¤ μ™€μ°,λ¨ν…”,motel,60000,0,2022.10.15 λ¦¬λ¨λΈλ§ GRAND OPEN. μ¤νƒ€μΌλ¬.μ•λ§μμ.μ „κ°μ‹¤μ•μ΅°.κ²μ΄λ°2PC.λ„·ν”λ¦¬μ¤ μ»΄ν“¨ν„°μ‚¬μ–‘ μ™μ†μ΄λ²¤νΈμ°Έκ³ ,μ„μΈ,μ μ‹¤ / μ†΅ν / μ μ‹¤μƒλ‚΄ / μ²νΈ / κ°•λ™,300000016,200000155,37.5147319,127.10780239999997
204,59,87040,κ°€ν‰ λ³„μ²λ…μ±„ν’€λΉλΌ(μ‹ μ¶•),νμ…,pension,300000,300000,,μ„μΈ,μ μ‹¤ / μ†΅ν / μ μ‹¤μƒλ‚΄ / μ²νΈ / κ°•λ™,300000016,200000155,37.7550424719231,127.399830377266
205,60,67919,μ²νΈ T,λ¨ν…”,motel,40000,0,,μ„μΈ,μ μ‹¤ / μ†΅ν / μ μ‹¤μƒλ‚΄ / μ²νΈ / κ°•λ™,300000016,200000155,37.5390066,127.12635049999994
206,61,72319,μ‹ μ² μ μ‹¤ NUνΈν…” μΆ…ν•©μ΄λ™μ¥μ ,λ¨ν…”,motel,70000,0,,μ„μΈ,μ μ‹¤ / μ†΅ν / μ μ‹¤μƒλ‚΄ / μ²νΈ / κ°•λ™,300000016,200000155,37.5109859,127.08089859999995
207,62,84171,μ„μΈ μ•„μ‚°μ™μ†νν•μ°μ¤νμ…,νμ…,pension,0,0,,μ„μΈ,μ μ‹¤ / μ†΅ν / μ μ‹¤μƒλ‚΄ / μ²νΈ / κ°•λ™,300000016,200000155,37.530802764182,127.113000103151
208,63,83241,μ μ‹¤ νΈν…” λΌλΉ„,λ¨ν…”,motel,65000,0,"μ „κ°μ‹¤ λ„·ν”λ¦­μ¤, μµκ³ κΈ‰ λ§¤νΈλ¦¬μ¤, λ€ν•ν‹°λΉ„, κ³ λ°κΈ°",μ„μΈ,μ μ‹¤ / μ†΅ν / μ μ‹¤μƒλ‚΄ / μ²νΈ / κ°•λ™,300000016,200000155,37.51524273455707,127.10935678789019
209,64,67986,μ²νΈ μ—°,λ¨ν…”,motel,40000,40000,μ „κ°μ‹¤ λ„·ν”λ¦­μ¤μ‹μ²­κ°€λ¥,μ„μΈ,μ μ‹¤ / μ†΅ν / μ μ‹¤μƒλ‚΄ / μ²νΈ / κ°•λ™,300000016,200000155,37.5386482,127.1264797
210,65,84407,μ‹ μ² λ°,λ¨ν…”,motel,35000,0,μ‹ μ²(μ μ‹¤μƒλ‚΄) λ¨Ήμκ³¨λ© μ„μΉ! μΆ…ν•©μ΄λ™μ¥ κ·Όμ ‘,μ„μΈ,μ μ‹¤ / μ†΅ν / μ μ‹¤μƒλ‚΄ / μ²νΈ / κ°•λ™,300000016,200000155,37.511229677177475,127.08404377086856
211,66,68811,κΈΈλ™ μ,λ¨ν…”,motel,50000,0,μ£Όμ¤‘ λ¬΄ν•λ€μ‹¤ μ΄λ²¤νΈ. λ‚΄μ© ν•„λ…!,μ„μΈ,μ μ‹¤ / μ†΅ν / μ μ‹¤μƒλ‚΄ / μ²νΈ / κ°•λ™,300000016,200000155,37.537652533,127.137867419
212,67,90174,μ μ‹¤ HOTEL 2.4,λ¨ν…”,motel,55000,0,β–¶λ°©μ΄λ™ μµκ³ μ μλ¶€μ‹¬! HOTEL 2.4 ν•μ‹λ·”ν,μ„μΈ,μ μ‹¤ / μ†΅ν / μ μ‹¤μƒλ‚΄ / μ²νΈ / κ°•λ™,300000016,200000155,37.515741948371804,127.11388037025019
213,68,78297,μ‹ μ² ν•λ£¨,λ¨ν…”,motel,37000,0,λ„·ν”λ¦­μ¤ λ¬΄λ£μ‹μ²­ κ°€λ¥(μ μ‹¤μƒλ‚΄μ—­ 4λ²μ¶κµ¬),μ„μΈ,μ μ‹¤ / μ†΅ν / μ μ‹¤μƒλ‚΄ / μ²νΈ / κ°•λ™,300000016,200000155,37.5112144,127.08390220000001
214,69,83054,μ μ‹¤(κ°€λ½) μΊλ¦¬ν¬λ‹μ•„ νΈν…”,λ¨ν…”,motel,70000,0,λ°λ ›νν‚Ή μ„λΉ„μ¤ λ¬΄λ£! κ°€λ½ μµκ³ κ°μ‹¤ ν¬κΈ°!,μ„μΈ,μ μ‹¤ / μ†΅ν / μ μ‹¤μƒλ‚΄ / μ²νΈ / κ°•λ™,300000016,200000155,37.49410484815525,127.11912685862232
215,70,68277,μ²νΈ YAJA μ²νΈμ—­μ ,λ¨ν…”,motel,50000,0,μ½”λ΅λ‚ λ°©μ—­ λ§¤μΌν•©λ‹λ‹¤.,μ„μΈ,μ μ‹¤ / μ†΅ν / μ μ‹¤μƒλ‚΄ / μ²νΈ / κ°•λ™,300000016,200000155,37.5387938,127.12682799999993
216,71,68867,μ μ‹¤ IMT,λ¨ν…”,motel,55000,0,"2022.05.06 λ¦¬λ‰΄μ–Όκ³µμ‚¬ ν›„ μ¬μ¤ν”, μ „ κ°μ‹¤ KTμ¤λ§νΈμ…‹νƒ‘",μ„μΈ,μ μ‹¤ / μ†΅ν / μ μ‹¤μƒλ‚΄ / μ²νΈ / κ°•λ™,300000016,200000155,37.5161541,127.1107869
217,72,68859,μ‹ μ²(μ μ‹¤μƒλ‚΄) FORESTAR 1νΈμ  (ν¬λ μ¤νƒ€1),λ¨ν…”,motel,70000,0,β™¥ λ°λ‚μ  νΈμΊ‰μ¤ μƒν’ μ¶μ‹ β™¥,μ„μΈ,μ μ‹¤ / μ†΅ν / μ μ‹¤μƒλ‚΄ / μ²νΈ / κ°•λ™,300000016,200000155,37.5109652,127.08165459999998
218,73,69259,μ²νΈ λ¬΄μ¤λ,λ¨ν…”,motel,45000,0,,μ„μΈ,μ μ‹¤ / μ†΅ν / μ μ‹¤μƒλ‚΄ / μ²νΈ / κ°•λ™,300000016,200000155,37.5396605,127.1242145
219,74,67226,μ μ‹¤ λ¨Έλ‹,λ¨ν…”,motel,58000,0,"μ‚Όμ„± λ€ν•TV, λ„·ν”λ¦­μ¤ μ‹μ²­κ°€λ¥,μ΄κ³ μ‚¬μ–‘pcλ£Έ,μ…μ‹¤ μ „ λ―Έλ¦¬μ£Όμ°¨ λ¶κ°€",μ„μΈ,μ μ‹¤ / μ†΅ν / μ μ‹¤μƒλ‚΄ / μ²νΈ / κ°•λ™,300000016,200000155,37.5158486,127.1109399
220,75,91961,μ²νΈ μΊ ν”„,λ¨ν…”,motel,35000,35000,,μ„μΈ,μ μ‹¤ / μ†΅ν / μ μ‹¤μƒλ‚΄ / μ²νΈ / κ°•λ™,300000016,200000155,37.53954986066185,127.12595869834429
221,76,68812,κΈΈλ™ λ¬λΈμ΄μ¦,λ¨ν…”,motel,45000,0,PCλ£Έ CPUλΌμ΄μ   5600X  ν‚¤λ³΄λ“μ‚΄κ· κΈ°,μ„μΈ,μ μ‹¤ / μ†΅ν / μ μ‹¤μƒλ‚΄ / μ²νΈ / κ°•λ™,300000016,200000155,37.537902658,127.13794355000005
222,77,74611,κΈΈλ™ μΌλ£¨μ™€,λ¨ν…”,motel,50000,0,β…μ»¤ν”PC μµκ³ μ‚¬μ–‘β…,μ„μΈ,μ μ‹¤ / μ†΅ν / μ μ‹¤μƒλ‚΄ / μ²νΈ / κ°•λ™,300000016,200000155,37.5367711,127.138987
223,78,76725,μ²νΈ λ°€λ μ¤,λ¨ν…”,motel,0,0,,μ„μΈ,μ μ‹¤ / μ†΅ν / μ μ‹¤μƒλ‚΄ / μ²νΈ / κ°•λ™,300000016,200000155,37.5400044,127.1254586
224,79,80930,κΈΈλ™ λ λ―Έ(Remi),λ¨ν…”,motel,42000,0,,μ„μΈ,μ μ‹¤ / μ†΅ν / μ μ‹¤μƒλ‚΄ / μ²νΈ / κ°•λ™,300000016,200000155,37.5357589,127.136489
225,80,68876,μ μ‹¤ μ¤,λ¨ν…”,motel,60000,0,κ°€κ²©ν• μΈ/λ§¤μΌ μ†λ… β­οΈ,μ„μΈ,μ μ‹¤ / μ†΅ν / μ μ‹¤μƒλ‚΄ / μ²νΈ / κ°•λ™,300000016,200000155,37.5054504,127.09697
226,81,91041,κ°•λ™(λ…μΌμ—­) μ— ν•μ„,λ¨ν…”,motel,43000,0,,μ„μΈ,μ μ‹¤ / μ†΅ν / μ μ‹¤μƒλ‚΄ / μ²νΈ / κ°•λ™,300000016,200000155,37.5504361,127.1447222
227,82,74613,μ²νΈ μ„ΈλΈ,λ¨ν…”,motel,40000,0,β¤οΈμ „κ°μ‹¤ λ„·ν”λ¦­μ¤ μ™“μ±  ν‹°λΉ™ λ””μ¦λ‹ μ‹μ²­κ°€λ¥β¤οΈ,μ„μΈ,μ μ‹¤ / μ†΅ν / μ μ‹¤μƒλ‚΄ / μ²νΈ / κ°•λ™,300000016,200000155,37.5398072,127.12476519999996
228,83,68804,κΈΈλ™ μ¤λ¦¬μ—”νΈ,λ¨ν…”,motel,45000,0,κΈΈλ™ μ¤λ¦¬μ—”νΈ λ¦¬λ¨λΈλ§ GRAND OPEN!!!,μ„μΈ,μ μ‹¤ / μ†΅ν / μ μ‹¤μƒλ‚΄ / μ²νΈ / κ°•λ™,300000016,200000155,37.5355631,127.1381772
229,84,67149,μ μ‹¤ μΏ ν‚¤,λ¨ν…”,motel,45000,45000,λ€μ‹¤ μΏ ν°μ λ¦½ 5νμ΄μ© μ‹ 1νλ¬΄λ£,μ„μΈ,μ μ‹¤ / μ†΅ν / μ μ‹¤μƒλ‚΄ / μ²νΈ / κ°•λ™,300000016,200000155,37.5152847,127.1088045
230,85,66778,μ‹ μ² μ‹μ¤ν‹°,λ¨ν…”,motel,50000,0,μµλ€ 9μ‹κ°„ λ¬΄ν•λ€μ‹¤ / λ„·ν”λ¦­μ¤ μ κ³µ,μ„μΈ,μ μ‹¤ / μ†΅ν / μ μ‹¤μƒλ‚΄ / μ²νΈ / κ°•λ™,300000016,200000155,37.5112937,127.0823329
231,86,66999,μ μ‹¤ μμνΈν…”,λ¨ν…”,motel,45000,0,π’“ μ£Όμ°¨μ¥40λ€λ³΄μ (λ°λ ›)π“μ—μ–΄μ»¨μ²­μ†μ™„λ£π’“,μ„μΈ,μ μ‹¤ / μ†΅ν / μ μ‹¤μƒλ‚΄ / μ²νΈ / κ°•λ™,300000016,200000155,37.5157989,127.1124172
232,87,98316,μ μ‹¤(λ°©μ΄) νΈν…” μ§¬,λ¨ν…”,motel,60000,0,,μ„μΈ,μ μ‹¤ / μ†΅ν / μ μ‹¤μƒλ‚΄ / μ²νΈ / κ°•λ™,300000016,200000155,37.51499637960876,127.10777809373181
233,88,66784,κΈΈλ™ μ•„λ¥΄κ³ ,λ¨ν…”,motel,45000,0,"β… λ¬΄ν•λ€μ‹¤,λ¬΄ν•μ™λ°•μ΄λ²¤νΈ μ§„ν–‰μ¤‘ β…",μ„μΈ,μ μ‹¤ / μ†΅ν / μ μ‹¤μƒλ‚΄ / μ²νΈ / κ°•λ™,300000016,200000155,37.536216,127.1368804
234,89,68873,μ‹ μ² λΌλ¬,λ¨ν…”,motel,42000,0,(κµ¬)ZAZAκ°€ HOTEL λΌλ¬μΌλ΅ νƒ„μƒ! μ¤ν”νΉκ°€ μ΄λ²¤νΈ!,μ„μΈ,μ μ‹¤ / μ†΅ν / μ μ‹¤μƒλ‚΄ / μ²νΈ / κ°•λ™,300000016,200000155,37.511261313,127.083718016
235,91,70603,μ μ‹¤ μ›”(ζ),λ¨ν…”,motel,55000,0,μ£Όμ¤‘ /μ£Όλ§ λ¬΄ν•λ€μ‹¤ μµλ€ 10μ‹κ°„ μ΄μ©κ°€λ¥,μ„μΈ,μ μ‹¤ / μ†΅ν / μ μ‹¤μƒλ‚΄ / μ²νΈ / κ°•λ™,300000016,200000155,37.515808,127.1099335
236,92,66951,μ μ‹¤ HL HOTEL,λ¨ν…”,motel,55000,0,β…κ³ λ°κΈ°λ€μ—¬+λ¦¬λ‰΄μ•΅+λ μ¦μΌ€μ΄μ¤ λ¬΄λ£μ κ³µβ…,μ„μΈ,μ μ‹¤ / μ†΅ν / μ μ‹¤μƒλ‚΄ / μ²νΈ / κ°•λ™,300000016,200000155,37.515589,127.1100268
237,93,84068,μ μ‹¤ IM HOTEL,λ¨ν…”,motel,50000,0,λ°©μ΄λ™ λ¨Ήμκ³¨λ©μ— κ°€μ¥ κ°€κΉκ² μ„μΉν• IM HOTEL,μ„μΈ,μ μ‹¤ / μ†΅ν / μ μ‹¤μƒλ‚΄ / μ²νΈ / κ°•λ™,300000016,200000155,37.51539293507408,127.1087772348938
238,94,72152,μ²νΈ ννΈ,λ¨ν…”,motel,40000,0,"μ£Όλ§(ν† ,μΌ) λ¬΄ν•λ€μ‹¤ μµλ€ 12μ‹κ°„μ΄μ©κ°€λ¥(45.000-60000)",μ„μΈ,μ μ‹¤ / μ†΅ν / μ μ‹¤μƒλ‚΄ / μ²νΈ / κ°•λ™,300000016,200000155,37.5395011,127.1256574
239,95,80724,μ μ‹¤ μ•„μ΄λ‹¤,λ¨ν…”,motel,50000,0,λ¬΄ν•λ€μ‹¤ μ΄λ²¤νΈ!,μ„μΈ,μ μ‹¤ / μ†΅ν / μ μ‹¤μƒλ‚΄ / μ²νΈ / κ°•λ™,300000016,200000155,37.516323727,127.110929486
240,96,66756,μ‹ μ² ννΈ,λ¨ν…”,motel,50000,0,,μ„μΈ,μ μ‹¤ / μ†΅ν / μ μ‹¤μƒλ‚΄ / μ²νΈ / κ°•λ™,300000016,200000155,37.5111879,127.0796769
241,97,66721,λ‘”μ΄ λ°λ¦¬ νΈν…”,λ¨ν…”,motel,77000,77000,"β…κ°•λ™κµ¬ μµκ³ μ μ„λΉ„μ¤, μΉμ , μ²­κ²°β…",μ„μΈ,μ μ‹¤ / μ†΅ν / μ μ‹¤μƒλ‚΄ / μ²νΈ / κ°•λ™,300000016,200000155,37.52906,127.1350299
242,98,80725,μ‹ μ² A+ νΈν…”,λ¨ν…”,motel,60000,0,λ„λ³΄ μ „μ© λ°© λ° λ„λ³΄ν• μΈκ°€λ¥,μ„μΈ,μ μ‹¤ / μ†΅ν / μ μ‹¤μƒλ‚΄ / μ²νΈ / κ°•λ™,300000016,200000155,37.511003726,127.08070977900002
243,99,68801,μ²νΈ M,λ¨ν…”,motel,40000,40000,"ν¬μΈνΈ(λ§μΌλ¦¬μ§€ μ λ¦½), 1νμ©ν’ λ¬΄λ£μ¦μ •",μ„μΈ,μ μ‹¤ / μ†΅ν / μ μ‹¤μƒλ‚΄ / μ²νΈ / κ°•λ™,300000016,200000155,37.539506439,127.12983254899996
244,100,69196,μ²νΈ ν λ¦¬μ¤,λ¨ν…”,motel,40000,0,μ „ κ°μ‹¤ 2019λ…„ μ‹ ν• μ—μ–΄μ»¨ κµμ²΄ μ™„λΉ„!!!!!!!!!!!!!!,μ„μΈ,μ μ‹¤ / μ†΅ν / μ μ‹¤μƒλ‚΄ / μ²νΈ / κ°•λ™,300000016,200000155,37.538738,127.12632150000002
245,101,66895,μ μ‹¤ νƒ€μ„,λ¨ν…”,motel,40000,0,μ£Όμ¤‘ μµλ€12μ‹κ°„ λ¬΄ν•λ€μ‹¤ + μ£Όλ§ λ€μ‹¤ κ°€μ„±λΉ„κ°‘ λ³΄μ¥,μ„μΈ,μ μ‹¤ / μ†΅ν / μ μ‹¤μƒλ‚΄ / μ²νΈ / κ°•λ™,300000016,200000155,37.5155564,127.1087446
246,102,80648,μ‹ μ² λ§μ―”&2060,λ¨ν…”,motel,40000,0,,μ„μΈ,μ μ‹¤ / μ†΅ν / μ μ‹¤μƒλ‚΄ / μ²νΈ / κ°•λ™,300000016,200000155,37.5110149,127.0846642
247,103,73628,μ²νΈ ORANGE(μ¤λ μ§€),λ¨ν…”,motel,0,0,,μ„μΈ,μ μ‹¤ / μ†΅ν / μ μ‹¤μƒλ‚΄ / μ²νΈ / κ°•λ™,300000016,200000155,37.54201878006337,127.12489462095617
248,104,89164,μ μ‹¤ μ—λ΄,λ¨ν…”,motel,0,0,β…μ—λ¦¬λ² μ΄ν„° κ³ μ¥,μ„μΈ,μ μ‹¤ / μ†΅ν / μ μ‹¤μƒλ‚΄ / μ²νΈ / κ°•λ™,300000016,200000155,37.51586755414922,127.11397802263197
249,105,68847,μ μ‹¤ ν•μ¤,λ¨ν…”,motel,45000,0,μ½”λ΅λ‚ μ•μ‹¬λ°©μ—­ μ™„λΉ„ !!!,μ„μΈ,μ μ‹¤ / μ†΅ν / μ μ‹¤μƒλ‚΄ / μ²νΈ / κ°•λ™,300000016,200000155,37.5156954,127.1099815
250,106,80688,κΈΈλ™ μ¤λΌνΈν…”,λ¨ν…”,motel,45000,0,μ‹ κ·μ¤ν” ~!!!  μ¤νμ…κ²μ„λ£Έ  PCμµκ³ μ‚¬μ–‘,μ„μΈ,μ μ‹¤ / μ†΅ν / μ μ‹¤μƒλ‚΄ / μ²νΈ / κ°•λ™,300000016,200000155,37.5365585,127.1389061
251,107,66822,μ‹ μ² MW,λ¨ν…”,motel,45000,0,,μ„μΈ,μ μ‹¤ / μ†΅ν / μ μ‹¤μƒλ‚΄ / μ²νΈ / κ°•λ™,300000016,200000155,37.511232,127.083397
252,108,68791,μ²νΈ νΈν…” 6μ›”,λ¨ν…”,motel,40000,0,β… λ„·ν”λ¦­μ¤ μ „κ°μ‹¤ μ‹μ²­ κ°€λ¥ν•©λ‹λ‹¤,μ„μΈ,μ μ‹¤ / μ†΅ν / μ μ‹¤μƒλ‚΄ / μ²νΈ / κ°•λ™,300000016,200000155,37.539600028,127.125209906
253,109,66901,μ‹ μ² ν”λ¬μ¤,λ¨ν…”,motel,45000,0,λ€μ‹¤/μ™λ°• κ³ κ° μ»¤ν”Όλ¬΄λ£ μ κ³µ!,μ„μΈ,μ μ‹¤ / μ†΅ν / μ μ‹¤μƒλ‚΄ / μ²νΈ / κ°•λ™,300000016,200000155,37.5111961,127.0843451
254,110,80287,κΈΈλ™ μ—μ¤λΌμΈ,λ¨ν…”,motel,40000,0,μΈκ·Ό νΈμμ  λ¨Ήμκ³¨λ©  λ„·ν”λ¦­μ¤ (κ°μΈκ³„μ •μ‚¬μ©),μ„μΈ,μ μ‹¤ / μ†΅ν / μ μ‹¤μƒλ‚΄ / μ²νΈ / κ°•λ™,300000016,200000155,37.5359154,127.138694
255,111,68260,μ μ‹¤ μ¬λ¦¬λΈ,λ¨ν…”,motel,55000,50000,μ μ‹¤ μµκ³ μ μ™μ†!,μ„μΈ,μ μ‹¤ / μ†΅ν / μ μ‹¤μƒλ‚΄ / μ²νΈ / κ°•λ™,300000016,200000155,37.5161005,127.1137548
256,112,75510,μ²νΈ λ­μ…”λ¦¬ νΈν…” λΌ λ·°,λ¨ν…”,motel,50000,0,μ‹ μ¶•νΈν…” SBSμƒμƒκ²½μ μ¶μ—° μ΄κ³ μ‚¬μ–‘μ»¤ν”λ°°κ·ΈPC,μ„μΈ,μ μ‹¤ / μ†΅ν / μ μ‹¤μƒλ‚΄ / μ²νΈ / κ°•λ™,300000016,200000155,37.53988078615517,127.12474047298169
257,113,67058,λ‘”μ΄ S,λ¨ν…”,motel,50000,0,* μ—°λ°• λ° μ¥κΈ° μ΄μ©μ‹ ν• μΈ μ΄λ²¤νΈ (μ „ν™”λ¬Έμ^^) μΉ΄μΉ΄μ¤ν†΅ ID hotelthes,μ„μΈ,μ μ‹¤ / μ†΅ν / μ μ‹¤μƒλ‚΄ / μ²νΈ / κ°•λ™,300000016,200000155,37.5284605,127.14345550000007
258,114,89327,μ μ‹¤ κ·Έλ¦¬μ¤,λ¨ν…”,motel,40000,0,,μ„μΈ,μ μ‹¤ / μ†΅ν / μ μ‹¤μƒλ‚΄ / μ²νΈ / κ°•λ™,300000016,200000155,37.51537822514587,127.11436507786584
259,115,68824,κΈΈλ™ κΈΈλ™λ¨ν…”,λ¨ν…”,motel,38000,0,μ—°λ°• μ¥κΈ° ν™μν•©λ‹λ‹¤,μ„μΈ,μ μ‹¤ / μ†΅ν / μ μ‹¤μƒλ‚΄ / μ²νΈ / κ°•λ™,300000016,200000155,37.536706238,127.137842654
260,116,68825,κ°•λ™(κ³ λ•μ—­) μ°μ§„,λ¨ν…”,motel,50000,0,,μ„μΈ,μ μ‹¤ / μ†΅ν / μ μ‹¤μƒλ‚΄ / μ²νΈ / κ°•λ™,300000016,200000155,37.552756564,127.155087336
261,117,84679,λ©ν¬ μ¶•λ³µμ¥,λ¨ν…”,motel,35000,30000,,μ„μΈ,μ μ‹¤ / μ†΅ν / μ μ‹¤μƒλ‚΄ / μ²νΈ / κ°•λ™,300000016,200000155,34.80235227793312,126.36935863703638
262,118,74771,νΈν…” λ” λΈ”λ£¨ μ²νΈ,νΈν…”,hotel,50000,65000,,μ„μΈ,μ μ‹¤ / μ†΅ν / μ μ‹¤μƒλ‚΄ / μ²νΈ / κ°•λ™,300000016,200000155,37.539477,127.124829
263,119,98944,λ¶€μ‚° ν•΄μ΄λ€ λ™λ°±νΈν…”,νΈν…”,hotel,40000,40000,,μ„μΈ,μ μ‹¤ / μ†΅ν / μ μ‹¤μƒλ‚΄ / μ²νΈ / κ°•λ™,300000016,200000155,35.162462561743624,129.1584090298309
264,120,88049,κ°•ν™”λ„ λ³΄λ‚μμ–Έλ•νμ…,νμ…,pension,0,0,,μ„μΈ,μ μ‹¤ / μ†΅ν / μ μ‹¤μƒλ‚΄ / μ²νΈ / κ°•λ™,300000016,200000155,37.7127249748746,126.365805105028
265,121,84669,μ°½λ…• λ™μ •νΈλ¬΄μΈν…”,λ¨ν…”,motel,40000,40000,,μ„μΈ,μ μ‹¤ / μ†΅ν / μ μ‹¤μƒλ‚΄ / μ²νΈ / κ°•λ™,300000016,200000155,35.505223638878356,128.55137056877183
266,122,91161,μ²νΈ ν…λ§,λ¨ν…”,motel,0,0,,μ„μΈ,μ μ‹¤ / μ†΅ν / μ μ‹¤μƒλ‚΄ / μ²νΈ / κ°•λ™,300000016,200000155,37.5419953802781,127.12434979063565
267,123,99065,"κ²½μ£Ό μ•„μ›…λ‹¤μ›…μ• κ²¬νμ…(λ…μ±„,λ‹¨μ²΄,200ν‰ μ”λ””λ§λ‹Ή)",νμ…,pension,280000,580000,,μ„μΈ,μ μ‹¤ / μ†΅ν / μ μ‹¤μƒλ‚΄ / μ²νΈ / κ°•λ™,300000016,200000155,35.76191306975,129.325299189475
268,124,98952,κ²½μ£Ό λ”ν΄λΌμ°λ“νμ…,νμ…,pension,69000,69000,,μ„μΈ,μ μ‹¤ / μ†΅ν / μ μ‹¤μƒλ‚΄ / μ²νΈ / κ°•λ™,300000016,200000155,35.664489357409,129.40591081711
269,125,98983,λ€λ¶€λ„(μν¥λ„) λ©”μ΄λ“μ νμ…,νμ…,pension,180000,240000,,μ„μΈ,μ μ‹¤ / μ†΅ν / μ μ‹¤μƒλ‚΄ / μ²νΈ / κ°•λ™,300000016,200000155,37.244928303198,126.531435443023
270,126,87988,μμ„±(κ°κ³΅) λ°λ¦¬ λ¬΄μΈν…”,λ¨ν…”,motel,50000,0,,μ„μΈ,μ μ‹¤ / μ†΅ν / μ μ‹¤μƒλ‚΄ / μ²νΈ / κ°•λ™,300000016,200000155,37.109232147995556,127.67618465219319
271,127,84611,κ±°μ λ„ μ„¬μ—μ„¬νμ…,νμ…,pension,160000,160000,,μ„μΈ,μ μ‹¤ / μ†΅ν / μ μ‹¤μƒλ‚΄ / μ²νΈ / κ°•λ™,300000016,200000155,34.9786404533129,128.632667697556
272,128,88025,νμ£Ό κ²μ΄νΈ,λ¨ν…”,motel,40000,0,,μ„μΈ,μ μ‹¤ / μ†΅ν / μ μ‹¤μƒλ‚΄ / μ²νΈ / κ°•λ™,300000016,200000155,37.75363917587681,126.9107610012382
273,129,88044,κ±°μ°½ λ³„λ§μ¤‘νμ…,νμ…,pension,70000,70000,,μ„μΈ,μ μ‹¤ / μ†΅ν / μ μ‹¤μƒλ‚΄ / μ²νΈ / κ°•λ™,300000016,200000155,35.7748374295917,127.805504571381
274,130,84768,μ—°μ² λ‘λ νμ…,νμ…,pension,120000,120000,,μ„μΈ,μ μ‹¤ / μ†΅ν / μ μ‹¤μƒλ‚΄ / μ²νΈ / κ°•λ™,300000016,200000155,38.0229116532098,127.137104262042
275,131,84922,μ‚°μ²­ μ™€μΌλ“ν”λΌμ›νμ…,νμ…,pension,100000,100000,,μ„μΈ,μ μ‹¤ / μ†΅ν / μ μ‹¤μƒλ‚΄ / μ²νΈ / κ°•λ™,300000016,200000155,35.3603300017131,127.905486943785
276,132,86575,μ μ² ν–‰λ³µμλ¦¬νμ…(λ…μ±„),νμ…,pension,350000,350000,,μ„μΈ,μ μ‹¤ / μ†΅ν / μ μ‹¤μƒλ‚΄ / μ²νΈ / κ°•λ™,300000016,200000155,36.8802382613853,128.079474113304
277,133,100332,λ³΄λ‚νΈλ λΈ” μΈ ν•΄μ΄λ€,νΈν…”,hotel,59900,110000,,μ„μΈ,μ μ‹¤ / μ†΅ν / μ μ‹¤μƒλ‚΄ / μ²νΈ / κ°•λ™,300000016,200000155,35.162288006208186,129.16078296385106
278,134,99616,μ„κ·€ν¬ λ°°λ΅±λ‚λ¬΄λ…μ±„μ¤ν…μ΄νμ…,νμ…,pension,0,0,,μ„μΈ,μ μ‹¤ / μ†΅ν / μ μ‹¤μƒλ‚΄ / μ²νΈ / κ°•λ™,300000016,200000155,33.2561093887078,126.52312776092
279,135,98977,μ„μ² λ³„λΉ›μ •μ›νμ…,νμ…,pension,100000,100000,,μ„μΈ,μ μ‹¤ / μ†΅ν / μ μ‹¤μƒλ‚΄ / μ²νΈ / κ°•λ™,300000016,200000155,36.0981806808673,126.611870621126
280,136,99041,μ²νΈ μ”¨ν‹°,λ¨ν…”,motel,33000,33000,,μ„μΈ,μ μ‹¤ / μ†΅ν / μ μ‹¤μƒλ‚΄ / μ²νΈ / κ°•λ™,300000016,200000155,37.54008104990921,127.1288002723842
281,137,84618,μΈμ  μ΄μ•μ• νμ…,νμ…,pension,180000,180000,,μ„μΈ,μ μ‹¤ / μ†΅ν / μ μ‹¤μƒλ‚΄ / μ²νΈ / κ°•λ™,300000016,200000155,37.9081331320836,128.293811532075
282,138,93598,μΈμ  κ°•λ¨λ½νμ…,νμ…,pension,150000,150000,,μ„μΈ,μ μ‹¤ / μ†΅ν / μ μ‹¤μƒλ‚΄ / μ²νΈ / κ°•λ™,300000016,200000155,38.0438796226613,128.205293951703
283,139,99055,κ°•λ¦‰ μ¤ν…μ΄λ°‹νμ…,νμ…,pension,0,0,,μ„μΈ,μ μ‹¤ / μ†΅ν / μ μ‹¤μƒλ‚΄ / μ²νΈ / κ°•λ™,300000016,200000155,37.8222469442075,128.863041136976
284,140,99229,μΈμ‚° νλ„μ†λ¦¬νμ…,νμ…,pension,80000,80000,,μ„μΈ,μ μ‹¤ / μ†΅ν / μ μ‹¤μƒλ‚΄ / μ²νΈ / κ°•λ™,300000016,200000155,35.3844130643514,129.345999552249
285,141,100193,μ™„λ„ κ°―λ°”λνμ…,νμ…,pension,60000,60000,,μ„μΈ,μ μ‹¤ / μ†΅ν / μ μ‹¤μƒλ‚΄ / μ²νΈ / κ°•λ™,300000016,200000155,34.3422697499184,126.644060039006
286,142,98943,BY THS λ°λ νƒ€μΈνΈν…” μ‹ν¥ μ›”κ³¶,νΈν…”,hotel,0,0,,μ„μΈ,μ μ‹¤ / μ†΅ν / μ μ‹¤μƒλ‚΄ / μ²νΈ / κ°•λ™,300000016,200000155,37.39093957548846,126.7411915938614
287,143,85402,μ μ£Ό ν† λΌμ„¬νλ§ν•μ°μ¤νμ…,νμ…,pension,180000,180000,,μ„μΈ,μ μ‹¤ / μ†΅ν / μ μ‹¤μƒλ‚΄ / μ²νΈ / κ°•λ™,300000016,200000155,33.5230288600502,126.895235472514
288,144,87113,μ†μ΄ λΌμμ¤νν’€λΉλΌκ°€μ΅±νμ…,νμ…,pension,89000,109000,,μ„μΈ,μ μ‹¤ / μ†΅ν / μ μ‹¤μƒλ‚΄ / μ²νΈ / κ°•λ™,300000016,200000155,38.1966940602169,128.56151036175
289,145,88167,μ¶©μ£Ό ν†µλ‚λ¬΄νμ…,νμ…,pension,0,0,,μ„μΈ,μ μ‹¤ / μ†΅ν / μ μ‹¤μƒλ‚΄ / μ²νΈ / κ°•λ™,300000016,200000155,37.0448016355334,127.762723889392
290,146,98998,λ‹¨μ–‘ μ†λ°±μ‚°λΉλ¦¬μ§€νμ…,νμ…,pension,55000,55000,,μ„μΈ,μ μ‹¤ / μ†΅ν / μ μ‹¤μƒλ‚΄ / μ²νΈ / κ°•λ™,300000016,200000155,37.072969700954,128.488597339537
291,147,95647,κ°€ν‰ κΉμ€μ‚°κ³„κ³΅μ‚°μ¥νμ…,νμ…,pension,0,0,,μ„μΈ,μ μ‹¤ / μ†΅ν / μ μ‹¤μƒλ‚΄ / μ²νΈ / κ°•λ™,300000016,200000155,37.9715209280998,127.524824765954
292,0,75174,λ…Έλ³΄ν…” μ¤μ„νΈ μ•°λ°°μ„λ” μ„μΈ μ©μ‚°,5μ„±κΈ‰,hotel,355650,355650,,μ„μΈ,μ„μΈμ—­ / μ΄νƒμ› / μ©μ‚°,300000016,200000156,37.53195253420182,126.9630190194904
293,1,75198,μ΄λΉ„μ¤ μ¤νƒ€μΌ μ•°λ°°μ„λ” μ„μΈ μ©μ‚°,4μ„±κΈ‰,hotel,178200,178200,,μ„μΈ,μ„μΈμ—­ / μ΄νƒμ› / μ©μ‚°,300000016,200000156,37.531596,126.964212
294,3,75175,λ…Έλ³΄ν…” μ•°λ°°μ„λ” μ„μΈ μ©μ‚°,5μ„±κΈ‰,hotel,335850,335850,,μ„μΈ,μ„μΈμ—­ / μ΄νƒμ› / μ©μ‚°,300000016,200000156,37.531596,126.964212
295,4,81177,λ¬λ“λ¦¬μ• μ„μΈ μ΄νƒμ›(Mondrian Seoul Itaewon),5μ„±κΈ‰,hotel,429000,429000,,μ„μΈ,μ„μΈμ—­ / μ΄νƒμ› / μ©μ‚°,300000016,200000156,37.528565,126.993116
296,5,70139,ν¬ν¬μΈμΈ  λ°”μ΄ μ‰λΌν†¤ μ΅°μ„  μ„μΈμ—­,4μ„±κΈ‰,hotel,0,0,,μ„μΈ,μ„μΈμ—­ / μ΄νƒμ› / μ©μ‚°,300000016,200000156,37.550996,126.972761
297,6,81456,κ·Έλλ“ ν•μ–νΈ μ„μΈ,5μ„±κΈ‰,hotel,629200,629200,,μ„μΈ,μ„μΈμ—­ / μ΄νƒμ› / μ©μ‚°,300000016,200000156,37.539601,126.997452
298,7,75177,κ·Έλλ“ λ¨Ένμ–΄ μ•°λ°°μ„λ” νΈν…” μ•¤ λ μ§€λμ¤ μ„μΈ μ©μ‚°,5μ„±κΈ‰,hotel,415050,415050,,μ„μΈ,μ„μΈμ—­ / μ΄νƒμ› / μ©μ‚°,300000016,200000156,37.53195253420182,126.9630190194904
299,8,69888,ν•΄λ°€ν†¤ νΈν…”,3μ„±κΈ‰,hotel,160000,285000,,μ„μΈ,μ„μΈμ—­ / μ΄νƒμ› / μ©μ‚°,300000016,200000156,37.53473,126.994128
300,9,72751,νΈν…” λ” λ””μμ΄λ„μ¤ μ„μΈμ—­,2μ„±κΈ‰,hotel,349000,349000,,μ„μΈ,μ„μΈμ—­ / μ΄νƒμ› / μ©μ‚°,300000016,200000156,37.545525,126.971543
301,10,93031,λ‚μΈνΈλ¦¬ ν”„λ¦¬λ―Έμ–΄ λ΅μΉ΄μ°μ¤ νΈν…” μ„μΈ μ©μ‚°,νΈν…”,hotel,429000,429000,,μ„μΈ,μ„μΈμ—­ / μ΄νƒμ› / μ©μ‚°,300000016,200000156,37.52764060666328,126.96434942604265
302,11,70093,μ„ν”Όλ¦¬μ–Ό ν°λ¦¬μ¤ λ¶€ν‹°ν¬ νΈν…”,3μ„±κΈ‰,hotel,144000,144000,,μ„μΈ,μ„μΈμ—­ / μ΄νƒμ› / μ©μ‚°,300000016,200000156,37.535298,126.998389
303,12,69892,μ©μ‚° HOTEL E-CUBE,νΈν…”,hotel,0,0,,μ„μΈ,μ„μΈμ—­ / μ΄νƒμ› / μ©μ‚°,300000016,200000156,37.540309,126.972175
304,13,87293,μ™λ€μ…κµ¬μ—­ λ΅λ§μ¤,λ¨ν…”,motel,60000,0,,μ„μΈ,μ„μΈμ—­ / μ΄νƒμ› / μ©μ‚°,300000016,200000156,37.54411989798636,126.97322850210779
305,14,93588,μ™λ€ λ¶€ν‚Ήμ©μ‚°λ‹·μ»΄,λ¨ν…”,motel,0,0,,μ„μΈ,μ„μΈμ—­ / μ΄νƒμ› / μ©μ‚°,300000016,200000156,37.54401752692469,126.9732646485966
306,15,68289,μ©μ‚° hotel e-cube,λ¨ν…”,motel,90000,0,,μ„μΈ,μ„μΈμ—­ / μ΄νƒμ› / μ©μ‚°,300000016,200000156,37.5404207,126.9722006
307,16,100053,μ΄νƒμ› λ„λ² λ¥΄μ„μΈ νΈν…”,λ¨ν…”,motel,140000,75000,,μ„μΈ,μ„μΈμ—­ / μ΄νƒμ› / μ©μ‚°,300000016,200000156,37.53426408288743,126.99633392515841
308,17,73684,μ©μ‚° λ μΈλ³΄μ° νΈν…”,λ¨ν…”,motel,80000,0,"μ μ„ μμ•½,  λ°©λ¬Έκ²°μ μ‹  μ£Όμ°¨ κ°€λ¥ν•©λ‹λ‹¤",μ„μΈ,μ„μΈμ—­ / μ΄νƒμ› / μ©μ‚°,300000016,200000156,37.5414425,126.97211270000003
309,18,78731,μ©μ‚°μ—­ WO,λ¨ν…”,motel,59000,0,μ „κ°μ‹¤ 50μΈμΉ UHD TV/ν”„λ¦¬λ―Έμ—„ λΉ„ν’ λ¬΄λ£μ κ³µ/μ•λ½ν• λΌν…μ¤ λ§¤νΈλ¦¬μ¤&μ¤λ¦¬ν„Έ μ΄λ¶/μ „κ°μ‹¤ μµμ‹  LGμΈλ²„ν„° μ—μ–΄μ»¨,μ„μΈ,μ„μΈμ—­ / μ΄νƒμ› / μ©μ‚°,300000016,200000156,37.5241543,126.96231999999998
310,19,69340,μ©μ‚°(λ³΄κ΄‘) μ‚Όμ„±λ¨ν…”,λ¨ν…”,motel,0,0,,μ„μΈ,μ„μΈμ—­ / μ΄νƒμ› / μ©μ‚°,300000016,200000156,37.5267116,127.0023606
311,20,72105,μ΄νƒμ› μ—μ΄μ›,λ¨ν…”,motel,70000,0,"ν‰μΌ ( μ›”,ν™”,μ ) μ¤ν›„ μ™λ°• μ΄μ©μ•λ‚΄",μ„μΈ,μ„μΈμ—­ / μ΄νƒμ› / μ©μ‚°,300000016,200000156,37.534042,126.9916413
312,21,73300,μ©μ‚° κ°€μ•ΌλΌνΈλ¦¬,λ¨ν…”,motel,0,0,κ³µμ§€μ‚¬ν•­,μ„μΈ,μ„μΈμ—­ / μ΄νƒμ› / μ©μ‚°,300000016,200000156,37.5408426,126.97235120000005
313,22,78823,μ©μ‚° μ¤μΉ΄μ΄ νΈν…”,λ¨ν…”,motel,60000,0,,μ„μΈ,μ„μΈμ—­ / μ΄νƒμ› / μ©μ‚°,300000016,200000156,37.5239819,126.96218320000003
314,23,67113,μ©μ‚° λ‰΄μ›”λ“ νΈν…”,λ¨ν…”,motel,70000,0,,μ„μΈ,μ„μΈμ—­ / μ΄νƒμ› / μ©μ‚°,300000016,200000156,37.5442685,126.9734849
315,24,79432,μ„μΈμ—­ νΈν…” μ¤ν…μ΄μΈ,λ¨ν…”,motel,0,0,,μ„μΈ,μ„μΈμ—­ / μ΄νƒμ› / μ©μ‚°,300000016,200000156,37.5519218,126.9740921
316,25,100198,λ„λ² λ¥΄ μ„μΈ νΈν…” μ΄νƒμ›,νΈν…”,hotel,141000,500000,,μ„μΈ,μ„μΈμ—­ / μ΄νƒμ› / μ©μ‚°,300000016,200000156,37.53426408288743,126.99633392515841
317,26,82572,μ™λ€ COZY(μ½”μ§€),λ¨ν…”,motel,60000,0,,μ„μΈ,μ„μΈμ—­ / μ΄νƒμ› / μ©μ‚°,300000016,200000156,37.54459666083491,126.97336958659545
318,27,72650,μ©μ‚° μ¨λ¦¬ν¬μ ,λ¨ν…”,motel,40000,40000,,μ„μΈ,μ„μΈμ—­ / μ΄νƒμ› / μ©μ‚°,300000016,200000156,37.5472508,126.9812379
319,28,68016,ν•λ‚¨ 67,λ¨ν…”,motel,75000,0,,μ„μΈ,μ„μΈμ—­ / μ΄νƒμ› / μ©μ‚°,300000016,200000156,37.5334676,127.0056634
320,29,67323,μ„μΈμ—­ WO,λ¨ν…”,motel,59800,0,,μ„μΈ,μ„μΈμ—­ / μ΄νƒμ› / μ©μ‚°,300000016,200000156,37.5486735,126.9695135
321,30,81228,μ΄νƒμ› μ„±μ§€,λ¨ν…”,motel,50000,0,,μ„μΈ,μ„μΈμ—­ / μ΄νƒμ› / μ©μ‚°,300000016,200000156,37.5398649,126.991664
322,31,74712,μ©μ‚° λ…ΈλΈ”νΈν…”,λ¨ν…”,motel,0,0,,μ„μΈ,μ„μΈμ—­ / μ΄νƒμ› / μ©μ‚°,300000016,200000156,37.53063920915405,126.96697045330352
323,32,70158,νΈν…” μ¤ν…μ΄ μΈ,νΈν…”,hotel,59000,59000,,μ„μΈ,μ„μΈμ—­ / μ΄νƒμ› / μ©μ‚°,300000016,200000156,37.551922,126.974092
324,33,69401,μ©μ‚° ν‰μ•λ¨ν…”,λ¨ν…”,motel,0,0,,μ„μΈ,μ„μΈμ—­ / μ΄νƒμ› / μ©μ‚°,300000016,200000156,37.5355384,126.95993180000005
325,34,69218,μ©μ‚° μƒΎ νΈν…”,λ¨ν…”,motel,55000,0,,μ„μΈ,μ„μΈμ—­ / μ΄νƒμ› / μ©μ‚°,300000016,200000156,37.5348782,126.96311049999997
326,35,74114,μ©μ‚° ν™”μ „,λ¨ν…”,motel,55000,0,,μ„μΈ,μ„μΈμ—­ / μ΄νƒμ› / μ©μ‚°,300000016,200000156,37.5362338,126.96280239999999
327,36,74835,μ„μΈμ—­ κΈκ°•λ¨ν…”,λ¨ν…”,motel,0,0,,μ„μΈ,μ„μΈμ—­ / μ΄νƒμ› / μ©μ‚°,300000016,200000156,37.553614,126.9670049
328,37,69515,μ„μΈμ—­ κ³„λ¦Ό,λ¨ν…”,motel,0,0,,μ„μΈ,μ„μΈμ—­ / μ΄νƒμ› / μ©μ‚°,300000016,200000156,37.5541835,126.9669139
329,38,85443,μ©μ‚° ν•κΈ€κ²μ¤νΈν•μ°μ¤,λ¨ν…”,motel,0,0,,μ„μΈ,μ„μΈμ—­ / μ΄νƒμ› / μ©μ‚°,300000016,200000156,37.54442002894447,126.97022172143244
330,39,84555,μ„κ·€ν¬ ν†µλ‚λ¬΄ν΄μ–‘νμ…,νμ…,pension,70000,70000,,μ„μΈ,μ„μΈμ—­ / μ΄νƒμ› / μ©μ‚°,300000016,200000156,33.3510752097092,126.82375212359
331,0,84970,λ™λ€λ¬Έμ—­μ‚¬λ¬Έν™”κ³µμ›μ—­ LOO(λ£¨νΈν…”),λ¨ν…”,motel,0,0,β­GRAND OPEN λ””μ¦λ‹+/λ„·ν”λ¦­μ¤ λ¬΄λ£β­,μ„μΈ,λ…λ™ / μ¤‘κµ¬,300000016,200000157,37.56536229170423,127.00702392502662
332,1,79148,λ™λ€λ¬Έμ—­μ‚¬λ¬Έν™”κ³µμ›μ—­ λ¶€ν‹°ν¬νΈν…” λ¥΄λ¦Ώ,λ¨ν…”,motel,80000,0,β¨#λ§¤μΌ μ†λ…#λ„·ν”λ¦­μ¤#μ…€ν”„μ²΄ν¬μΈβ¨,μ„μΈ,λ…λ™ / μ¤‘κµ¬,300000016,200000157,37.563459071069076,127.0085291245369
333,2,70052,ν”„λ μ΄μ € ν”λ μ΄μ¤ μ„ΌνΈλ΄,4μ„±κΈ‰,hotel,209000,209000,,μ„μΈ,λ…λ™ / μ¤‘κµ¬,300000016,200000157,37.562782,126.969783
334,3,75413,λ…Έλ³΄ν…” μ•°λ°°μ„λ” λ™λ€λ¬Έ νΈν…” & λ μ§€λμ¤,5μ„±κΈ‰,hotel,281600,550000,,μ„μΈ,λ…λ™ / μ¤‘κµ¬,300000016,200000157,37.566159,127.004259
335,4,84589,μ„μΈμ‹ λΌνΈν…”,5μ„±κΈ‰,hotel,0,0,,μ„μΈ,λ…λ™ / μ¤‘κµ¬,300000016,200000157,37.555881,127.005153
336,5,77576,λ μ¤μΌ€μ΄ν”„ νΈν…”,4μ„±κΈ‰,hotel,249000,249000,,μ„μΈ,λ…λ™ / μ¤‘κµ¬,300000016,200000157,37.559835,126.979495
337,6,77750,νΈν…” κ·Έλ μ΄μ¤λ¦¬ μ„μΈ,3μ„±κΈ‰,hotel,0,0,,μ„μΈ,λ…λ™ / μ¤‘κµ¬,300000016,200000157,37.561683,126.976841
338,7,85080,μ•°λ°°μ„λ” μ„μΈ ν’€λ§ νΈν…”,νΈν…”,hotel,300000,605000,,μ„μΈ,λ…λ™ / μ¤‘κµ¬,300000016,200000157,37.56011824595627,127.00259491652382
339,8,70328,λ΅―λ°μ‹ν‹°νΈν…” λ…λ™,νΈν…”,hotel,248160,248160,,μ„μΈ,λ…λ™ / μ¤‘κµ¬,300000016,200000157,37.567059,126.987902
340,9,72510,λ΅―λ° νΈν…” μ„μΈ,5μ„±κΈ‰,hotel,0,0,,μ„μΈ,λ…λ™ / μ¤‘κµ¬,300000016,200000157,37.56499,126.981369
341,10,70368,νΈν…” μ¤μΉ΄μ΄νν¬ ν‚Ήμ¤νƒ€μ΄ λ™λ€λ¬Έμ ,4μ„±κΈ‰,hotel,148000,148000,,μ„μΈ,λ…λ™ / μ¤‘κµ¬,300000016,200000157,37.568699,127.007667
342,11,79752,λ΅―λ°νΈν…” μ„μΈ μ΄κ·Έμ νν‹°λΈ νƒ€μ›,5μ„±κΈ‰,hotel,907500,907500,,μ„μΈ,λ…λ™ / μ¤‘κµ¬,300000016,200000157,37.565427,126.981621
343,12,81248,μ„μΈ μ›¨μ¤ν‹΄μ΅°μ„ νΈν…”,5μ„±κΈ‰,hotel,0,0,,μ„μΈ,λ…λ™ / μ¤‘κµ¬,300000016,200000157,37.564469,126.980046
344,13,70326,L7 λ…λ™,νΈν…”,hotel,250750,250750,,μ„μΈ,λ…λ™ / μ¤‘κµ¬,300000016,200000157,37.561367,126.986952
345,14,93532,λ¥΄λ©”λ¥΄λ””μ•™ μ„μΈ λ…λ™,5μ„±κΈ‰,hotel,495000,495000,,μ„μΈ,λ…λ™ / μ¤‘κµ¬,300000016,200000157,37.56199234257273,126.98262998658363
346,15,78512,λ°μ–€νΈλ¦¬ ν΄λ½ μ•¤ μ¤ν μ„μΈ,5μ„±κΈ‰,hotel,880000,880000,,μ„μΈ,λ…λ™ / μ¤‘κµ¬,300000016,200000157,37.550011,127.00048
347,16,69946,ν”„λ μ§€λνΈ νΈν…”,4μ„±κΈ‰,hotel,239250,400000,,μ„μΈ,λ…λ™ / μ¤‘κµ¬,300000016,200000157,37.565583,126.979378
348,17,70012,νΈν…” μ¤μΉ΄μ΄νν¬ λ™λ€λ¬Έ 1νΈμ ,νΈν…”,hotel,145000,145000,,μ„μΈ,λ…λ™ / μ¤‘κµ¬,300000016,200000157,37.564152,127.002078
349,19,69894,νΈν…” ν”Όμ μ΄ λ…λ™,4μ„±κΈ‰,hotel,231000,300000,,μ„μΈ,λ…λ™ / μ¤‘κµ¬,300000016,200000157,37.564785,126.995688
350,20,79865,μ†ν…μΈ  ν”„λ μ‚¬μΈ μ„μΈ λ…λ™,νΈν…”,hotel,210000,210000,,μ„μΈ,λ…λ™ / μ¤‘κµ¬,300000016,200000157,37.563687,126.985024
351,21,78199,λΌλ§λ‹¤ νΈν…”μ•¤μ¤μ„νΈ μ„μΈ λ‚¨λ€λ¬Έ,νΈν…”,hotel,176000,176000,,μ„μΈ,λ…λ™ / μ¤‘κµ¬,300000016,200000157,37.560174,126.972079
352,22,92890,λ” μ¤ν…μ΄ ν΄λμ‹ νΈν…” λ…λ™,νΈν…”,hotel,187200,187200,,μ„μΈ,λ…λ™ / μ¤‘κµ¬,300000016,200000157,37.56148033195026,126.97852478911842
353,23,69837,μ½”λ¦¬μ•„λ‚ νΈν…”,4μ„±κΈ‰,hotel,210000,210000,,μ„μΈ,λ…λ™ / μ¤‘κµ¬,300000016,200000157,37.568187,126.976513
354,24,69909,μ¨λ―ΈνΈ νΈν…” λ™λ€λ¬Έ,3μ„±κΈ‰,hotel,0,0,24μ‹κ°„ STAY!,μ„μΈ,λ…λ™ / μ¤‘κµ¬,300000016,200000157,37.562231,127.006782
355,25,75782,μ†ν…μΈ  νΈν…”μ¦ λ” μ¤ν”„λΌμ§€λ¥΄ μ„μΈ λ™λ€λ¬Έ,νΈν…”,hotel,344850,344850,,μ„μΈ,λ…λ™ / μ¤‘κµ¬,300000016,200000157,37.56471800251398,127.00776190175759
356,26,93534,μ½”νΈμ•Όλ“ λ©”λ¦¬μ–΄νΈ μ„μΈ λ‚¨λ€λ¬Έ,4μ„±κΈ‰,hotel,280500,280500,,μ„μΈ,λ…λ™ / μ¤‘κµ¬,300000016,200000157,37.56119968145956,126.97688233078438
357,27,83825,ν—¨λ‚νΈν…” μ„μΈλ…λ™,νΈν…”,hotel,228000,228000,,μ„μΈ,λ…λ™ / μ¤‘κµ¬,300000016,200000157,37.562035,126.98829
358,28,74492,ENA μ¤μ„νΈ νΈν…” λ‚¨λ€λ¬Έ,νΈν…”,hotel,366000,366000,,μ„μΈ,λ…λ™ / μ¤‘κµ¬,300000016,200000157,37.562261,126.973873
359,29,70321,μ†ν…μΈ  νΈν…”μ¦ λ” μ¤ν”„λΌμ§€λ¥΄ μ„μΈ λ…λ™,νΈν…”,hotel,195000,195000,,μ„μΈ,λ…λ™ / μ¤‘κµ¬,300000016,200000157,37.561953,126.97871
360,30,92448,ν”„λ μ΄μ € ν”λ μ΄μ¤ λ‚¨λ€λ¬Έ μ„μΈ,νΈν…”,hotel,220000,220000,,μ„μΈ,λ…λ™ / μ¤‘κµ¬,300000016,200000157,37.56131168375108,126.97647163615919
361,31,70454,λ΅μ–„ νΈν…” μ„μΈ,4μ„±κΈ‰,hotel,400400,400400,,μ„μΈ,λ…λ™ / μ¤‘κµ¬,300000016,200000157,37.564288,126.985722
362,32,70056,λ…λ™ νΌμ‹ν”½ νΈν…”,νΈν…”,hotel,0,0,,μ„μΈ,λ…λ™ / μ¤‘κµ¬,300000016,200000157,37.559911,126.985889
363,33,93528,μ•λ΅ν”„νΈ μ„μΈ λ…λ™,4μ„±κΈ‰,hotel,275000,275000,,μ„μΈ,λ…λ™ / μ¤‘κµ¬,300000016,200000157,37.56228515215774,126.98192333396543
364,34,88849,μ μ—μ΄μΉμ¤μ„νΈ μ„μΈμ¤ν€μ–΄,νΈν…”,hotel,299000,299000,,μ„μΈ,λ…λ™ / μ¤‘κµ¬,300000016,200000157,37.56306492776548,126.9772064523766
365,35,70197,μ„ΈμΆ… νΈν…”,3μ„±κΈ‰,hotel,172410,172410,,μ„μΈ,λ…λ™ / μ¤‘κµ¬,300000016,200000157,37.561523,126.987793
366,36,70419,νΈν…” μ¤μΉ΄μ΄νν¬ μ„ΌνΈλ΄ λ…λ™μ ,νΈν…”,hotel,234000,234000,,μ„μΈ,λ…λ™ / μ¤‘κµ¬,300000016,200000157,37.564612,126.985228
367,37,70131,μ΄λΉ„μ¤ μ¤νƒ€μΌ μ•°λ°°μ„λ” μ„μΈ λ…λ™,3μ„±κΈ‰,hotel,0,0,,μ„μΈ,λ…λ™ / μ¤‘κµ¬,300000016,200000157,37.561643,126.989376
368,38,84228,μ μ—μ΄μΉμ¤μ„νΈ λ” λ…λ™,νΈν…”,hotel,0,0,,μ„μΈ,λ…λ™ / μ¤‘κµ¬,300000016,200000157,37.561977,126.987812
369,39,83116,λ°€λ¦¬μ¤λ  νΈν…” μ„μΈ λ…λ™,νΈν…”,hotel,130000,600000,λ¬΄λ£ μκ°€ μ£Όμ°¨ κ°€λ¥,μ„μΈ,λ…λ™ / μ¤‘κµ¬,300000016,200000157,37.561062,126.984544
370,40,70137,λ…λ™ λ”μ¤ν…μ΄ νΈν…”,νΈν…”,hotel,0,0,,μ„μΈ,λ…λ™ / μ¤‘κµ¬,300000016,200000157,37.561864,126.986786
371,41,81322,μ΄μ½”λ…Έλ―ΈνΈν…” λ…λ™ ν”„λ¦¬λ―Έμ–΄μ ,νΈν…”,hotel,0,0,,μ„μΈ,λ…λ™ / μ¤‘κµ¬,300000016,200000157,37.56131,126.984431
372,42,81240,νΈν…” λ―Έλ“μ‹ν‹° λ…λ™,3μ„±κΈ‰,hotel,0,0,,μ„μΈ,λ…λ™ / μ¤‘κµ¬,300000016,200000157,37.567666,126.981105
373,43,70472,μ†”λΌλ¦¬μ•„ λ‹μ‹ν…μΈ  λ…λ™,3μ„±κΈ‰,hotel,360000,360000,,μ„μΈ,λ…λ™ / μ¤‘κµ¬,300000016,200000157,37.562464,126.985132
374,44,69860,ν”„λ¦°μ¤ νΈν…” λ…λ™,νΈν…”,hotel,315000,315000,,μ„μΈ,λ…λ™ / μ¤‘κµ¬,300000016,200000157,37.560651,126.98625
375,45,85870,μλΉνΈν…”,νΈν…”,hotel,80000,110000,,μ„μΈ,λ…λ™ / μ¤‘κµ¬,300000016,200000157,37.56306,127.005549
376,46,83318,λ…λ™ λ°€λ¦¬μ¤λ  νΈν…”,λ¨ν…”,motel,100000,0,μκ°€ λ¬΄λ£μ£Όμ°¨ κ°€λ¥,μ„μΈ,λ…λ™ / μ¤‘κµ¬,300000016,200000157,37.561049180070164,126.98452391631629
377,47,85237,μ¤νƒ ν¬λ“νΈν…” λ…λ™,νΈν…”,hotel,176000,176000,,μ„μΈ,λ…λ™ / μ¤‘κµ¬,300000016,200000157,37.564678,126.982883
378,48,88018,λ§Ήκ·Έλ΅λΈ λ™λ€λ¬Έ,νΈν…”,hotel,50000,50000,,μ„μΈ,λ…λ™ / μ¤‘κµ¬,300000016,200000157,37.564187,127.008694
379,49,93533,λ©μ‹ μ„μΈ λ…λ™,3μ„±κΈ‰,hotel,264000,264000,,μ„μΈ,λ…λ™ / μ¤‘κµ¬,300000016,200000157,37.56199234257273,126.98262998658363
380,50,98590,λ” ν”λΌμ νΈν…”,5μ„±κΈ‰,hotel,0,0,,μ„μΈ,λ…λ™ / μ¤‘κµ¬,300000016,200000157,37.564664165319435,126.97809000719094
381,51,75100,μ¤ν…μ΄λ½ νΈν…” μ¶©λ¬΄λ΅,νΈν…”,hotel,0,0,,μ„μΈ,λ…λ™ / μ¤‘κµ¬,300000016,200000157,37.561903,126.994955
382,52,80399,ν¬λΌμ΄νν¬νΈν…” μ„μΈ,νΈν…”,hotel,0,0,,μ„μΈ,λ…λ™ / μ¤‘κµ¬,300000016,200000157,37.563773,126.980779
383,53,84975,μ μ—μ΄μΉ μ¤μ„νΈ λ” μ„μΈ,νΈν…”,hotel,0,0,,μ„μΈ,λ…λ™ / μ¤‘κµ¬,300000016,200000157,37.556308,126.96816
384,54,70342,μ„μ§€λ΅ μ½”μ—… λ μ§€λμ¤,νΈν…”,hotel,0,0,,μ„μΈ,λ…λ™ / μ¤‘κµ¬,300000016,200000157,37.566123,127.00537
385,55,69861,λ‚μΈνΈλ¦¬ νΈν…” λ…λ™,3μ„±κΈ‰,hotel,0,0,,μ„μΈ,λ…λ™ / μ¤‘κµ¬,300000016,200000157,37.561579,126.986055
386,56,69882,μ΄λΉ„μ¤ μ•°λ°°μ„λ” λ…λ™,νΈν…”,hotel,233750,350000,,μ„μΈ,λ…λ™ / μ¤‘κµ¬,300000016,200000157,37.564165,126.98295
387,57,84455,νΈν…” 28 λ…λ™,νΈν…”,hotel,0,0,,μ„μΈ,λ…λ™ / μ¤‘κµ¬,300000016,200000157,37.564356,126.983983
388,58,78736,λΌμΈ νΈν…” λ…λ™,νΈν…”,hotel,0,0,,μ„μΈ,λ…λ™ / μ¤‘κµ¬,300000016,200000157,37.56531,126.983717
389,59,69844,νΈν…” λ§λ„,νΈν…”,hotel,242000,242000,,μ„μΈ,λ…λ™ / μ¤‘κµ¬,300000016,200000157,37.557096,126.974842
390,60,74290,νΈν…” ν† λ§μ¤ λ…λ™,3μ„±κΈ‰,hotel,184500,184500,,μ„μΈ,λ…λ™ / μ¤‘κµ¬,300000016,200000157,37.563108,126.978344
391,61,93474,λ°μ΄μ¦νΈν…” λ°”μ΄ μλ¤ μ„μΈ λ…λ™,3μ„±κΈ‰,hotel,0,0,,μ„μΈ,λ…λ™ / μ¤‘κµ¬,300000016,200000157,37.560959337238586,126.98362560596826
392,62,69996,λ² μ΄νΌ νΈν…”,νΈν…”,hotel,280000,280000,,μ„μΈ,λ…λ™ / μ¤‘κµ¬,300000016,200000157,37.565107,127.002767
393,63,70420,νΈν…” μ¤μΉ΄μ΄νν¬ λ…λ™ 3νΈμ ,νΈν…”,hotel,175000,175000,,μ„μΈ,λ…λ™ / μ¤‘κµ¬,300000016,200000157,37.561355,126.987235
394,64,73987,νΈν…” λ” λ””μμ΄λ„μ¤ DDP,νΈν…”,hotel,0,0,,μ„μΈ,λ…λ™ / μ¤‘κµ¬,300000016,200000157,37.563778,127.004261
395,65,70169,λ…λ™ ν¬λ ν†  νΈν…”,2μ„±κΈ‰,hotel,225000,225000,,μ„μΈ,λ…λ™ / μ¤‘κµ¬,300000016,200000157,37.561934,126.988055
396,66,99086,μ μ—μ΄μΉμ¤μ„νΈ μ„ΌνΈλ΄μ„μΈ,νΈν…”,hotel,0,0,,μ„μΈ,λ…λ™ / μ¤‘κµ¬,300000016,200000157,37.56744336054147,126.97839518938095
397,67,77753,νΈλ λΈ”λ΅μ§€ λ…λ™ μ„μ§€λ΅ νΈν…”,3μ„±κΈ‰,hotel,0,0,,μ„μΈ,λ…λ™ / μ¤‘κµ¬,300000016,200000157,37.56658,126.989312
398,68,70416,νΈν…” μ¤μΉ΄μ΄νν¬ λ…λ™ 2νΈμ ,2μ„±κΈ‰,hotel,164000,164000,,μ„μΈ,λ…λ™ / μ¤‘κµ¬,300000016,200000157,37.564894,126.985033
399,69,70417,νΈν…” μ¤μΉ΄μ΄νν¬ λ…λ™ 1νΈμ ,νΈν…”,hotel,143000,143000,,μ„μΈ,λ…λ™ / μ¤‘κµ¬,300000016,200000157,37.561222,126.984104
400,70,70151,λ‰΄μ„μΈ νΈν…”,3μ„±κΈ‰,hotel,0,0,,μ„μΈ,λ…λ™ / μ¤‘κµ¬,300000016,200000157,37.567943,126.978148
401,71,78554,νΈλ λΈ”λ΅μ§€ λ…λ™ μ‹ν‹°ν™€ νΈν…”,3μ„±κΈ‰,hotel,242000,242000,,μ„μΈ,λ…λ™ / μ¤‘κµ¬,300000016,200000157,37.563176,126.978099
402,72,69989,ν„λ€ λ μ§€λμ¤,νΈν…”,hotel,99800,220000,,μ„μΈ,λ…λ™ / μ¤‘κµ¬,300000016,200000157,37.563782,127.000748
403,73,70195,νΈν…” λ” λ””μμ΄λ„μ¤ λ™λ€λ¬Έ,νΈν…”,hotel,183910,183910,,μ„μΈ,λ…λ™ / μ¤‘κµ¬,300000016,200000157,37.563664,127.005626
404,74,70129,μ„μΈ λ ‰μ¤ νΈν…”,νΈν…”,hotel,0,0,,μ„μΈ,λ…λ™ / μ¤‘κµ¬,300000016,200000157,37.558618,126.980902
405,75,70105,λ‚¨μ‚° ν νΈν…”,νΈν…”,hotel,0,0,,μ„μΈ,λ…λ™ / μ¤‘κµ¬,300000016,200000157,37.556555,126.982413
406,76,70100,μΌ€μ΄ν νΈν…” μ„μΈμ—­,νΈν…”,hotel,0,0,,μ„μΈ,λ…λ™ / μ¤‘κµ¬,300000016,200000157,37.554778,126.974251
407,77,70099,μΌ€μ΄ν λ μ§€λμ¤ λ…λ™ 1νΈμ ,νΈν…”,hotel,0,0,,μ„μΈ,λ…λ™ / μ¤‘κµ¬,300000016,200000157,37.56351,126.985612
408,78,92171,λ¥΄μ„μΈ νΈν…”,νΈν…”,hotel,260000,400000,,μ„μΈ,λ…λ™ / μ¤‘κµ¬,300000016,200000157,37.56344351372475,126.97774607796792
409,79,76833,μ¥μ¶© μ–‘λ―Έλ¨ν…”,λ¨ν…”,motel,0,0,,μ„μΈ,λ…λ™ / μ¤‘κµ¬,300000016,200000157,37.561176445693505,127.0056772310704
410,80,86787,μ¤‘κµ¬ λ¬Έ(MOON),λ¨ν…”,motel,60000,0,"β¨μ‹μ²­μ—­ 7, 8λ² μ¶κµ¬μ—μ„ λ„λ³΄ 5λ¶„ κ±°λ¦¬β¨",μ„μΈ,λ…λ™ / μ¤‘κµ¬,300000016,200000157,37.562345828803906,126.97835851031734
411,81,87913,λ…λ™ μ¤νƒ€νμ¤,λ¨ν…”,motel,100000,0,,μ„μΈ,λ…λ™ / μ¤‘κµ¬,300000016,200000157,37.561471585148844,126.97769657347074
412,82,80926,λ™λ€λ¬Έ(μλ¦Όλ™) λ” λ””μμ΄λ„μ¤ DDPμ ,λ¨ν…”,motel,140000,0,μ „ κ°μ‹¤ Netflix (κ°μΈ κ³„μ • μ‚¬μ©),μ„μΈ,λ…λ™ / μ¤‘κµ¬,300000016,200000157,37.5637358,127.004112
413,83,70198,νΈν…” 8 Hours,νΈν…”,hotel,0,0,,μ„μΈ,λ…λ™ / μ¤‘κµ¬,300000016,200000157,37.562038,126.977983
414,84,84982,λ…λ™ λ”λ΅λ“νμ…,νμ…,pension,0,0,,μ„μΈ,λ…λ™ / μ¤‘κµ¬,300000016,200000157,37.5589042974311,126.983994397414
415,85,69992,νΈν…” μ½”μ§€ λ…λ™,νΈν…”,hotel,0,0,,μ„μΈ,λ…λ™ / μ¤‘κµ¬,300000016,200000157,37.560745,126.979453
416,86,84392,κ°•λ¦‰ λ°λ¦¬κΉλ―Ένμ…B(κΉλ―Έλ™),νμ…,pension,99000,109000,,μ„μΈ,λ…λ™ / μ¤‘κµ¬,300000016,200000157,37.798238729549,128.896791869803
417,87,82282,μ„μ§€λ΅μ…κµ¬μ—­ μ”κΈ°λ” λ¬΄μΈν…”,λ¨ν…”,motel,65000,0,μ „κ°μ‹¤ λ„·ν”λ¦­μ¤ OPEN,μ„μΈ,λ…λ™ / μ¤‘κµ¬,300000016,200000157,37.56681298852588,126.98203127141427
418,88,92863,λ™λ€λ¬Έμ—­μ‚¬λ¬Έν™”κ³µμ›μ—­ νΈν…” ν΄λ΅μ΄,λ¨ν…”,motel,80000,0,2023.03.22 GRAND OPEN λ„·ν”λ¦­μ¤λ¬΄λ£μ‹μ²­,μ„μΈ,λ…λ™ / μ¤‘κµ¬,300000016,200000157,37.565715598038594,127.00586547555264
419,89,83431,λ™λ€λ¬Έ λ„λ²„25 λ™λ€λ¬Έμ ,λ¨ν…”,motel,70000,0,β­μ„μΈ μ¤‘μ‹¬ μµκ³ μ‚¬μ–‘ PCβ­κ³ κΈ‰μΉ¨λ€λ΅ νΈμ•ν•κ²,μ„μΈ,λ…λ™ / μ¤‘κµ¬,300000016,200000157,37.565264242372784,127.00687691614873
420,90,79518,λ…λ™ λ€μνΈν…”,λ¨ν…”,motel,0,0,,μ„μΈ,λ…λ™ / μ¤‘κµ¬,300000016,200000157,37.5583278,126.9802894
421,91,80341,μ„μΈ μ•„νΈλλΈ”ν™κ²μ¤νΈν•μ°μ¤,νμ…,pension,0,0,,μ„μΈ,λ…λ™ / μ¤‘κµ¬,300000016,200000157,37.5615670147305,126.98400288242
422,92,79091,λ™λ€λ¬Έμ—­μ‚¬λ¬Έν™”κ³µμ›μ—­ DDK HOTEL,λ¨ν…”,motel,100000,0,λ§¤μΌ μμ²΄ μ†λ…/2μ£Ό 1ν λ°©μ—­μ—…μ²΄ μ†λ…,μ„μΈ,λ…λ™ / μ¤‘κµ¬,300000016,200000157,37.5669107,127.006453
423,94,81731,μ‹ λ‹Ή(μ²­κµ¬μ—­) μ•Όμ½”λ¦¬μ•„ νΈμ¤ν…”,λ¨ν…”,motel,0,0,,μ„μΈ,λ…λ™ / μ¤‘κµ¬,300000016,200000157,37.5597488,127.0130665
424,95,68251,λ™λ€λ¬Έ λ” λ””μμ΄λ„μ¤ λ™λ€λ¬Έμ (κΈμƒ‰κ±΄λ¬Ό),λ¨ν…”,motel,177780,170000,λ¨λ“  μμ•½λ€ν–‰μ‚¬ κ°μ‹¤ μ΄λ―Έμ§€λ” κ° νƒ€μ…μ„ λ€ν‘ν•λ” μ΄λ―Έμ§€μ…λ‹λ‹¤.,μ„μΈ,λ…λ™ / μ¤‘κµ¬,300000016,200000157,37.5636552,127.0056538
425,96,69418,μ‹ λ‹Ή A (μ—μ΄),λ¨ν…”,motel,60000,56000,,μ„μΈ,λ…λ™ / μ¤‘κµ¬,300000016,200000157,37.5639932,127.01521990000003
426,97,74560,μ‹ λ‹Ή λ μΈλ³΄μ° νΈν…”,λ¨ν…”,motel,60000,0,μ „ κ°μ‹¤  Neflix  You Tube,μ„μΈ,λ…λ™ / μ¤‘κµ¬,300000016,200000157,37.5659523,127.0159211
427,99,88268,μ„μΈ λ‚¨μ‚°μ¤ν† λ¦¬λ‚μΈνΈμ¤ν…”,νμ…,pension,138000,138000,,μ„μΈ,λ…λ™ / μ¤‘κµ¬,300000016,200000157,37.5557470801317,126.98075852806
428,100,82237,μ„μΈμ—­ RANG(λ‘),λ¨ν…”,motel,59000,0,,μ„μΈ,λ…λ™ / μ¤‘κµ¬,300000016,200000157,37.55811032251476,126.9690949725654
429,101,91040,μ„μΈμ—­ μ•μ „μ¥,λ¨ν…”,motel,80000,0,,μ„μΈ,λ…λ™ / μ¤‘κµ¬,300000016,200000157,37.55846186506946,126.97462511385157
430,102,68882,μ•½μ ν€Έλ¨ν…”,λ¨ν…”,motel,45000,45000,,μ„μΈ,λ…λ™ / μ¤‘κµ¬,300000016,200000157,37.5562921,127.0087852
431,103,80152,μ¤‘κµ¬ νΈν…” λ€μ°μΈ,λ¨ν…”,motel,80000,0,,μ„μΈ,λ…λ™ / μ¤‘κµ¬,300000016,200000157,37.5627093,126.9778685
432,104,68862,λ…λ™(κ΄‘ν™”λ¬Έ) λ‰΄μ„μΈ νΈν…”,λ¨ν…”,motel,0,0,μ„μΈ κ΄€κ΄‘μ μµμ ν™” λ μ„μΉ!,μ„μΈ,λ…λ™ / μ¤‘κµ¬,300000016,200000157,37.567992497,126.97817033299998
433,105,86417,λ…λ™ μΌ€μ΄ν,λ¨ν…”,motel,0,0,,μ„μΈ,λ…λ™ / μ¤‘κµ¬,300000016,200000157,37.563549377031556,126.98562574768827
434,106,80890,λ…λ™ κ²½λ™ νΈν…”,λ¨ν…”,motel,0,0,,μ„μΈ,λ…λ™ / μ¤‘κµ¬,300000016,200000157,37.5573444,126.9817286
435,107,73934,μ¶©μ •λ΅ wo,λ¨ν…”,motel,48800,0,β…κΈ°μ¤€ μΈμ›μ€ 1κ°μ‹¤ 2μΈ κΈ°μ¤€μ…λ‹λ‹¤.,μ„μΈ,λ…λ™ / μ¤‘κµ¬,300000016,200000157,37.5574147,126.9677875
436,108,70521,λ…λ™(μ‹μ²­μ—­) ν”Όλ„›,λ¨ν…”,motel,0,0,,μ„μΈ,λ…λ™ / μ¤‘κµ¬,300000016,200000157,37.5621983,126.9778281
437,109,86495,μ„μΈμ—­ μΌ€μ΄ν,λ¨ν…”,motel,0,0,,μ„μΈ,λ…λ™ / μ¤‘κµ¬,300000016,200000157,37.55479398254621,126.97417748811361
438,110,79085,μ„μΈ λ”μΊ΅μλ…λ™κ²μ¤νΈν•μ°μ¤,νμ…,pension,23380,23380,,μ„μΈ,λ…λ™ / μ¤‘κµ¬,300000016,200000157,37.563566323813596,126.99893152756125
439,111,83892,λ™λ€λ¬Έμ—­μ‚¬λ¬Έν™”κ³µμ›μ—­ νΈν…” μ¤ν…μ΄μΈ,λ¨ν…”,motel,60000,0,βοΈ 2023λ…„ 10μ›”25μΌ GRAND OPEN βοΈ,μ„μΈ,λ…λ™ / μ¤‘κµ¬,300000016,200000157,37.56707359181053,127.00635771534134
440,112,81483,μ¥μ¶© JC INN(μΈ),λ¨ν…”,motel,0,0,,μ„μΈ,λ…λ™ / μ¤‘κµ¬,300000016,200000157,37.5610005,127.0052423
441,113,86580,λ…λ™ λ£¨ν”„νƒ‘νΈμ¤ν…”,λ¨ν…”,motel,0,0,β¨λ…λ™μ—­μ—μ„ λ„λ³΄ 5λ¶„ κ±°λ¦¬ / μ΅°μ‹ λ¬΄λ£ μ κ³µβ¨,μ„μΈ,λ…λ™ / μ¤‘κµ¬,300000016,200000157,37.55825937618346,126.98657375065197
442,114,76062,μ‹ λ‹Ή M,λ¨ν…”,motel,60000,60000,,μ„μΈ,λ…λ™ / μ¤‘κµ¬,300000016,200000157,37.56395502955224,127.01461583389963
443,115,69294,μ•½μ ν”„λ¦°μ¤λ¨ν…”,λ¨ν…”,motel,49000,49000,,μ„μΈ,λ…λ™ / μ¤‘κµ¬,300000016,200000157,37.5556875,127.0108136
444,116,76181,λ™λ€λ¬Έμ—­μ‚¬λ¬Έν™”κ³µμ›μ—­ μ—λΉ„λ‰΄,λ¨ν…”,motel,0,0,λ€μ‹¤ μ΄μ© μ‹ μ„ μ°©μ κ°μ‹¤ μ—…κ·Έλ μ΄λ“ μ κ³µ,μ„μΈ,λ…λ™ / μ¤‘κµ¬,300000016,200000157,37.5651239,127.00623569999993
445,117,79478,λ™λ€λ¬Έ μΌ€μ΄μ¤νƒ€ λ©”νΈλ΅ νΈν…”,λ¨ν…”,motel,0,0,,μ„μΈ,λ…λ™ / μ¤‘κµ¬,300000016,200000157,37.5664081,127.006591
446,118,76731,λ…λ™ λ©”μ΄μ› νΈν…”,λ¨ν…”,motel,0,0,,μ„μΈ,λ…λ™ / μ¤‘κµ¬,300000016,200000157,37.56263151613637,126.98596543491377
447,119,85096,λ…λ™ λ” μ¤ν…μ΄ νΈν…”,λ¨ν…”,motel,0,0,,μ„μΈ,λ…λ™ / μ¤‘κµ¬,300000016,200000157,37.561904153032394,126.98678321730968
448,120,86551,νν„ λ“λ¦Όν•μ°μ¤,λ¨ν…”,motel,28000,0,,μ„μΈ,λ…λ™ / μ¤‘κµ¬,300000016,200000157,37.55722332467703,126.97849550672642
449,121,89390,λ…λ™(μ‹μ²­μ—­) SEOUL CENTRAL HOTEL,λ¨ν…”,motel,0,0,μ „ κ°μ‹¤ λ„·ν”λ¦­μ¤(NETFLIX) λ¬΄λ£μ‹μ²­ κ°€λ¥,μ„μΈ,λ…λ™ / μ¤‘κµ¬,300000016,200000157,37.56180547857281,126.97821989701997
450,122,69223,μ„μΈμ—­ νΈν…” λ μ¤,λ¨ν…”,motel,89500,0,λ¬΄λ£ λ„·ν”λ¦­μ¤ λ¬΄μ ν• μ„λΉ„μ¤!,μ„μΈ,λ…λ™ / μ¤‘κµ¬,300000016,200000157,37.5586734,126.97441950000007
451,123,68452,λ™λ€λ¬Έμ—­μ‚¬λ¬Έν™”κ³µμ›μ—­ νΈλ¦¬μ‰μ΄λ“ νΈν…”,λ¨ν…”,motel,75000,0,65μΈμΉμ¤λ§νΈTV/μ λΉ™κΈ°μ„¤μΉ/μ§€μ—­μµκ³ 2PCλ£Έ/νΈμλ£Έ/λ„·ν”λ¦­μ¤λ¬΄λ£/μ£Όλ§μ—°λ°•λΉ„λ°μƒ,μ„μΈ,λ…λ™ / μ¤‘κµ¬,300000016,200000157,37.5652443,127.00600099999997
452,124,85700,μ„μΈ λ…λ™λ£¨ν”„νƒ‘νΈμ¤ν…”,νμ…,pension,0,0,,μ„μΈ,λ…λ™ / μ¤‘κµ¬,300000016,200000157,37.5582586943492,126.986576343145
453,125,74260,μ¶©λ¬΄λ΅ CF,λ¨ν…”,motel,66000,0,,μ„μΈ,λ…λ™ / μ¤‘κµ¬,300000016,200000157,37.5621916,126.9937228
454,126,68307,λ…λ™ μ•ν”„μ¤,λ¨ν…”,motel,49000,49000,,μ„μΈ,λ…λ™ / μ¤‘κµ¬,300000016,200000157,37.5635393,126.9772401
455,127,81679,μ‹ λ‹Ή ν”λ¬μ¤,λ¨ν…”,motel,80000,0,μ „κ°μ‹¤ NETFLIX μ‹μ²­κ°€λ¥ν•©λ‹λ‹¤.,μ„μΈ,λ…λ™ / μ¤‘κµ¬,300000016,200000157,37.5660913,127.0158783
456,128,67688,μ¥μ¶© CF,λ¨ν…”,motel,66000,0,,μ„μΈ,λ…λ™ / μ¤‘κµ¬,300000016,200000157,37.5616117,127.00573050000003
457,129,97501,λ¨ν—¤λ‹‰ νΈν…” μ„μΈ λ…λ™,νΈν…”,hotel,167200,167200,,μ„μΈ,λ…λ™ / μ¤‘κµ¬,300000016,200000157,37.561049180070164,126.98452391631629
458,130,70011,μ‹ν‹°νΈν…” μ„μΈ,νΈν…”,hotel,0,0,,μ„μΈ,λ…λ™ / μ¤‘κµ¬,300000016,200000157,37.558207,126.980888
459,131,70174,νΈν…” λ£¨λ―Έμ•„ λ…λ™,νΈν…”,hotel,0,0,,μ„μΈ,λ…λ™ / μ¤‘κµ¬,300000016,200000157,37.558024,126.979802
460,132,78644,μ•½μ(μ‹ λ‹Ή) μ„Έν™”,λ¨ν…”,motel,35000,35000,,μ„μΈ,λ…λ™ / μ¤‘κµ¬,300000016,200000157,37.55028887349453,127.00783498895498
461,133,80689,νν„ νν•μ°μ¤,λ¨ν…”,motel,140000,0,,μ„μΈ,λ…λ™ / μ¤‘κµ¬,300000016,200000157,37.5568367,126.9819639
462,134,92226,μ‹ λ‹Ή μ λ‹μ¨,λ¨ν…”,motel,50000,50000,,μ„μΈ,λ…λ™ / μ¤‘κµ¬,300000016,200000157,37.56520609684306,127.01729307178405
463,135,86367,λ…λ™ μ¤μ”1,λ¨ν…”,motel,0,0,,μ„μΈ,λ…λ™ / μ¤‘κµ¬,300000016,200000157,37.56291626313842,126.98516826896667
464,136,80130,λ…λ™ μ¤ν…μ΄μ„ΈλΈ(Stay7),λ¨ν…”,motel,0,0,,μ„μΈ,λ…λ™ / μ¤‘κµ¬,300000016,200000157,37.56243593113524,126.98581630127144
465,137,87199,λ…λ™ μ¤μ”2,λ¨ν…”,motel,0,0,,μ„μΈ,λ…λ™ / μ¤‘κµ¬,300000016,200000157,37.56174202482884,126.98796384419471
466,138,82203,νν„ μ„μΈμ”¨ν‹°νΈν…”,λ¨ν…”,motel,0,0,,μ„μΈ,λ…λ™ / μ¤‘κµ¬,300000016,200000157,37.5582579,126.9808934
467,139,90840,λ…λ™ μ¤μ”5(OYO5),λ¨ν…”,motel,40000,0,,μ„μΈ,λ…λ™ / μ¤‘κµ¬,300000016,200000157,37.558937217398366,126.98483492645802
468,140,70082,μΌ€μ΄ν νΈν…” μ„μΈνƒ€μ›,νΈν…”,hotel,0,0,,μ„μΈ,λ…λ™ / μ¤‘κµ¬,300000016,200000157,37.556751,126.977348
469,141,70179,νΈν…” λ―Έλ„ λ…λ™,νΈν…”,hotel,0,0,,μ„μΈ,λ…λ™ / μ¤‘κµ¬,300000016,200000157,37.558492,126.98061
470,142,87086,λ…λ™ λ™λ„,λ¨ν…”,motel,0,0,,μ„μΈ,λ…λ™ / μ¤‘κµ¬,300000016,200000157,37.55957778624241,126.98496886963083
471,143,79918,μ¤‘κµ¬ 24κ²μ¤νΈν•μ°μ¤ μ„μΈμ‹μ²­μ ,λ¨ν…”,motel,0,0,,μ„μΈ,λ…λ™ / μ¤‘κµ¬,300000016,200000157,37.5646819,126.9763406
472,144,92820,λ…λ™ μ¤μ”5λ΅―μ§€A,λ¨ν…”,motel,0,0,,μ„μΈ,λ…λ™ / μ¤‘κµ¬,300000016,200000157,37.55910504528606,126.9849831818887
473,145,88405,μ„μΈ μ¤μ”νΈμ¤ν…”λ…λ™2,νμ…,pension,0,0,,μ„μΈ,λ…λ™ / μ¤‘κµ¬,300000016,200000157,37.5617489452835,126.987959717335
474,146,85527,μ„μΈ μ¤μ”νΈμ¤ν…”λ…λ™3,νμ…,pension,0,0,,μ„μΈ,λ…λ™ / μ¤‘κµ¬,300000016,200000157,37.5629366709066,126.98581354454
475,147,93631,μ•½μ J(μ μ΄),λ¨ν…”,motel,55000,55000,,μ„μΈ,λ…λ™ / μ¤‘κµ¬,300000016,200000157,37.555639220519375,127.01037049985467
476,148,73159,νΈν…” λ¦Ώ,νΈν…”,hotel,0,0,,μ„μΈ,λ…λ™ / μ¤‘κµ¬,300000016,200000157,37.554624,126.973805
477,149,80814,λ©”νΈλ΅ νΈν…”,νΈν…”,hotel,228850,228850,,μ„μΈ,λ…λ™ / μ¤‘κµ¬,300000016,200000157,37.565096,126.983716
478,150,88797,λ…λ™ μ‚¬λ³΄μ΄ νΈν…”,νΈν…”,hotel,0,0,,μ„μΈ,λ…λ™ / μ¤‘κµ¬,300000016,200000157,37.561765646902366,126.98427625577749
479,151,86349,λ…λ™ μ¤μ”3,λ¨ν…”,motel,0,0,,μ„μΈ,λ…λ™ / μ¤‘κµ¬,300000016,200000157,37.562937753653074,126.9858027988098
480,152,79443,λ…λ™ νΈν…”λ―Έλ„,λ¨ν…”,motel,0,0,,μ„μΈ,λ…λ™ / μ¤‘κµ¬,300000016,200000157,37.5584157,126.9805609
481,153,79453,λ…λ™ κΌ¬λ¨,λ¨ν…”,motel,0,0,,μ„μΈ,λ…λ™ / μ¤‘κµ¬,300000016,200000157,37.56038119999999,126.9871963
482,0,76772,λ…λ™(μ¶©λ¬΄λ΅) μμΈ νΈν…”,λ¨ν…”,motel,89000,0,π¤μ£Όμ°¨μ‹μ„¤λ³΄μ π¤λ…λ™ λ„μ‹¬μ† μμ—°μ„ κ²½ν—ν•μ„Έμ”.,μ„μΈ,μ„μ§€λ΅ / μ¶©λ¬΄λ΅,300000016,200000158,37.5564828,126.99314349999997
483,1,70172,νΈν…” κµ­λ„ λ…λ™,νΈν…”,hotel,224000,224000,,μ„μΈ,μ„μ§€λ΅ / μ¶©λ¬΄λ΅,300000016,200000158,37.566182,126.996297
484,2,81976,ν¬ν¬μΈμΈ  λ°”μ΄ μ‰λΌν†¤ μ΅°μ„  μ„μΈ λ…λ™,4μ„±κΈ‰,hotel,245000,245000,,μ„μΈ,μ„μ§€λ΅ / μ¶©λ¬΄λ΅,300000016,200000158,37.565466,126.989228
485,3,88442,G3 νΈν…” μ¶©λ¬΄λ΅,νΈν…”,hotel,210000,210000,,μ„μΈ,μ„μ§€λ΅ / μ¶©λ¬΄λ΅,300000016,200000158,37.56180964806257,126.99291581822467
486,4,72814,λ‚μΈνΈλ¦¬ ν”„λ¦¬λ―Έμ–΄ λ…λ™2,4μ„±κΈ‰,hotel,298000,298000,,μ„μΈ,μ„μ§€λ΅ / μ¶©λ¬΄λ΅,300000016,200000158,37.564111,126.990827
487,5,80974,G2 νΈν…” λ…λ™,νΈν…”,hotel,275000,275000,,μ„μΈ,μ„μ§€λ΅ / μ¶©λ¬΄λ΅,300000016,200000158,37.563302,126.990469
488,6,82704,λ””μ–΄μ¤λ…λ™ (μ¶©λ¬΄λ΅) νΈν…”,νΈν…”,hotel,0,0,,μ„μΈ,μ„μ§€λ΅ / μ¶©λ¬΄λ΅,300000016,200000158,37.560818,126.991295
489,7,84447,νΈν…” U5,νΈν…”,hotel,250000,250000,,μ„μΈ,μ„μ§€λ΅ / μ¶©λ¬΄λ΅,300000016,200000158,37.567397,127.00186
490,8,69843,λΌλ§λ‹¤ μ„μΈ λ™λ€λ¬Έ,3μ„±κΈ‰,hotel,150000,150000,,μ„μΈ,μ„μ§€λ΅ / μ¶©λ¬΄λ΅,300000016,200000158,37.565865,127.002795
491,9,79047,λ‚μΈνΈλ¦¬ νΈν…” λ™λ€λ¬Έ,3μ„±κΈ‰,hotel,0,0,,μ„μΈ,μ„μ§€λ΅ / μ¶©λ¬΄λ΅,300000016,200000158,37.566564,127.002897
492,10,97527,ν™μ¦μ¤ν…μ΄ λ…λ™ (κµ¬ ν™μ¦ λ‚¨μ‚°),νΈν…”,hotel,0,0,,μ„μΈ,μ„μ§€λ΅ / μ¶©λ¬΄λ΅,300000016,200000158,37.56149120283642,126.99287822362342
493,11,82608,μ–΄λ°μ¤ν…μ΄ λ…λ™,νΈν…”,hotel,189900,189900,,μ„μΈ,μ„μ§€λ΅ / μ¶©λ¬΄λ΅,300000016,200000158,37.563367,126.993388
494,12,70341,μ›¨μ¤ν„΄ μ½”μ—… νΈν…”&λ μ§€λμ¤,νΈν…”,hotel,120000,120000,,μ„μΈ,μ„μ§€λ΅ / μ¶©λ¬΄λ΅,300000016,200000158,37.566416,127.003299
495,13,80557,μ¤λ¦¬μ—”μ¤ νΈν…”&λ μ§€λμ¤,νΈν…”,hotel,326700,326700,,μ„μΈ,μ„μ§€λ΅ / μ¶©λ¬΄λ΅,300000016,200000158,37.56005,126.991144
496,14,80807,μ—μ΄νλΈ νΈν…”,3μ„±κΈ‰,hotel,251000,251000,,μ„μΈ,μ„μ§€λ΅ / μ¶©λ¬΄λ΅,300000016,200000158,37.566134,127.001724
497,15,70538,νΈλ λΈ”λ΅μ§€ λ™λ€λ¬Έ νΈν…”,νΈν…”,hotel,176000,176000,,μ„μΈ,μ„μ§€λ΅ / μ¶©λ¬΄λ΅,300000016,200000158,37.566363,127.001872
498,17,90923,λ…λ™(μ¶©λ¬΄λ΅) JIN FOREST Inn,λ¨ν…”,motel,0,0,,μ„μΈ,μ„μ§€λ΅ / μ¶©λ¬΄λ΅,300000016,200000158,37.560662197915796,126.99120369041187
499,18,79581,λ…λ™(μ„μ§€λ΅) HOTEL Mmmio (λ―Έμ¤),λ¨ν…”,motel,0,0,,μ„μΈ,μ„μ§€λ΅ / μ¶©λ¬΄λ΅,300000016,200000158,37.5654747,126.9916109
500,19,69272,λ…λ™(μ„μ§€λ΅) νΈν…” λ² λ„¤,λ¨ν…”,motel,55000,0,"γ€μ—°λ°•γ€‘μ£Όλ§, κ³µν΄μΌ μ¶”κ°€μ”κΈ μμµλ‹λ‹¤. (ν„μ¥κ²°μ )",μ„μΈ,μ„μ§€λ΅ / μ¶©λ¬΄λ΅,300000016,200000158,37.5650546,126.9923759
501,20,97577,μ„μΈ ν™μ¦μ¤ν…μ΄ λ…λ™(κµ¬ ν™μ¦λ‚¨μ‚°),νμ…,pension,170000,170000,,μ„μΈ,μ„μ§€λ΅ / μ¶©λ¬΄λ΅,300000016,200000158,37.5614953523496,126.992859994753
502,21,75438,λ™λ€λ¬Έ(μ„μ§€λ΅) μ—μ΄νλΈνΈν…”,λ¨ν…”,motel,0,0,μ£Όμ°¨ λ¶κ°€,μ„μΈ,μ„μ§€λ΅ / μ¶©λ¬΄λ΅,300000016,200000158,37.5661913,127.0017178
503,22,95277,λ…λ™ λ§λ§κ²μ¤νΈν•μ°μ¤,νμ…,pension,125000,125000,,μ„μΈ,μ„μ§€λ΅ / μ¶©λ¬΄λ΅,300000016,200000158,37.5584912531586,126.98838352712
504,0,81568,ν¬μ‹μ¦μ¤ νΈν…” μ„μΈ,5μ„±κΈ‰,hotel,0,0,,μ„μΈ,μΆ…λ΅ / λ™λ€λ¬Έ / λ€ν•™λ΅,300000016,200000159,37.570698,126.975395
505,1,93435,JW λ©”λ¦¬μ–΄νΈ λ™λ€λ¬Έ μ¤ν€μ–΄,5μ„±κΈ‰,hotel,598950,598950,,μ„μΈ,μΆ…λ΅ / λ™λ€λ¬Έ / λ€ν•™λ΅,300000016,200000159,37.57045035274447,127.00874228770309
506,2,82847,νμ΄λΈ νΈν…” μΆ…λ΅,νΈν…”,hotel,0,0,,μ„μΈ,μΆ…λ΅ / λ™λ€λ¬Έ / λ€ν•™λ΅,300000016,200000159,37.57421,126.999525
507,3,82241,νΈν…” DM,2μ„±κΈ‰,hotel,100000,100000,,μ„μΈ,μΆ…λ΅ / λ™λ€λ¬Έ / λ€ν•™λ΅,300000016,200000159,37.573332,127.019393
508,4,70305,IBC νΈν…”,νΈν…”,hotel,0,0,,μ„μΈ,μΆ…λ΅ / λ™λ€λ¬Έ / λ€ν•™λ΅,300000016,200000159,37.573254375820845,127.02284199456268
509,5,72850,λ³΄λ” 1957,νΈν…”,hotel,0,0,,μ„μΈ,μΆ…λ΅ / λ™λ€λ¬Έ / λ€ν•™λ΅,300000016,200000159,37.581739,126.984649
510,6,72392,μ„μΈμ•¤νΈν…” λ™λ€λ¬Έ,νΈν…”,hotel,95980,99000,,μ„μΈ,μΆ…λ΅ / λ™λ€λ¬Έ / λ€ν•™λ΅,300000016,200000159,37.573275,127.020802
511,7,80160,μΆ…λ΅(λ™λ€λ¬Έ) μ„μΈNνΈν…”,λ¨ν…”,motel,0,0,"*λ¬΄λ£μ΄μ© μ»¤λ®¤λ‹ν‹°ν™€/λΉ„μ¦λ‹μ¤λ£Έ, λ¬΄λ£μ™€μ΄νμ΄*",μ„μΈ,μΆ…λ΅ / λ™λ€λ¬Έ / λ€ν•™λ΅,300000016,200000159,37.5732747,127.0208022
512,8,79861,μ„μΈ λ¶μ΄λ§λ£¨ν•μ¥κ²μ¤νΈν•μ°μ¤,νμ…,pension,0,0,,μ„μΈ,μΆ…λ΅ / λ™λ€λ¬Έ / λ€ν•™λ΅,300000016,200000159,37.5831487057311,126.987545073819
513,9,92531,μΆ…λ΅(λ™λ¬μ•μ—­) νΈν…”μ•„λΌ,λ¨ν…”,motel,65000,0,,μ„μΈ,μΆ…λ΅ / λ™λ€λ¬Έ / λ€ν•™λ΅,300000016,200000159,37.5737583,127.0199691
514,10,81854,μΆ…λ΅(5κ°€) νΈν…” K WORLD,λ¨ν…”,motel,60000,0,,μ„μΈ,μΆ…λ΅ / λ™λ€λ¬Έ / λ€ν•™λ΅,300000016,200000159,37.5716151,127.0041095
515,11,70184,νΈν…”νλΉ„ λ™λ€λ¬Έ κ°¤λ¬λ¦¬,νΈν…”,hotel,0,0,,μ„μΈ,μΆ…λ΅ / λ™λ€λ¬Έ / λ€ν•™λ΅,300000016,200000159,37.57179,127.0134
516,12,81403,μΆ…λ΅(λ™λ¬μ•μ—­) HOTEL λ™μ–‘μ¥,λ¨ν…”,motel,0,0,"μ „κ°μ‹¤ λ„·ν”λ¦­μ¤,λ””μ¦λ‹,μ›¨μ΄λΈ,λ¬΄λ£μ‹μ²­ ββ€Ώβ ν‰μΌ μ£Όλ§ λ¬΄ν•λ€μ‹¤ μ΄μμ¤‘, λΉ λ¥Έμ…μ‹¤ μ¤ν”",μ„μΈ,μΆ…λ΅ / λ™λ€λ¬Έ / λ€ν•™λ΅,300000016,200000159,37.5728043,127.0177575
517,13,80982,μ„μΈ νν™”1938νμ…,νμ…,pension,0,0,,μ„μΈ,μΆ…λ΅ / λ™λ€λ¬Έ / λ€ν•™λ΅,300000016,200000159,37.5731294716,126.9792300437
518,14,80923,μΆ…λ΅(λ™λ€λ¬Έ) νΈν…” λ£¨λ―Έμ•„,λ¨ν…”,motel,90000,0,,μ„μΈ,μΆ…λ΅ / λ™λ€λ¬Έ / λ€ν•™λ΅,300000016,200000159,37.5738518,127.0222587
519,15,84733,μΆ…λ΅ λ½κ³ μ¬μ„μΈλ¶μ΄ν•μ¥λ§μ„νμ…,νμ…,pension,640000,640000,,μ„μΈ,μΆ…λ΅ / λ™λ€λ¬Έ / λ€ν•™λ΅,300000016,200000159,37.5801324653773,126.986075761604
520,16,82062,μΆ…λ΅(λ™λ¬μ•μ—­) HOTEL DM,λ¨ν…”,motel,0,0,μ΄μ  νΈν…”DM μ—μ„λ„ λ””μ¦λ‹+λ¥Ό κ°μƒν•μ!,μ„μΈ,μΆ…λ΅ / λ™λ€λ¬Έ / λ€ν•™λ΅,300000016,200000159,37.57333207598101,127.01939319667957
521,17,80285,μ„μΈ λ‹¬λΉ›λ™λ€λ¬Έκ²μ¤νΈν•μ°μ¤,νμ…,pension,70000,70000,,μ„μΈ,μΆ…λ΅ / λ™λ€λ¬Έ / λ€ν•™λ΅,300000016,200000159,37.57194469505437,127.01453013605861
522,18,98014,μΆ…λ΅ ν•λ‚λ¨ν…”,λ¨ν…”,motel,45000,45000,,μ„μΈ,μΆ…λ΅ / λ™λ€λ¬Έ / λ€ν•™λ΅,300000016,200000159,37.574026880203355,127.0222586578311
523,19,82196,μΆ…λ΅(λ™λ€λ¬Έ) μ¤λ§μ΄μΈ,λ¨ν…”,motel,0,0,,μ„μΈ,μΆ…λ΅ / λ™λ€λ¬Έ / λ€ν•™λ΅,300000016,200000159,37.57199464449658,127.01344132141394
524,20,81160,μΆ…λ΅(λ€ν•™λ΅) ν°λ¦¬μ¤,λ¨ν…”,motel,50000,0,β­μ„μΈλ€ν•™κµλ³‘μ› & μ„±κ· κ΄€λ€ν•™κµ κ±Έμ–΄μ„ 10λ¶„β­,μ„μΈ,μΆ…λ΅ / λ™λ€λ¬Έ / λ€ν•™λ΅,300000016,200000159,37.5839136,127.0002071
525,21,81729,μΆ…λ΅(λ™λ€λ¬Έ) μ‹ν‹°λ°μ΄μ¦ μΈ νΈν…”,λ¨ν…”,motel,70000,0,,μ„μΈ,μΆ…λ΅ / λ™λ€λ¬Έ / λ€ν•™λ΅,300000016,200000159,37.57140649999999,127.0116731
526,22,79116,μΆ…λ΅(λ€ν•™λ΅) νν™”μ—¬κ΄€,λ¨ν…”,motel,60000,55000,"μΆ…λ΅ λ€ν•™λ΅ μ•μ— μ„μΉν•μ—¬, μ ‘κ·Όμ΄ μ©μ΄ κΉ¨λ—ν• μ„λΉ„μ¤λ΅ λ¨μ‹κ² μµλ‹λ‹¤.",μ„μΈ,μΆ…λ΅ / λ™λ€λ¬Έ / λ€ν•™λ΅,300000016,200000159,37.5821564,126.9995456
527,23,69201,μΆ…λ΅ Olive HOTEL,λ¨ν…”,motel,70000,0,,μ„μΈ,μΆ…λ΅ / λ™λ€λ¬Έ / λ€ν•™λ΅,300000016,200000159,37.573827,127.0201302
528,24,74725,μΆ…λ΅ νΈν…” μ•³ ν™,λ¨ν…”,motel,50000,0,λ„·ν”λ¦­μ¤ λ””μ¦λ‹+ κ°μΈκ³„μ •μΌλ΅ μ‚¬μ©κ°€λ¥ν•©λ‹λ‹¤.,μ„μΈ,μΆ…λ΅ / λ™λ€λ¬Έ / λ€ν•™λ΅,300000016,200000159,37.5726762,126.9992241
529,25,68481,μΆ…λ΅ μΈν„°λ„·,λ¨ν…”,motel,50000,0,,μ„μΈ,μΆ…λ΅ / λ™λ€λ¬Έ / λ€ν•™λ΅,300000016,200000159,37.5705962,127.0048159
530,26,68124,μΆ…λ΅(λ€ν•™λ΅) μ¤μ„μ¤,λ¨ν…”,motel,50000,0,"Netflix(κ°μΈκ³„μ •μ‚¬μ©), YouTube",μ„μΈ,μΆ…λ΅ / λ™λ€λ¬Έ / λ€ν•™λ΅,300000016,200000159,37.575554,127.0040811
531,27,69260,λ™λ€λ¬Έ(λ™λ¬μ—­μ•) κ·Έλ¦°νν¬,λ¨ν…”,motel,0,0,,μ„μΈ,μΆ…λ΅ / λ™λ€λ¬Έ / λ€ν•™λ΅,300000016,200000159,37.5725298,127.0164461
532,28,72644,μΆ…λ΅ μ™€,λ¨ν…”,motel,30000,0,,μ„μΈ,μΆ…λ΅ / λ™λ€λ¬Έ / λ€ν•™λ΅,300000016,200000159,37.5726232,127.0042158
533,29,73743,κ²½λ³µκ¶ λ‚κ·Έλ„¤ ν•μ°μ¤ -λ¶€λ ν¬ ν•μ¥,λ¨ν…”,motel,100000,0,β…μ„ μ°©μ 1λ€ λ¬΄λ£μ£Όμ°¨ /μΌμ”μΌ κ°μ‹¤ 20~30% ν• μΈμ¤‘/ μ¥κΈ° μ™λ°• λ° ν•λ‹¬μ‚΄μ΄ λ¬Έμν™μ,μ„μΈ,μΆ…λ΅ / λ™λ€λ¬Έ / λ€ν•™λ΅,300000016,200000159,37.5767934,126.9716909
534,30,80312,λ™λ€λ¬Έ νΈν…”νλΉ„ κ°¤λ¬λ¦¬,λ¨ν…”,motel,0,0,,μ„μΈ,μΆ…λ΅ / λ™λ€λ¬Έ / λ€ν•™λ΅,300000016,200000159,37.5717904,127.0134
535,31,79279,μΆ…λ΅ μ•„λ―Έκ°€,λ¨ν…”,motel,0,0,,μ„μΈ,μΆ…λ΅ / λ™λ€λ¬Έ / λ€ν•™λ΅,300000016,200000159,37.5726683,126.9994133
536,32,68118,λ™λ€λ¬Έ(λ™λ¬μ•μ—­) λ°”ν‹°μΉ΄,λ¨ν…”,motel,0,0,,μ„μΈ,μΆ…λ΅ / λ™λ€λ¬Έ / λ€ν•™λ΅,300000016,200000159,37.5701199,127.0155452
537,33,86772,μΆ…λ΅(5κ°€) ν—λΈ,λ¨ν…”,motel,0,0,,μ„μΈ,μΆ…λ΅ / λ™λ€λ¬Έ / λ€ν•™λ΅,300000016,200000159,37.57226795435373,127.00409454963915
538,34,85561,μ„μΈ μ¤μ”νΈμ¤ν…”λ™λ€λ¬Έ1,νμ…,pension,0,0,,μ„μΈ,μΆ…λ΅ / λ™λ€λ¬Έ / λ€ν•™λ΅,300000016,200000159,37.571700014982,127.003539926219
539,35,86348,μΆ…λ΅(λ™λ€λ¬Έ) μ¤μ”1,λ¨ν…”,motel,0,0,,μ„μΈ,μΆ…λ΅ / λ™λ€λ¬Έ / λ€ν•™λ΅,300000016,200000159,37.57165788709237,127.00354103283199
540,36,70185,λ™λ€λ¬Έ λ°”ν‹°μΉ΄ νΈν…”,νΈν…”,hotel,0,0,,μ„μΈ,μΆ…λ΅ / λ™λ€λ¬Έ / λ€ν•™λ΅,300000016,200000159,37.570083,127.015531
541,37,76144,μΆ…λ΅(λ€ν•™λ΅) μ‰λΌκ·Ό,λ¨ν…”,motel,50000,0,,μ„μΈ,μΆ…λ΅ / λ™λ€λ¬Έ / λ€ν•™λ΅,300000016,200000159,37.5827602,126.99774980000007
542,38,83180,λ™λ€λ¬Έ BMλ¨ν…”,λ¨ν…”,motel,50000,50000,,μ„μΈ,μΆ…λ΅ / λ™λ€λ¬Έ / λ€ν•™λ΅,300000016,200000159,37.57060161829352,127.01146623402387
543,39,99885,μΆ…λ΅(λ€ν•™λ΅) μ¥λ―Έμ—¬κ΄€,λ¨ν…”,motel,60000,55000,,μ„μΈ,μΆ…λ΅ / λ™λ€λ¬Έ / λ€ν•™λ΅,300000016,200000159,37.5828217,127.0007115
544,40,88465,μΆ…λ΅ μΈμ°ν•μ°μ¤νμ…,νμ…,pension,110000,110000,,μ„μΈ,μΆ…λ΅ / λ™λ€λ¬Έ / λ€ν•™λ΅,300000016,200000159,37.5826403195095,126.987119019099
545,41,77754,μ„μΈ μΆ…λ΅λ¨κΌ¬μ§€κ²μ¤νΈν•μ°μ¤,νμ…,pension,0,0,,μ„μΈ,μΆ…λ΅ / λ™λ€λ¬Έ / λ€ν•™λ΅,300000016,200000159,37.5907295052,126.9996965523
546,42,100136,μ„μΈ μ„μ΄μ‚¬λ‘λ°©ν•μ¥νμ…,νμ…,pension,0,0,,μ„μΈ,μΆ…λ΅ / λ™λ€λ¬Έ / λ€ν•™λ΅,300000016,200000159,37.5828869813884,126.971518984794
547,0,67197,μΆ…λ΅ HOTEL STAR,λ¨ν…”,motel,50000,0,# ν‰μΌ λ¬΄ν•λ€μ‹¤ μµλ€ 8μ‹κ°„ # μ£Όλ§ λ¬΄ν•λ€μ‹¤ μµλ€ 7μ‹κ°„  #,μ„μΈ,μΈμ‚¬λ™,300000016,200000160,37.5715162,126.99004179999997
548,1,70318,μ‹ λΌμ¤ν…μ΄ κ΄‘ν™”λ¬Έ,3μ„±κΈ‰,hotel,204600,204600,,μ„μΈ,μΈμ‚¬λ™,300000016,200000160,37.572565,126.981137
549,2,70343,μ„λ¨Έμ…‹ ν°λ¦¬μ¤,νΈν…”,hotel,181000,181000,,μ„μΈ,μΈμ‚¬λ™,300000016,200000160,37.574975,126.981219
550,3,78287,μ¤λΌμΉ΄μ΄ λ€ν•™λ΅ νΈν…”,4μ„±κΈ‰,hotel,187000,187000,,μ„μΈ,μΈμ‚¬λ™,300000016,200000160,37.57562,126.99861
551,4,78450,λ‚μΈνΈλ¦¬ ν”„λ¦¬λ―Έμ–΄ νΈν…” μΈμ‚¬λ™,4μ„±κΈ‰,hotel,0,0,,μ„μΈ,μΈμ‚¬λ™,300000016,200000160,37.574521,126.983851
552,5,69854,μ•„λ―Έλ“ νΈν…” μ„μΈ,νΈν…”,hotel,231000,231000,,μ„μΈ,μΈμ‚¬λ™,300000016,200000160,37.572547,126.9842
553,6,89142,N285νΈν…” μΈμ‚¬λ™,νΈν…”,hotel,118500,118500,,μ„μΈ,μΈμ‚¬λ™,300000016,200000160,37.57234838980424,126.98741139341676
554,7,69877,νΈν…” λ” λ””μμ΄λ„μ¤ μΆ…λ΅,νΈν…”,hotel,126440,242000,,μ„μΈ,μΈμ‚¬λ™,300000016,200000160,37.569316,126.989045
555,8,74160,νΈν…” μΏ λ νƒ€μΌ€μ† μΈμ‚¬λ™,2μ„±κΈ‰,hotel,0,0,,μ„μΈ,μΈμ‚¬λ™,300000016,200000160,37.572482,126.987224
556,9,70096,νΈν…” μ¬λΉ„,2μ„±κΈ‰,hotel,291000,291000,,μ„μΈ,μΈμ‚¬λ™,300000016,200000160,37.573038,126.984756
557,10,70399,νΈν…” λ² λ‰΄μ§€,νΈν…”,hotel,0,0,,μ„μΈ,μΈμ‚¬λ™,300000016,200000160,37.568603,126.990711
558,11,70095,νΈν…” λ‚ν¬λ  μΆ…λ΅,νΈν…”,hotel,198000,198000,,μ„μΈ,μΈμ‚¬λ™,300000016,200000160,37.5689,126.990763
559,12,84296,μ μ—μ΄μΉμ¤μ„νΈ λ”μΆ…λ΅,νΈν…”,hotel,333000,333000,,μ„μΈ,μΈμ‚¬λ™,300000016,200000160,37.569085,126.986007
560,13,80035,λ” λ©”μ΄ νΈν…”(The May Hotel),νΈν…”,hotel,120000,250000,,μ„μΈ,μΈμ‚¬λ™,300000016,200000160,37.571961,126.989576
561,14,70492,νΈν…” μ•„νΈλ¦¬μ›€ μΆ…λ΅,3μ„±κΈ‰,hotel,164000,164000,,μ„μΈ,μΈμ‚¬λ™,300000016,200000160,37.571846,126.998142
562,15,81261,μΆ…λ΅ νΈν…”μΌ€μ΄μ›”λ“,νΈν…”,hotel,70000,200000,,μ„μΈ,μΈμ‚¬λ™,300000016,200000160,37.569207,126.991273
563,16,69885,μ΄λΉ„μ¤ μ•°λ°°μ„λ” μΈμ‚¬λ™,3μ„±κΈ‰,hotel,122000,260000,,μ„μΈ,μΈμ‚¬λ™,300000016,200000160,37.574367,126.98944
564,17,81925,μΆ…λ΅ νΈν…”ν λ¦¬μ¦ ν”„λ¦¬λ―Έμ–΄,νΈν…”,hotel,62360,62360,,μ„μΈ,μΈμ‚¬λ™,300000016,200000160,37.571046,126.990221
565,18,70175,λ©”μ΄ν”λ μ΄μ¤,νΈν…”,hotel,190000,190000,,μ„μΈ,μΈμ‚¬λ™,300000016,200000160,37.576326,126.9989
566,19,69926,μ¤λΌμΉ΄μ΄ μΈμ‚¬λ™ μ¤μ„μΈ ,νΈν…”,hotel,0,0,,μ„μΈ,μΈμ‚¬λ™,300000016,200000160,37.572962,126.987332
567,20,97544,λ©μ‹ λ°”μ΄ λ©”λ¦¬μ–΄νΈ μ„μΈ μΈμ‚¬λ™,3μ„±κΈ‰,hotel,209000,209000,,μ„μΈ,μΈμ‚¬λ™,300000016,200000160,37.57229721290916,126.9893407821717
568,21,99534,μ— μ§€(MG) νΈν…”,νΈν…”,hotel,0,0,,μ„μΈ,μΈμ‚¬λ™,300000016,200000160,37.56894190845249,126.98480080769257
569,22,81758,μΆ…λ΅λ©”μ΄μ»¤μ¤Xμ΄μλ‹¤,2μ„±κΈ‰,hotel,0,0,,μ„μΈ,μΈμ‚¬λ™,300000016,200000160,37.572401,126.989547
570,23,75649,λ¥΄λ½νΈν…” μΆ…λ΅,νΈν…”,hotel,135000,200000,,μ„μΈ,μΈμ‚¬λ™,300000016,200000160,37.568827,126.988473
571,24,69965,νΈν…” λ¦¬μ•,νΈν…”,hotel,161000,161000,,μ„μΈ,μΈμ‚¬λ™,300000016,200000160,37.569053,126.990948
572,25,69902,νΈν…” μ»¬λ¦¬λ„ μΆ…λ΅,νΈν…”,hotel,60000,60000,,μ„μΈ,μΈμ‚¬λ™,300000016,200000160,37.571958,126.989368
573,26,70117,λ…ΈλΈ” νΈν…”,νΈν…”,hotel,0,0,,μ„μΈ,μΈμ‚¬λ™,300000016,200000160,37.576652,126.989651
574,27,80193,μΆ…λ΅ μ— μ•¤λ­ν‚¤νΈν…”,νΈν…”,hotel,70000,150000,,μ„μΈ,μΈμ‚¬λ™,300000016,200000160,37.571352,126.990913
575,28,81420,μΆ…λ΅ λ‹¤λ‚νΈν…”,λ¨ν…”,motel,60000,0,,μ„μΈ,μΈμ‚¬λ™,300000016,200000160,37.56916275438147,126.9901197016565
576,29,76138,μΆ…λ΅ λ” ν¬μ¤νΈ νΈν…”,λ¨ν…”,motel,76000,0,λ„·ν”λ¦­μ¤ μ „κ°μ‹¤κΈμ—° λΉ λ¥Έμ…μ‹¤ κ³ λ°κΈ° ν¨ν‚¤μ§€κ°μ‹¤,μ„μΈ,μΈμ‚¬λ™,300000016,200000160,37.569444,126.99055780000003
577,30,93865,μΆ…λ΅ ν¬λΌμ΄ νΈν…”,2μ„±κΈ‰,hotel,0,0,,μ„μΈ,μΈμ‚¬λ™,300000016,200000160,37.57398134432488,126.988194582833
578,31,77721,μΆ…λ΅ λΈλΌμ΄λ„νΈ μΆ…λ΅μ ,λ¨ν…”,motel,60000,0,κ±΄λ¬Ό λ‚΄ μ£ΌκΈ°μ μΈ μ•μ‹¬ μ†λ… μ§„ν–‰μ¤‘μ…λ‹λ‹¤.,μ„μΈ,μΈμ‚¬λ™,300000016,200000160,37.57124779999999,126.98962000000006
579,32,79948,μΆ…λ΅ M&LUCKY HOTEL,λ¨ν…”,motel,60000,0,λ„·ν”λ¦­μ¤ / κΈμ—°κ°μ‹¤ / μƒμ‹μ†λ… / λ¬΄ν•λ€μ‹¤ / ν¬μΈνΈμ λ¦½ / μΌνμ©ν’ κ°μ‹¤λ‚΄λΉ„μΉ,μ„μΈ,μΈμ‚¬λ™,300000016,200000160,37.5713281,126.9909071
580,33,67431,μΆ…λ΅ μ»¬λ¦¬λ„,λ¨ν…”,motel,55000,0,,μ„μΈ,μΈμ‚¬λ™,300000016,200000160,37.5720032,126.989373
581,34,67024,μΆ…λ΅ μ•„λ§λ ,λ¨ν…”,motel,120000,0,,μ„μΈ,μΈμ‚¬λ™,300000016,200000160,37.5715243,126.9897461
582,35,69784,μΆ…λ΅ YAJA μΆ…λ΅μ ,λ¨ν…”,motel,50000,0,"κ³ μ‚¬μ–‘ PC μ„¤μΉμ™„λ£(λΌμ΄μ  2600,RAM μ‚Όμ„± 16κΈ°κ°€ κ·Έλν”½ 1060 3G 32''λ¨λ‹ν„°)",μ„μΈ,μΈμ‚¬λ™,300000016,200000160,37.5731831,126.9888829
583,36,82336,μΆ…λ΅ HOTEL LABOUM(νΈν…” λΌλ¶),λ¨ν…”,motel,60000,0,#μ „κ°μ‹¤#μ¤λ§νΈTV#μ΄κ³ μ‚¬μ–‘#μ»¤ν”PC#κΈμ—°κ°μ‹¤,μ„μΈ,μΈμ‚¬λ™,300000016,200000160,37.571497677363396,126.9896002452608
584,37,80485,μΆ…λ΅(3κ°€) νΈν…” K WORLD,λ¨ν…”,motel,60000,0,* μ¤ν”νΉκ°€!! μ¤μ„νΈ λ€μ‹¤ νκ²© ν• μΈ!! κΈ°κ°„μ—°μ¥!! *,μ„μΈ,μΈμ‚¬λ™,300000016,200000160,37.5691669,126.9912634
585,38,74618,μΆ…λ΅ μ¤€μ¤νΈν…”,λ¨ν…”,motel,69000,0,,μ„μΈ,μΈμ‚¬λ™,300000016,200000160,37.57501377340719,126.98423645413591
586,39,94046,μ²­μ£Ό λ‹¬λ³΄λ“λ νμ…,νμ…,pension,0,0,,μ„μΈ,μΈμ‚¬λ™,300000016,200000160,36.6910529889855,127.633860330286
587,40,67104,μΆ…λ΅ μ•„λΉ„μ‘,λ¨ν…”,motel,50000,0,μ§€μƒμ£Όμ°¨ μ‹ ν•μ—μ–΄μ»¨ λ„·ν”λ¦­μ¤ μ›¨μ΄λΈ λ¬΄λΉ„λ„·μ κ³µ,μ„μΈ,μΈμ‚¬λ™,300000016,200000160,37.5764013,126.9895148
588,42,66741,μΆ…λ΅ λ” λ””μμ΄λ„μ¤,λ¨ν…”,motel,100000,0,,μ„μΈ,μΈμ‚¬λ™,300000016,200000160,37.569378,126.9890543
589,43,67465,μΆ…λ΅ λ λ¬νΈλ¦¬,λ¨ν…”,motel,55000,0,"μ»¤ν”PC,μ”¨λ„¤νΈν…”, PCλ„·ν”λ¦­μ¤(κ°μΈIDν•„μ”)",μ„μΈ,μΈμ‚¬λ™,300000016,200000160,37.5724109,126.9910761
590,44,66836,μΆ…λ΅ μ‹λ„¤λ§,λ¨ν…”,motel,0,0,μ „κ°μ‹¤ 2λ€μ PC λ„·ν”λ¦­μ¤ κ°€λ¥ κ°μΈIDν•„μ”,μ„μΈ,μΈμ‚¬λ™,300000016,200000160,37.573225,126.98918320000007
591,45,85854,μΆ…λ΅(μΆ…κ°) ν—¤λ¦¬ν‹°μ§€31 νΈν…”,λ¨ν…”,motel,75000,0,β…μΆ…κ° ν—¤λ¦¬ν‹°μ§€31 μ‹ μ¶•νΈν…” GRAND OPENβ…,μ„μΈ,μΈμ‚¬λ™,300000016,200000160,37.569385723767255,126.98631410211055
592,46,67005,μΆ…λ΅ λ¥΄λ½ νΈν…”,λ¨ν…”,motel,90000,0,"2023λ…„ λ‹¬λ ¥, ν¬λ¦¬μ¤λ§μ¤ μΉ΄λ“, μ‹ λ…„ μΉ΄λ“λ¥Ό λ“λ¦½λ‹λ‹¤.",μ„μΈ,μΈμ‚¬λ™,300000016,200000160,37.5688406,126.9884675
593,47,69241,μΆ…λ΅ HERTZ(ν—¤λ¥΄μΈ ),λ¨ν…”,motel,60000,0,,μ„μΈ,μΈμ‚¬λ™,300000016,200000160,37.5727426,126.9889167
594,48,89608,μΆ…λ΅(3κ°€) ν”ΌμΉ΄μ†,λ¨ν…”,motel,40000,40000,,μ„μΈ,μΈμ‚¬λ™,300000016,200000160,37.5712866,126.98998299999994
595,49,76104,μΆ…λ΅(μΆ…κ°) MG HOTEL,λ¨ν…”,motel,0,0,β…λ„·ν”λ¦­μ¤/λ¬΄ν•λ€μ‹¤/μ μμκ±°λ¦¬/μΌνμ©ν’λ¬΄λ£β…,μ„μΈ,μΈμ‚¬λ™,300000016,200000160,37.5689546,126.98483290000001
596,50,67897,μΆ…λ΅ λ¶€ν‹°ν¬ νΈν…” K,λ¨ν…”,motel,55000,0,β—†μΉ΄μΉ΄μ¤ν†΅ μ±„λ„ μ¶”κ°€ μ‹ μƒν’ μ¦μ •!β—†,μ„μΈ,μΈμ‚¬λ™,300000016,200000160,37.5692929,126.9882662
597,51,68256,μΆ…λ΅ μΏ μ¦,λ¨ν…”,motel,0,0,,μ„μΈ,μΈμ‚¬λ™,300000016,200000160,37.5763552,126.98998289999997
598,52,82340,μΆ…λ΅ HOTEL μ›”ν•μ—¬κ΄€,λ¨ν…”,motel,0,0,β…21.01.01 μ›”ν•μ—¬κ΄€ OPENβ…,μ„μΈ,μΈμ‚¬λ™,300000016,200000160,37.576422021574565,126.9909274226649
599,53,68325,μΆ…λ΅ μ”¨ν‹°νν¬,λ¨ν…”,motel,0,0,"λ„“μ€ μ£Όμ°¨μ¥, μ•κµ­μ—­/μΆ…λ΅3κ°€μ—­ λ„λ³΄5λ¶„β…",μ„μΈ,μΈμ‚¬λ™,300000016,200000160,37.5765426,126.9898878
600,54,85896,μΆ…λ΅ HOTEL AVENUE162(νΈν…” μ—λΉ„λ‰΄162),λ¨ν…”,motel,55000,0,,μ„μΈ,μΈμ‚¬λ™,300000016,200000160,37.571228533931325,126.98982689937581
601,55,76742,μΆ…λ΅ T,λ¨ν…”,motel,50000,0,μ „κ°μ‹¤ λ„·ν”λ¦­μ¤ μ΄μ©κ°€λ¥,μ„μΈ,μΈμ‚¬λ™,300000016,200000160,37.5710664,126.9906446
602,56,67131,μΆ…λ΅ IMT,λ¨ν…”,motel,50000,0,*μ•Όκ°„λ€μ‹¤(01μ‹κΉμ§€) μ΄λ²¤νΈβ—_β—//,μ„μΈ,μΈμ‚¬λ™,300000016,200000160,37.5691048,126.9903035
603,57,68160,μΆ…λ΅ HOTEL HELLOINN(νΈν…” ν—¬λ΅μΈ),λ¨ν…”,motel,60000,0,,μ„μΈ,μΈμ‚¬λ™,300000016,200000160,37.5717711,126.98961370000006
604,58,79656,μΆ…λ΅ THE MAY HOTEL,λ¨ν…”,motel,70000,0,,μ„μΈ,μΈμ‚¬λ™,300000016,200000160,37.57190680000001,126.9895624
605,59,67093,μΆ…λ΅ νΈν…”ν λ¦¬μ¦ ν”„λ¦¬λ―Έμ–΄,λ¨ν…”,motel,60000,0,β¤οΈκ³ λ°κΈ°/ μ»¤ν”Όλ¨Έμ‹  / μ¤νƒ€μΌλ¬ / μ„ μ°©μ ν• μΈμΏ ν°β¤οΈ,μ„μΈ,μΈμ‚¬λ™,300000016,200000160,37.5710711,126.99021119999998
606,60,75808,μΆ…λ΅ νΈν…” κ·Έλ¦Ό,λ¨ν…”,motel,40000,0,,μ„μΈ,μΈμ‚¬λ™,300000016,200000160,37.5722433,126.9895838
607,61,68880,μΆ…λ΅ λΉ„μ¦νΈν…”,λ¨ν…”,motel,100000,0,"#μ‹μ¦ νΉκ°€! μµμ €μ”κΈ λ€μ‹¤, λΉ λ¥Έ μ…μ‹¤",μ„μΈ,μΈμ‚¬λ™,300000016,200000160,37.5732867,126.9885913
608,62,67379,μΆ…λ΅ μ‹¬ν”μ¤ν…μ΄,λ¨ν…”,motel,120000,0,,μ„μΈ,μΈμ‚¬λ™,300000016,200000160,37.5722369,126.98967170000003
609,63,67195,μΆ…λ΅ POP3,λ¨ν…”,motel,55000,0,λ¬΄ν•λ€μ‹¤ μ΄λ²¤νΈ,μ„μΈ,μΈμ‚¬λ™,300000016,200000160,37.5711246,126.9898766
610,64,80535,μΆ…λ΅ μ„ΌνΈλ΄κ΄€κ΄‘νΈν…”,λ¨ν…”,motel,0,0,,μ„μΈ,μΈμ‚¬λ™,300000016,200000160,37.5687363,126.9928608
611,65,89217,μΆ…λ΅ μ°λ―Έκ΄€,λ¨ν…”,motel,70000,0,β¤οΈμ„ μ°©μ ν• μΈ μΏ ν°/ μ•μ΅° λ³΄μ / ν¨λ°€λ¦¬&ν…λΌμ¤λ£Έβ¤οΈ,μ„μΈ,μΈμ‚¬λ™,300000016,200000160,37.5698303,126.98668240000006
612,66,66845,μΆ…λ΅ λ„λ„,λ¨ν…”,motel,40000,0,μ „κ°μ‹¤ #ν¬μΈνΈμ λ¦½μ  #λ„·ν”λ¦­μ¤ #μ νλΈ μ‹μ²­ #μ„Έμ¤μ½” λ°©μ—­μ¤‘ #μ¤μ„νΈλ£Έ μ•λ§μμ,μ„μΈ,μΈμ‚¬λ™,300000016,200000160,37.5709903,126.98966689999997
613,67,83876,μ„μΈ μΈμ‚¬λ™μ•κ²μ¤νΈν•μ°μ¤,νμ…,pension,0,0,,μ„μΈ,μΈμ‚¬λ™,300000016,200000160,37.5730416078269,126.989218041687
614,68,77474,μΆ…λ΅ λ‹¤λ‹¤νΈν…”,λ¨ν…”,motel,90000,0,"β΅λ¬΄μΈμΌλ΅ μ²΄ν¬μΈ,μ²΄ν¬μ•„μ›ƒ κ°€λ¥",μ„μΈ,μΈμ‚¬λ™,300000016,200000160,37.5745884,126.98946950000004
615,69,76504,μΆ…λ΅ μλΌμ¤ν…μ΄ SULLA STAY,λ¨ν…”,motel,49900,0,λ§¤μΌ νΈν…” μμ²΄μ†λ… μ§„ν–‰ / 2μ£Ό 1ν λ°©μ—­μ—…μ²΄ μ†λ…,μ„μΈ,μΈμ‚¬λ™,300000016,200000160,37.576637,126.9911128
616,70,99447,μ‹¬ν”μ¤ν…μ΄ μΆ…λ΅,νΈν…”,hotel,132000,207900,,μ„μΈ,μΈμ‚¬λ™,300000016,200000160,37.5722602895843,126.98970095734515
617,71,99307,μ„μΈ μ‹¬ν”μ¤ν…μ΄,νμ…,pension,0,0,,μ„μΈ,μΈμ‚¬λ™,300000016,200000160,37.5722528301184,126.989704457376
618,72,82258,μΆ…λ΅ Zλ¬΄μΈν…”,λ¨ν…”,motel,59900,0,,μ„μΈ,μΈμ‚¬λ™,300000016,200000160,37.57135160719286,126.99063310444353
619,73,80643,μΆ…λ΅(3κ°€) μ μ΄λ―Έλ‹,λ¨ν…”,motel,55000,55000,,μ„μΈ,μΈμ‚¬λ™,300000016,200000160,37.5698708,126.99130250000007
620,74,67199,μΆ…λ΅ POP2,λ¨ν…”,motel,60000,0,,μ„μΈ,μΈμ‚¬λ™,300000016,200000160,37.5710731,126.99005590000002
621,75,80315,μΆ…λ΅ μ…€ν”„ν…” ν† λ―Έ,λ¨ν…”,motel,24990,0,β… λ„·ν”λ¦­μ¤ νν‹°λ£Έ 4~5μΈμ‹¤ OPEN β…,μ„μΈ,μΈμ‚¬λ™,300000016,200000160,37.5743823,126.9911818
622,76,73046,μΆ…λ΅ ν”Όν„°μΊ£νΈν…”,λ¨ν…”,motel,0,0,,μ„μΈ,μΈμ‚¬λ™,300000016,200000160,37.5751082,126.9895845
623,77,73479,μΆ…λ΅ κ·Έλ¦¬λ“μΈ νΈν…”,νΈν…”,hotel,153000,153000,,μ„μΈ,μΈμ‚¬λ™,300000016,200000160,37.569602,126.991327
624,78,88388,μΆ…λ΅ μ„Έν™”,λ¨ν…”,motel,0,0,,μ„μΈ,μΈμ‚¬λ™,300000016,200000160,37.574733245559095,126.99031583450626
625,79,92571,μ„μΈ μΆ…λ΅μ¤€μ¤νΈν…”νμ…,νμ…,pension,50000,50000,,μ„μΈ,μΈμ‚¬λ™,300000016,200000160,37.575017290578,126.984242826008
626,80,98935,μ•„λ§λ  νΈν…” μΆ…λ΅,νΈν…”,hotel,0,0,,μ„μΈ,μΈμ‚¬λ™,300000016,200000160,37.57141857974237,126.9897860017528
627,81,100203,μ„κ·€ν¬ μ„λ―Έμ†λ§νΈνμ…,νμ…,pension,190000,200000,,μ„μΈ,μΈμ‚¬λ™,300000016,200000160,33.2747383621219,126.664779953834
628,0,67380,ν™λ€ λ” λ””μμ΄λ„μ¤,λ¨ν…”,motel,140000,0,,μ„μΈ,μ„λ€λ¬Έ / λ§ν¬ / μ‹ μ΄ / ν™λ€,300000016,200000161,37.5519673,126.917622
629,1,69845,νΈν…” λ” λ””μμ΄λ„μ¤ ν™λ€,νΈν…”,hotel,150000,150000,,μ„μΈ,μ„λ€λ¬Έ / λ§ν¬ / μ‹ μ΄ / ν™λ€,300000016,200000161,37.551947,126.917639
630,2,87357,νΈν…” λ‚λ£¨ μ„μΈ-μ— κ°¤λ¬λ¦¬,5μ„±κΈ‰,hotel,437250,437250,,μ„μΈ,μ„λ€λ¬Έ / λ§ν¬ / μ‹ μ΄ / ν™λ€,300000016,200000161,37.537238,126.944218
631,3,74272,κΈ€λλ“ λ§ν¬,4μ„±κΈ‰,hotel,341000,341000,,μ„μΈ,μ„λ€λ¬Έ / λ§ν¬ / μ‹ μ΄ / ν™λ€,300000016,200000161,37.542711,126.95163
632,4,72817,ν™λ€ λ‚μΈλΈλ¦­ νΈν…”,νΈν…”,hotel,187000,300000,,μ„μΈ,μ„λ€λ¬Έ / λ§ν¬ / μ‹ μ΄ / ν™λ€,300000016,200000161,37.553784,126.920497
633,5,69850,μ¤νƒ ν¬λ“ νΈν…” μ„μΈ,4μ„±κΈ‰,hotel,143000,286000,,μ„μΈ,μ„λ€λ¬Έ / λ§ν¬ / μ‹ μ΄ / ν™λ€,300000016,200000161,37.581818,126.886757
634,7,70240,μ‹ λΌμ¤ν…μ΄ λ§ν¬,3μ„±κΈ‰,hotel,191290,191290,,μ„μΈ,μ„λ€λ¬Έ / λ§ν¬ / μ‹ μ΄ / ν™λ€,300000016,200000161,37.542788,126.949607
635,8,70057,μ„μΈκ°€λ“ νΈν…”,4μ„±κΈ‰,hotel,200000,297000,,μ„μΈ,μ„λ€λ¬Έ / λ§ν¬ / μ‹ μ΄ / ν™λ€,300000016,200000161,37.540668,126.948346
636,9,70210,μ‹ λΌμ¤ν…μ΄ μ„λ€λ¬Έ,3μ„±κΈ‰,hotel,187200,187200,,μ„μΈ,μ„λ€λ¬Έ / λ§ν¬ / μ‹ μ΄ / ν™λ€,300000016,200000161,37.565162,126.966749
637,11,70329,λ΅―λ°μ‹ν‹°νΈν…” λ§ν¬,3μ„±κΈ‰,hotel,198000,198000,,μ„μΈ,μ„λ€λ¬Έ / λ§ν¬ / μ‹ μ΄ / ν™λ€,300000016,200000161,37.544891,126.950607
638,12,69924,μ¤μ„μ¤ κ·Έλλ“ νΈν…”,νΈν…”,hotel,265000,265000,,μ„μΈ,μ„λ€λ¬Έ / λ§ν¬ / μ‹ μ΄ / ν™λ€,300000016,200000161,37.588782,126.934548
639,14,79493,λ¨Ένμ–΄ μ•°λ°°μ„λ” μ„μΈ ν™λ€,4μ„±κΈ‰,hotel,279900,416900,,μ„μΈ,μ„λ€λ¬Έ / λ§ν¬ / μ‹ μ΄ / ν™λ€,300000016,200000161,37.555234,126.922404
640,15,73957,L7 ν™λ€,4μ„±κΈ‰,hotel,277420,277420,,μ„μΈ,μ„λ€λ¬Έ / λ§ν¬ / μ‹ μ΄ / ν™λ€,300000016,200000161,37.555732,126.921439
641,16,75464,ν™€λ¦¬λ°μ΄μΈ μµμ¤ν”„λ μ¤ μ„μΈ ν™λ€,3μ„±κΈ‰,hotel,0,0,,μ„μΈ,μ„λ€λ¬Έ / λ§ν¬ / μ‹ μ΄ / ν™λ€,300000016,200000161,37.557445,126.926779
642,17,70354,μ•„λ§ν‹° νΈν…” μ„μΈ ν™λ€,4μ„±κΈ‰,hotel,275000,275000,,μ„μΈ,μ„λ€λ¬Έ / λ§ν¬ / μ‹ μ΄ / ν™λ€,300000016,200000161,37.557178,126.918603
643,20,85968,λ΅μ΄λ„·νΈν…” μ„μΈ λ§ν¬,3μ„±κΈ‰,hotel,568800,568800,,μ„μΈ,μ„λ€λ¬Έ / λ§ν¬ / μ‹ μ΄ / ν™λ€,300000016,200000161,37.54185,126.9483
644,21,80211,νΈν…” λ£¨ 136,νΈν…”,hotel,85000,85000,,μ„μΈ,μ„λ€λ¬Έ / λ§ν¬ / μ‹ μ΄ / ν™λ€,300000016,200000161,37.607733,126.925305
645,22,84764,μ£Όλ‹λΉ„λ…Έ νΈν…”,3μ„±κΈ‰,hotel,179990,280000,,μ„μΈ,μ„λ€λ¬Έ / λ§ν¬ / μ‹ μ΄ / ν™λ€,300000016,200000161,37.547712,126.910926
646,23,70064,μ€ν‰ μ”¨μ—μ¤μ—λΉ„λ‰΄ νΈν…”,2μ„±κΈ‰,hotel,60000,9000000,μ „κ°μ‹¤ 70μΈμΉλ€ν•TV ν‹°λΉ™/λ””μ¦λ‹/λ„·ν”λ¦­μ¤ λ¬΄λ£μ‹μ²­/μ¨μ—΄ λ§¤νΈ/κΈ€λ¨ν•‘/λ°”λ² ν/ν¬ν† μ΅΄/μΈμƒμƒ·,μ„μΈ,μ„λ€λ¬Έ / λ§ν¬ / μ‹ μ΄ / ν™λ€,300000016,200000161,37.599073,126.936492
647,24,97749,λ”ν΄μ‹ μ•„λ‘νΈν…” ν™λ€μ ,νΈν…”,hotel,0,0,,μ„μΈ,μ„λ€λ¬Έ / λ§ν¬ / μ‹ μ΄ / ν™λ€,300000016,200000161,37.555559358401226,126.92037316486987
648,25,73975,ν•©μ • μ¨ν΄νΈν…”,1μ„±κΈ‰,hotel,110000,110000,,μ„μΈ,μ„λ€λ¬Έ / λ§ν¬ / μ‹ μ΄ / ν™λ€,300000016,200000161,37.548838,126.91073
649,27,69957,μ‹ μ΄ EVER 8 κ°€μ΅± νΈν…”,1μ„±κΈ‰,hotel,187000,187000,,μ„μΈ,μ„λ€λ¬Έ / λ§ν¬ / μ‹ μ΄ / ν™λ€,300000016,200000161,37.557365,126.942561
650,28,92589,λΈλΌμ΄μ¤μ„νΈνΈν…” μ‹ μ΄μ„ΌνΈλ΄,νΈν…”,hotel,110000,240000,,μ„μΈ,μ„λ€λ¬Έ / λ§ν¬ / μ‹ μ΄ / ν™λ€,300000016,200000161,37.554668225391545,126.93559388456947
651,29,97545,λΌμ΄μ¦ μ¤ν† κ·Έλν”„ μ»¬λ ‰μ… λ°”μ΄ λ©”λ¦¬μ–΄νΈ,νΈν…”,hotel,462000,462000,,μ„μΈ,μ„λ€λ¬Έ / λ§ν¬ / μ‹ μ΄ / ν™λ€,300000016,200000161,37.55433499234078,126.92120744490553
652,30,73086,H Avenue μ΄λ€μ ,2μ„±κΈ‰,hotel,0,0,"β¨λ΄‰κ³ λ°κΈ°, νκ³ λ°κΈ°, λ μ¦ν†µ, λ¦¬λ‰΄ κµ¬λΉ„μ™„λ£β¨",μ„μΈ,μ„λ€λ¬Έ / λ§ν¬ / μ‹ μ΄ / ν™λ€,300000016,200000161,37.556187,126.942563
653,31,70476,μ€ν‰ λΈλ¦­μ¤ νΈν…”,λ¨ν…”,motel,65000,0,β£οΈλ„·ν”λ¦­μ¤ ν”„λ¦¬λ―Έμ—„ μ νλΈ λ¬΄λ£ μ‹μ²­κ°€λ¥β£οΈ,μ„μΈ,μ„λ€λ¬Έ / λ§ν¬ / μ‹ μ΄ / ν™λ€,300000016,200000161,37.5999015,126.9211885
654,32,76587,νΈν…” λ”” μ•„ν‹°μ¤νΈ μ—°μ‹ λ‚΄μ ,νΈν…”,hotel,60000,60000,,μ„μΈ,μ„λ€λ¬Έ / λ§ν¬ / μ‹ μ΄ / ν™λ€,300000016,200000161,37.622438,126.919449
655,33,68406,μ‹ μ΄ μ›” (ζ),λ¨ν…”,motel,50000,0,β™¥κ°μ‹¤ μ—…κ·Έλ μ΄λ“ μ΄λ²¤νΈβ™¥,μ„μΈ,μ„λ€λ¬Έ / λ§ν¬ / μ‹ μ΄ / ν™λ€,300000016,200000161,37.5576297,126.9424796
656,34,68183,μ€ν‰ μ”¨μ—μ¤ μ—λΉ„λ‰΄ νΈν…”,λ¨ν…”,motel,55000,0,π’–λ¬΄ν•μ™λ°•π’–70μΈμΉλ€ν•TVπ’–ν‹°λΉ™/λ””μ¦λ‹/λ„·ν”λ¦­μ¤ λ¬΄λ£μ‹μ²­π’–μ¨μ—΄λ§¤νΈπ’–κΈ€λ¨ν•‘π’–λ¶λ©π’–λ°”λ² νπ’–ν¬ν† μ΅΄π’–μΈμƒμƒ·π’–,μ„μΈ,μ„λ€λ¬Έ / λ§ν¬ / μ‹ μ΄ / ν™λ€,300000016,200000161,37.5991044,126.9364409
657,35,76293,μ—°μ‹ λ‚΄ HOTEL THE ARTIST,λ¨ν…”,motel,60000,0,"β…λ„·ν”λ¦­μ¤, λ””μ¦λ‹λ“± κ°μΈκ³„μ •μΌλ΅ μ‹μ²­ κ°€λ¥β…",μ„μΈ,μ„λ€λ¬Έ / λ§ν¬ / μ‹ μ΄ / ν™λ€,300000016,200000161,37.6224381,126.91944860000001
658,36,67316,μ‹ μ΄ μλ―Έμ—λ¥΄,λ¨ν…”,motel,40000,0,"μ£Όμ¤‘ λ€μ‹¤ μµλ€ 6μ‹κ°„ μ κ³µ,λ§κ°μ‹κ°„ 23μ‹",μ„μΈ,μ„λ€λ¬Έ / λ§ν¬ / μ‹ μ΄ / ν™λ€,300000016,200000161,37.5562524,126.9382262
659,37,87370,λ¶€μ•(λ³€μ‚°λ°λ„) ν† λ―Έμ•¤μ¤ννμ…,νμ…,pension,99000,99000,,μ„μΈ,μ„λ€λ¬Έ / λ§ν¬ / μ‹ μ΄ / ν™λ€,300000016,200000161,35.6872829916179,126.534579997785
660,38,75911,ν™λ€ λ³΄λ³΄ νΈν…”,2μ„±κΈ‰,hotel,0,0,,μ„μΈ,μ„λ€λ¬Έ / λ§ν¬ / μ‹ μ΄ / ν™λ€,300000016,200000161,37.55228,126.918173
661,39,73289,ν™λ€ λ‚μΈλΈλ¦­ νΈν…”,λ¨ν…”,motel,190000,0,μ΅°μ‹ κ°€λ¥ν•©λ‹λ‹¤.,μ„μΈ,μ„λ€λ¬Έ / λ§ν¬ / μ‹ μ΄ / ν™λ€,300000016,200000161,37.5537927,126.9205704
662,40,84874,ν•©μ • μ£Όλ‹λΉ„λ…Έ,λ¨ν…”,motel,179990,0,,μ„μΈ,μ„λ€λ¬Έ / λ§ν¬ / μ‹ μ΄ / ν™λ€,300000016,200000161,37.54772847755198,126.91088146068779
663,41,70300,μ‹ μ΄ LASSA,1μ„±κΈ‰,hotel,70000,100000,,μ„μΈ,μ„λ€λ¬Έ / λ§ν¬ / μ‹ μ΄ / ν™λ€,300000016,200000161,37.55606,126.937227
664,42,80175,λ¶κ΄‘ νΈν…” λ£¨136,λ¨ν…”,motel,85000,0,#μ „ κ°μ‹¤ μ¤λ§νΈTV #1μΈµ μΉ΄ν 15% ν• μΈ,μ„μΈ,μ„λ€λ¬Έ / λ§ν¬ / μ‹ μ΄ / ν™λ€,300000016,200000161,37.6076782,126.925248
665,43,88540,μ‹ μ΄ μ–΄λ°λ…Έλ“(urbannord),λ¨ν…”,motel,55000,0,,μ„μΈ,μ„λ€λ¬Έ / λ§ν¬ / μ‹ μ΄ / ν™λ€,300000016,200000161,37.557086762417015,126.9373763659253
666,44,88632,λ¶κ΄‘ 3S νΈν…”,λ¨ν…”,motel,50000,0,π’™22.11 λ¦¬λ¨λΈλ§ μ¤ν” / μ „κ°μ‹¤ μ•μ΅° / μ „κ°μ‹¤ OTT / 75-86μΈμΉ λ€ν•TV / μ•λ§μμ / 1μΈµ λ΅λΉ„ λ§¤μ  / μ…μ•μ  νλ§¤π’™,μ„μΈ,μ„λ€λ¬Έ / λ§ν¬ / μ‹ μ΄ / ν™λ€,300000016,200000161,37.60917828896989,126.93019728630097
667,45,80120,μ„μΈ λ²™ν¬κ²μ¤νΈν•μ°μ¤,νμ…,pension,30000,30000,,μ„μΈ,μ„λ€λ¬Έ / λ§ν¬ / μ‹ μ΄ / ν™λ€,300000016,200000161,37.5549074258628,126.927131147514
668,46,67876,λ¶κ΄‘ CS,λ¨ν…”,motel,40000,0,04λ…„μƒμ€ 1μ›”1μΌ 0μ‹λ¶€ν„° μ…μ‹¤ κ°€λ¥ν•©λ‹λ‹¤.,μ„μΈ,μ„λ€λ¬Έ / λ§ν¬ / μ‹ μ΄ / ν™λ€,300000016,200000161,37.6086343,126.92992479999998
669,47,67418,ν•©μ • μ¨ν΄νΈν…”,λ¨ν…”,motel,100000,90000,,μ„μΈ,μ„λ€λ¬Έ / λ§ν¬ / μ‹ μ΄ / ν™λ€,300000016,200000161,37.5488564,126.91075950000004
670,48,78598,λ¶κ΄‘ FORESTAR νΈν…” (ν¬λ μ¤νƒ€),λ¨ν…”,motel,50000,0,λ¶κ΄‘ ν¬λ μ¤νƒ€ μ΄λ²¤νΈ !,μ„μΈ,μ„λ€λ¬Έ / λ§ν¬ / μ‹ μ΄ / ν™λ€,300000016,200000161,37.608537624988095,126.92957755507814
671,49,75485,μ‹ μ΄ FORESTAR(ν¬λ μ¤νƒ€),λ¨ν…”,motel,55000,0,β†μ „ κ°μ‹¤ λ„·ν”λ¦­μ¤ μ‹μ²­β†,μ„μΈ,μ„λ€λ¬Έ / λ§ν¬ / μ‹ μ΄ / ν™λ€,300000016,200000161,37.5570993,126.9379174
672,50,68848,μ‹ μ΄ μ• λ‹νƒ€μ„,λ¨ν…”,motel,50000,0,,μ„μΈ,μ„λ€λ¬Έ / λ§ν¬ / μ‹ μ΄ / ν™λ€,300000016,200000161,37.5566129,126.9380592
673,51,81862,μ‹ μ΄ λ„λ²„25 μ‹ μ΄μ ,λ¨ν…”,motel,45000,60000,β¨κ°€μ„±λΉ„ μµκ³ β¨μ „κ°μ‹¤ UHD TV & λ„·ν”λ¦­μ¤,μ„μΈ,μ„λ€λ¬Έ / λ§ν¬ / μ‹ μ΄ / ν™λ€,300000016,200000161,37.5534257,126.9362874
674,52,82957,μ„μΈ μ‹ μ΄μ„κ³ μΈνΈμ¤ν…”,νμ…,pension,190000,190000,,μ„μΈ,μ„λ€λ¬Έ / λ§ν¬ / μ‹ μ΄ / ν™λ€,300000016,200000161,37.5570218209475,126.941600641677
675,53,66812,μ‹ μ΄ HIP,λ¨ν…”,motel,0,0,,μ„μΈ,μ„λ€λ¬Έ / λ§ν¬ / μ‹ μ΄ / ν™λ€,300000016,200000161,37.5569811,126.9413608
676,54,75935,μ‹ μ΄ νΈν…” λ°€ν•μ°μ¤(MILLHAUS),λ¨ν…”,motel,80000,0,κ°μ‹¤νƒ€μ…λ° μμ©μΈμ› μ•λ‚΄,μ„μΈ,μ„λ€λ¬Έ / λ§ν¬ / μ‹ μ΄ / ν™λ€,300000016,200000161,37.5563724,126.93794320000006
677,55,67838,λ¶κ΄‘ M&A,λ¨ν…”,motel,45000,0,οΌκ°μ‹¤ ε…§ ν”Όλ΅λ¥Ό μ‹Ή ν’€μ–΄μ¤„ μ•λ§μμ κµ¬λΉ„,μ„μΈ,μ„λ€λ¬Έ / λ§ν¬ / μ‹ μ΄ / ν™λ€,300000016,200000161,37.6095441,126.9299748
