,index,code,name,grade,type,d_price,price,benefit,region_L,region_S,code_L,code_S,lat,lon
0,0,82811,울산 중구 브라운도트 울산학산점,모텔,motel,60000,0,,울산,남구 / 삼산 / 중구 / 성남,300000023,200000253,35.55735942780486,129.32737885229358
1,1,69668,울산 삼산 판도라호텔,모텔,motel,65000,0,❤️스위트 & 프리미엄 특가 이벤트 중❤️,울산,남구 / 삼산 / 중구 / 성남,300000023,200000253,35.5389006,129.3496663
2,2,70268,롯데 시티호텔 울산,3성급,hotel,92070,92070,,울산,남구 / 삼산 / 중구 / 성남,300000023,200000253,35.537553,129.329718
3,3,69987,롯데 호텔 울산,5성급,hotel,174240,174240,,울산,남구 / 삼산 / 중구 / 성남,300000023,200000253,35.538373,129.338244
4,4,70219,신라스테이 울산,호텔,hotel,99000,99000,"♥ 간절곶 해돋이 2인, 3인, 4인 패키지 출시♥",울산,남구 / 삼산 / 중구 / 성남,300000023,200000253,35.537487,129.329265
5,5,87097,울산 커스텀호텔,호텔,hotel,95000,320000,,울산,남구 / 삼산 / 중구 / 성남,300000023,200000253,35.540321,129.349577
6,6,76122,호텔 다움,2성급,hotel,65000,65000,,울산,남구 / 삼산 / 중구 / 성남,300000023,200000253,35.567017,129.34149
7,7,78702,브라운도트 장생포항구점,호텔,hotel,60000,60000,,울산,남구 / 삼산 / 중구 / 성남,300000023,200000253,35.502733,129.377258
8,8,74122,스타즈 호텔 울산,3성급,hotel,65000,65000,★조식PKG OPEN★,울산,남구 / 삼산 / 중구 / 성남,300000023,200000253,35.540164,129.347413
9,9,74313,울산 리버사이드호텔,호텔,hotel,87500,399000,,울산,남구 / 삼산 / 중구 / 성남,300000023,200000253,35.553308,129.317684
10,10,76029,울산 시티호텔,호텔,hotel,85000,180000,,울산,남구 / 삼산 / 중구 / 성남,300000023,200000253,35.53828,129.334079
11,11,82072,울산 에쉬튼 호텔,3성급,hotel,80000,160000,,울산,남구 / 삼산 / 중구 / 성남,300000023,200000253,35.539878,129.311083
12,12,82951,판도라호텔,호텔,hotel,65000,90000,추석 맞이 객실 up 이벤트 진행중,울산,남구 / 삼산 / 중구 / 성남,300000023,200000253,35.538911,129.349652
13,13,76641,브라운도트 울산 삼산점,호텔,hotel,80000,100000,,울산,남구 / 삼산 / 중구 / 성남,300000023,200000253,35.540597,129.350041
14,14,74495,호텔 여우비 울산점,호텔,hotel,70000,70000,,울산,남구 / 삼산 / 중구 / 성남,300000023,200000253,35.539287,129.349615
15,15,75882,울산 H호텔,1성급,hotel,55000,55000,,울산,남구 / 삼산 / 중구 / 성남,300000023,200000253,35.540672,129.340274
16,16,87403,울산 삼산 H Avenue 울산삼산점,모텔,motel,75000,0,,울산,남구 / 삼산 / 중구 / 성남,300000023,200000253,35.54068891383283,129.35101532089556
17,17,86122,울산 삼산 CUSTOM HOTEL(커스텀 호텔),모텔,motel,75000,0,2022.5월 Grand Open ❣️ 전기차 충전가능,울산,남구 / 삼산 / 중구 / 성남,300000023,200000253,35.54029828743593,129.34959502951565
18,18,80545,울산 삼산 호텔 그랜드젬,모텔,motel,55000,0,넷플릭스 시청가능/ 고사양2 PC객실보유,울산,남구 / 삼산 / 중구 / 성남,300000023,200000253,35.5403143,129.3505774
19,20,93748,울산 무거동 도안 스테이 호텔,모텔,motel,49900,0,,울산,남구 / 삼산 / 중구 / 성남,300000023,200000253,35.54937150895646,129.26087946457204
20,21,82274,울산 달동 넘버25 울산번영로점(현대해상사거리 인근),모텔,motel,70000,0,전객실 넷플릭스 시청가능 ! 세스코방역 ! 스타벅스 원두커피 제공 !,울산,남구 / 삼산 / 중구 / 성남,300000023,200000253,35.53730580964124,129.32955228438607
21,23,76079,울산 성남동 효성,모텔,motel,35000,0,포인트 적립 EVENT!,울산,남구 / 삼산 / 중구 / 성남,300000023,200000253,35.5537609,129.31568170000003
22,24,88693,울산 무거동 샾,모텔,motel,0,0,,울산,남구 / 삼산 / 중구 / 성남,300000023,200000253,35.549780197250634,129.26039984456926
23,25,84361,울산 삼산 다크호스,모텔,motel,55000,0,,울산,남구 / 삼산 / 중구 / 성남,300000023,200000253,35.540291303364064,129.34983572712088
24,26,76400,울산 장생포 브라운도트 장생포항구점,모텔,motel,60000,0,,울산,남구 / 삼산 / 중구 / 성남,300000023,200000253,35.5027632,129.377292
25,27,68418,울산 삼산 호텔 자라,모텔,motel,50000,0,,울산,남구 / 삼산 / 중구 / 성남,300000023,200000253,35.5393067,129.3490398
26,28,76427,울산 삼산 브라운도트 울산삼산점,모텔,motel,70000,0,# 주차 # 셀프 기계식 주차장 # 야외주차장#,울산,남구 / 삼산 / 중구 / 성남,300000023,200000253,35.540597,129.35004070000002
27,29,73519,울산 신정동 호텔109,모텔,motel,45000,0,,울산,남구 / 삼산 / 중구 / 성남,300000023,200000253,35.5478702,129.3095969
28,30,67460,울산 삼산 FF,모텔,motel,40000,0,,울산,남구 / 삼산 / 중구 / 성남,300000023,200000253,35.5409483,129.3411854
29,31,74264,울산 무거동 G&G,모텔,motel,60000,0,,울산,남구 / 삼산 / 중구 / 성남,300000023,200000253,35.549367,129.26202039999998
30,32,76530,울산 무거동 타임,모텔,motel,55000,0,,울산,남구 / 삼산 / 중구 / 성남,300000023,200000253,35.5480703,129.26064959999997
31,33,68370,울산 삼산 호텔 더클래식,모텔,motel,60000,0,"21년 7월 Grand Open, 최고급 시설로 맞이하겠습니다.",울산,남구 / 삼산 / 중구 / 성남,300000023,200000253,35.5404324,129.34112119999998
32,34,88391,울산 삼산 호텔 23°C,모텔,motel,60000,0,,울산,남구 / 삼산 / 중구 / 성남,300000023,200000253,35.54043315352615,129.34092026979337
33,35,69221,울산 성남동 V,모텔,motel,55000,0,"♥위생관리평가 최우수등급 업체, 탑차 주차 가능, 전객실 넷플릭스 시청 가능, 성남동 최고의 뷰♥",울산,남구 / 삼산 / 중구 / 성남,300000023,200000253,35.5532994,129.31725719999997
34,36,84686,울산 무거동 브라운도트 울산무거점,모텔,motel,75000,0,,울산,남구 / 삼산 / 중구 / 성남,300000023,200000253,35.551523350374,129.26022060319016
35,37,70516,울산 무거동 3.6.9,모텔,motel,65000,0,놓치지마세요! 조식서비스 오전 07:00~09:00까지 제공중!,울산,남구 / 삼산 / 중구 / 성남,300000023,200000253,35.549689,129.2621287
36,38,80084,울산 삼산 호텔 낭만스테이,모텔,motel,55000,0,❤결제시 즉시 사용가능한 선착순 쿠폰 제공❤,울산,남구 / 삼산 / 중구 / 성남,300000023,200000253,35.5404421,129.3413111
37,39,73509,울산 무거동 위드(with),모텔,motel,50000,0,❣무한대실 이벤트 진행❣,울산,남구 / 삼산 / 중구 / 성남,300000023,200000253,35.55142920016793,129.26045196015355
38,40,69722,울산 삼산 자바,모텔,motel,50000,0,무한대실이라 쓰고 낮숙박이라 부른다,울산,남구 / 삼산 / 중구 / 성남,300000023,200000253,35.5373643,129.3298853
39,41,79308,울산 삼산 티아라,모텔,motel,45000,45000,❤선착순쿠폰 최다배포& 넷플릭스 무료시청❤,울산,남구 / 삼산 / 중구 / 성남,300000023,200000253,35.5404445,129.3513459
40,42,75934,울산 삼산 소호102,모텔,motel,75000,0,오직 울산 삼산 소호102에서 즐기는 최대 1만원 할인쿠폰!✨,울산,남구 / 삼산 / 중구 / 성남,300000023,200000253,35.5409554,129.340835
41,43,66929,울산 중구 팰리스,모텔,motel,50000,0,숙박손님들 위한 무료간식코너,울산,남구 / 삼산 / 중구 / 성남,300000023,200000253,35.5561734,129.3313779
42,44,82078,울산 무거동 넘버25 울산무거점,모텔,motel,55000,0,,울산,남구 / 삼산 / 중구 / 성남,300000023,200000253,35.54968377409219,129.26259588876246
43,45,86085,울산 삼산 넘버25 울산삼산점,모텔,motel,50000,0,,울산,남구 / 삼산 / 중구 / 성남,300000023,200000253,35.54084001814386,129.3428167509004
44,46,80977,울산 삼산 호텔 여우비,모텔,motel,70000,0,,울산,남구 / 삼산 / 중구 / 성남,300000023,200000253,35.5392989,129.3494971
45,47,79217,울산 성남동 샛별,모텔,motel,45000,0,울산 최고사양 최신 PC를 성남동 중심가 숙소에서 즐길 수 있습니다.,울산,남구 / 삼산 / 중구 / 성남,300000023,200000253,35.5535232,129.3157407
46,48,72244,울산 삼산 코이(KOI) 호텔,모텔,motel,45000,0,,울산,남구 / 삼산 / 중구 / 성남,300000023,200000253,35.5408592,129.34244690000003
47,49,81794,울산 삼산 호텔 르이데아,모텔,motel,60000,0,☘️ 매일 선착순 할인 쿠폰 가져가세요 ღゝ◡╹)ノ♡ ☘️,울산,남구 / 삼산 / 중구 / 성남,300000023,200000253,35.5403285,129.3471283
48,50,69200,울산 삼산 일쏠레 호텔,모텔,motel,50000,0,✌  즉시 사용가능한 5천원 / 3천원 할인쿠폰 제공 - 할인받고 미리예약하세요  ☺,울산,남구 / 삼산 / 중구 / 성남,300000023,200000253,35.5404552,129.34149649999995
49,51,80775,울산 삼산 솜누스,모텔,motel,40000,0,,울산,남구 / 삼산 / 중구 / 성남,300000023,200000253,35.5402946,129.35107779999998
50,52,66732,울산 무거동 커플,모텔,motel,45000,0,☺낮숙박 진행중 -  ★최대 12시간 계좌이체 가능 ★야간 대실가능★,울산,남구 / 삼산 / 중구 / 성남,300000023,200000253,35.5498273,129.2612857
51,53,72571,울산 삼산 LA LUCE (라루체),모텔,motel,55000,0,❤최고급 침구류 교체~! 끓인라면 컵라면,울산,남구 / 삼산 / 중구 / 성남,300000023,200000253,35.5403698,129.3463024
52,54,70493,울산 삼산 도브,모텔,motel,50000,0,♣ 이용하자 프리미엄 객실 ! 안마의자 + 마사지 배드 구비 ♣,울산,남구 / 삼산 / 중구 / 성남,300000023,200000253,35.5392978,129.34886010000002
53,55,79977,울산 무거동 시카고,모텔,motel,70000,0,"단체손님 할인, 고급 침구 전면 교체, 한식 조식 제공, 무거동 최대 규모",울산,남구 / 삼산 / 중구 / 성남,300000023,200000253,35.5482825,129.2614757
54,56,69341,울산 성남동 호텔마르,모텔,motel,50000,0,성남동 최초 전객실 ♥ 넷플릭스 ♥  시청가능!!,울산,남구 / 삼산 / 중구 / 성남,300000023,200000253,35.5551982,129.31912450000004
55,57,66877,울산 신정동 그랜드,모텔,motel,38000,0,최신 공기청정기 및 의류스타일러 비치,울산,남구 / 삼산 / 중구 / 성남,300000023,200000253,35.53960440113101,129.31388225197065
56,58,88690,울산 신정동 은유장,모텔,motel,0,0,,울산,남구 / 삼산 / 중구 / 성남,300000023,200000253,35.54836335859751,129.30929087987835
57,59,69670,울산 신정동 비너스,모텔,motel,40000,0,,울산,남구 / 삼산 / 중구 / 성남,300000023,200000253,35.5312239,129.3067981
58,60,76391,울산 달동 넘버25 울산시청점,모텔,motel,50000,0,무한대실 / 조식제공,울산,남구 / 삼산 / 중구 / 성남,300000023,200000253,35.5354869,129.31477570000004
59,61,72683,울산 삼산 테라9,모텔,motel,50000,0,,울산,남구 / 삼산 / 중구 / 성남,300000023,200000253,35.5403116,129.35004049999998
60,62,73072,울산 성남동 브라운도트,모텔,motel,60000,0,전 객실 넷플릭스 시청가능,울산,남구 / 삼산 / 중구 / 성남,300000023,200000253,35.5543988,129.31863250000004
61,63,74735,울산 중구 타임,모텔,motel,50000,0,⛲ 즉시 할인 가능한 최~대 1만원 쿠폰 제공 ! ⛲,울산,남구 / 삼산 / 중구 / 성남,300000023,200000253,35.5565547,129.3270354
62,64,78310,울산 중구 넘버25 울산학산점,모텔,motel,45000,0,"⭐️ 노하드 최고사양 PC / 전객실 넷플릭스 시청,디즈니+ ⭐️",울산,남구 / 삼산 / 중구 / 성남,300000023,200000253,35.5579899,129.3254614
63,65,74420,울산 달동 호텔플레이 2호점(현대백화점 인근),모텔,motel,47000,0,,울산,남구 / 삼산 / 중구 / 성남,300000023,200000253,35.5391956,129.33388300000001
64,66,79117,울산 달동 호텔플레이 1호점,모텔,motel,45000,0,,울산,남구 / 삼산 / 중구 / 성남,300000023,200000253,35.5370942,129.3300388
65,67,68866,울산 달동 카라,모텔,motel,50000,40000,,울산,남구 / 삼산 / 중구 / 성남,300000023,200000253,35.53957914,129.328160179
66,68,70438,울산 삼산 64INN HOTEL,모텔,motel,0,0,,울산,남구 / 삼산 / 중구 / 성남,300000023,200000253,35.5483123,129.33040470000003
67,69,73160,울산 삼산 아마레호텔,모텔,motel,50000,0,매일 매일 1만원 쿠폰제공❤,울산,남구 / 삼산 / 중구 / 성남,300000023,200000253,35.5375637,129.33733459999996
68,70,90335,울산 삼산 파로스,모텔,motel,50000,0,,울산,남구 / 삼산 / 중구 / 성남,300000023,200000253,35.54047084749619,129.34837627489944
69,71,70407,울산 삼산 H호텔,모텔,motel,55000,0,"위생평가등급 최우수,전 객실 넷플릭스 시청,조식제공(주말.공휴일 제외) ,롯데 사거리에서 50 m위치",울산,남구 / 삼산 / 중구 / 성남,300000023,200000253,35.5406717,129.34027390000006
70,72,67932,울산 중구 JB 디자인호텔,모텔,motel,50000,0,❤간식 코너 서비스 제공❤,울산,남구 / 삼산 / 중구 / 성남,300000023,200000253,35.5561608,129.3310669
71,73,70541,울산 신정동 BANDI,모텔,motel,50000,0,"코로나 집중 예방을 위해, 방역과 소독에 최선을 다하고 있습니다.",울산,남구 / 삼산 / 중구 / 성남,300000023,200000253,35.5345839,129.3128533
72,74,79220,울산 성남동 휴,모텔,motel,50000,0,,울산,남구 / 삼산 / 중구 / 성남,300000023,200000253,35.5535668,129.3161132
73,75,73063,울산 무거동 M,모텔,motel,0,0,,울산,남구 / 삼산 / 중구 / 성남,300000023,200000253,35.5504056,129.26095540000006
74,76,73279,울산 달동 도안 스테이 호텔,모텔,motel,60000,0,,울산,남구 / 삼산 / 중구 / 성남,300000023,200000253,35.538394,129.3296153
75,77,76714,울산 삼산 큐,모텔,motel,50000,0,,울산,남구 / 삼산 / 중구 / 성남,300000023,200000253,35.539257426721505,129.34927649080737
76,78,69632,울산 삼산 YAM 울산삼산점 (태화강 인근),모텔,motel,44000,0,,울산,남구 / 삼산 / 중구 / 성남,300000023,200000253,35.5389693,129.3511578
77,79,82322,울산 중구 라파즈 무인텔,모텔,motel,70000,0,전 객실 넷플릭스 시청가능,울산,남구 / 삼산 / 중구 / 성남,300000023,200000253,35.556271140489955,129.32474150589388
78,80,84212,울산 삼산 호텔마르,모텔,motel,50000,0,고급 엘리베이터 교체 완료~ 안전하게 이용하세요,울산,남구 / 삼산 / 중구 / 성남,300000023,200000253,35.5390004977977,129.3493895650849
79,81,66725,울산 달동 미,모텔,motel,43000,0,,울산,남구 / 삼산 / 중구 / 성남,300000023,200000253,35.5377419,129.33347819999994
80,82,67738,울산 무거동 10월,모텔,motel,40000,0,,울산,남구 / 삼산 / 중구 / 성남,300000023,200000253,35.5503207,129.26120960000003
81,83,69424,울산 삼산 알리바바 HOTEL,모텔,motel,50000,0,,울산,남구 / 삼산 / 중구 / 성남,300000023,200000253,35.5393576,129.351274
82,84,66967,울산 삼산 루이,모텔,motel,44000,0,도보특가 평일 숙박 3만5천원~❤️,울산,남구 / 삼산 / 중구 / 성남,300000023,200000253,35.5409341,129.34136590000003
83,85,73397,울산 신정동 마릴린,모텔,motel,50000,0,최대 12시간 낮숙박 & 선착순 쿠폰 제공,울산,남구 / 삼산 / 중구 / 성남,300000023,200000253,35.5350476,129.313509
84,86,68851,울산 삼산 E,모텔,motel,35000,0,간식 및 세탁서비스 제공,울산,남구 / 삼산 / 중구 / 성남,300000023,200000253,35.5392367,129.34829130000003
85,87,72341,울산 삼산 YTT,모텔,motel,50000,0,"✨삼산 YTT, 게릴라 숙박 초특가 EVENT✨",울산,남구 / 삼산 / 중구 / 성남,300000023,200000253,35.5383495,129.3365656
86,88,80783,울산 삼산 명품 코보스,모텔,motel,55000,0,!숙박 & 컴퓨터 게임 & 넷플릭스까지 즐기세요!,울산,남구 / 삼산 / 중구 / 성남,300000023,200000253,35.54032499579553,129.34920290196163
87,89,80227,울산 삼산 호텔 라온,모텔,motel,45000,0,"신축 Open 특가, 스낵바, 공기청정기, 고사양 PC 등 구비하여 최고의 하루를 보낼 수 있도록 준비되어 있습니다.",울산,남구 / 삼산 / 중구 / 성남,300000023,200000253,35.540944,129.3435006
88,90,67780,울산 삼산 디자인T,모텔,motel,60000,0,"RTX2080 PC, 240Hz 모니터, i7-9세대, 넷플릭스 시청가능, 셀프세탁방,베스트후기무료숙박권,T-box를 드립니다",울산,남구 / 삼산 / 중구 / 성남,300000023,200000253,35.5403306,129.34854059999998
89,91,79168,울산 삼산 바이오,모텔,motel,45000,0,"전 객실 65인치 스마트 TV (유튜브, 넷플릭스 등 이용가능)",울산,남구 / 삼산 / 중구 / 성남,300000023,200000253,35.5404573,129.342048
90,92,74012,울산 무거동 2Night (투나잇),모텔,motel,65000,0,"❣️i7 9700k RTX 2080, 밴큐 모니터 240Hz❣️ / Tj 노래방 24시까지 운영/18시 이후 대실이용시간 3시간 이용가능/맛있는 간식 제공",울산,남구 / 삼산 / 중구 / 성남,300000023,200000253,35.55132613553647,129.26066697976228
91,93,73920,울산 중구 제우스,모텔,motel,55000,0,,울산,남구 / 삼산 / 중구 / 성남,300000023,200000253,35.5604128,129.3450467
92,94,67792,울산 삼산 쿠,모텔,motel,40000,0,"PC방 가지마시고, 고사양 게임 즐기러오세요~",울산,남구 / 삼산 / 중구 / 성남,300000023,200000253,35.538288,129.33610870000007
93,95,80519,울산 삼산 팬,모텔,motel,40000,0,,울산,남구 / 삼산 / 중구 / 성남,300000023,200000253,35.5403354,129.3385834
94,96,66905,울산 삼산 더샵,모텔,motel,40000,0,,울산,남구 / 삼산 / 중구 / 성남,300000023,200000253,35.5488359,129.3238073
95,97,82584,울산 무거동 산드라,모텔,motel,0,0,,울산,남구 / 삼산 / 중구 / 성남,300000023,200000253,35.550080846346276,129.26052302871483
96,98,67499,울산 삼산 VIP,모텔,motel,45000,60000,,울산,남구 / 삼산 / 중구 / 성남,300000023,200000253,35.5403631,129.3467385
97,99,84430,울산 달동 YAM 울산삼산2호점 (롯데백화점 인근),모텔,motel,50000,0,❤️삼산 최고의 위치❤️,울산,남구 / 삼산 / 중구 / 성남,300000023,200000253,35.537688139550475,129.3332102860071
98,100,89284,울산 달동 별궁,모텔,motel,0,0,,울산,남구 / 삼산 / 중구 / 성남,300000023,200000253,35.53489805114558,129.31465384801103
99,101,79213,울산 성남동 타워힐,모텔,motel,30000,35000,★ 주차 사전문의 필수 ★,울산,남구 / 삼산 / 중구 / 성남,300000023,200000253,35.55358139999999,129.3153567
100,102,73247,울산 중구 씨씨 (CC),모텔,motel,45000,45000,,울산,남구 / 삼산 / 중구 / 성남,300000023,200000253,35.5565472,129.3303469
101,103,67495,"울산 달동 호텔 H2 (구, YAJA 울산달동점)",모텔,motel,50000,0,전 객실 넷플릭스 디즈니플러스및 ott설치 65인치TV로 시청가능,울산,남구 / 삼산 / 중구 / 성남,300000023,200000253,35.53915347415164,129.3336794309186
102,104,79356,울산 신정동 익산,모텔,motel,35000,0,,울산,남구 / 삼산 / 중구 / 성남,300000023,200000253,35.53426839999999,129.3105459
103,105,77487,울산 신정동 캐슬,모텔,motel,40000,0,,울산,남구 / 삼산 / 중구 / 성남,300000023,200000253,35.53885037710081,129.3137925005968
104,106,77756,울산 삼산 슈가,모텔,motel,39000,37000,,울산,남구 / 삼산 / 중구 / 성남,300000023,200000253,35.5384119,129.3360758
105,107,67412,울산 삼산 휴n,모텔,motel,45000,0,,울산,남구 / 삼산 / 중구 / 성남,300000023,200000253,35.5376999,129.33757689999993
106,108,78003,울산 삼산 호텔 치즈,모텔,motel,52000,0,❤️넷플릭스는 개인계정 이용/ 연박비 평일무료(디럭스객실 제외) ❤️,울산,남구 / 삼산 / 중구 / 성남,300000023,200000253,35.5403747,129.34549590000006
107,109,69710,울산 삼산 터마루,모텔,motel,35000,35000,,울산,남구 / 삼산 / 중구 / 성남,300000023,200000253,35.5484288,129.3272422
108,110,76853,울산 64 inn hotel,호텔,hotel,0,0,,울산,남구 / 삼산 / 중구 / 성남,300000023,200000253,35.548317,129.330409
109,111,67689,울산 삼산 블루,모텔,motel,46000,45000,5천원 객실 할인 쿠폰 제공 + 50%쿠폰 제공,울산,남구 / 삼산 / 중구 / 성남,300000023,200000253,35.5383141,129.3350573
110,112,76547,울산 달동 7(세븐),모텔,motel,50000,0,,울산,남구 / 삼산 / 중구 / 성남,300000023,200000253,35.5410143,129.32755729999997
111,113,75752,울산 무거동 명성,모텔,motel,35000,0,,울산,남구 / 삼산 / 중구 / 성남,300000023,200000253,35.5502289,129.26043930000003
112,114,84756,울산 달동 뷰,모텔,motel,50000,0,,울산,남구 / 삼산 / 중구 / 성남,300000023,200000253,35.53794108922093,129.33294135620721
113,115,84463,울산 중구 대원장,모텔,motel,38000,37000,,울산,남구 / 삼산 / 중구 / 성남,300000023,200000253,35.569730550654256,129.3456406019855
114,116,70456,울산 무거동 XYM,모텔,motel,40000,0,포토 후기 이벤트,울산,남구 / 삼산 / 중구 / 성남,300000023,200000253,35.5492796,129.2611315
115,117,68891,울산 중구 유투,모텔,motel,50000,0,,울산,남구 / 삼산 / 중구 / 성남,300000023,200000253,35.557470972,129.340675366
116,118,84379,울산 달동 리츠모텔,모텔,motel,35000,0,,울산,남구 / 삼산 / 중구 / 성남,300000023,200000253,35.535643038254875,129.31831379915388
117,119,84461,울산 삼산 99,모텔,motel,0,0,,울산,남구 / 삼산 / 중구 / 성남,300000023,200000253,35.53476627372506,129.34145088481563
118,120,84349,울산 신정동 램넌트 게스트하우스,모텔,motel,23000,0,,울산,남구 / 삼산 / 중구 / 성남,300000023,200000253,35.53943236196189,129.30845598468733
119,121,74580,울산 무거동 아람,모텔,motel,45000,0,,울산,남구 / 삼산 / 중구 / 성남,300000023,200000253,35.550637,129.2612923
120,122,86573,부산 플라야펜션,펜션,pension,0,0,,울산,남구 / 삼산 / 중구 / 성남,300000023,200000253,35.1515690750691,129.116665275028
121,123,81902,울산 삼산 베르사이유,모텔,motel,0,0,,울산,남구 / 삼산 / 중구 / 성남,300000023,200000253,35.5411899,129.3399528
122,124,84345,울산 달동 골든파크,모텔,motel,40000,0,,울산,남구 / 삼산 / 중구 / 성남,300000023,200000253,35.539169573835125,129.33206659735586
123,125,98534,울산 달동 리츠 RITZ,모텔,motel,33000,0,,울산,남구 / 삼산 / 중구 / 성남,300000023,200000253,35.53832514332269,129.3292561242156
124,126,81819,울산 삼산 2YOU (투유),모텔,motel,50000,0,,울산,남구 / 삼산 / 중구 / 성남,300000023,200000253,35.5372324,129.3364477
125,127,94658,울산 삼산 샵,모텔,motel,0,0,,울산,남구 / 삼산 / 중구 / 성남,300000023,200000253,35.53909881057973,129.34826103200254
126,128,91120,울산 삼산 비앤비,모텔,motel,37000,45000,,울산,남구 / 삼산 / 중구 / 성남,300000023,200000253,35.54030057769227,129.34342510641935
127,129,84383,울산 신정동 석수장,모텔,motel,40000,40000,,울산,남구 / 삼산 / 중구 / 성남,300000023,200000253,35.53293379961495,129.30812467391382
128,130,84368,울산 달동 마몽드,모텔,motel,35000,35000,,울산,남구 / 삼산 / 중구 / 성남,300000023,200000253,35.53760121704666,129.3139245676783
129,131,98932,호텔 루바토 울산중구학성점,호텔,hotel,80000,80000,,울산,남구 / 삼산 / 중구 / 성남,300000023,200000253,35.555902164765364,129.3357213545699
130,132,75753,울산 중구 베니스,모텔,motel,45000,0,,울산,남구 / 삼산 / 중구 / 성남,300000023,200000253,35.5571211,129.3416082
131,133,95064,울산 달빛은하수펜션,펜션,pension,39000,39000,,울산,남구 / 삼산 / 중구 / 성남,300000023,200000253,35.5484469169461,129.309075434058
132,134,68869,울산 달동 스카이,모텔,motel,45000,0,,울산,남구 / 삼산 / 중구 / 성남,300000023,200000253,35.5384252,129.32981159999997
133,135,68881,울산 삼산 리버,모텔,motel,30000,0,,울산,남구 / 삼산 / 중구 / 성남,300000023,200000253,35.5359694,129.31544600000007
134,136,88627,울산 신정동 뉴대영장,모텔,motel,35000,35000,,울산,남구 / 삼산 / 중구 / 성남,300000023,200000253,35.5481850333992,129.31057882721572
135,137,88984,울산 신정동 해인,모텔,motel,50000,0,,울산,남구 / 삼산 / 중구 / 성남,300000023,200000253,35.53247768746179,129.31029716931624
136,138,98815,울산 중구 호텔 루바토 울산학성점,모텔,motel,60000,0,,울산,남구 / 삼산 / 중구 / 성남,300000023,200000253,35.555902164765364,129.3357213545699
137,139,85764,울산 수연이네펜션,펜션,pension,250000,250000,,울산,남구 / 삼산 / 중구 / 성남,300000023,200000253,35.5569293159241,129.320035486496
138,0,82518,울산 일산 올레,모텔,motel,70000,0,❤️●안심하세요●❤️ OLLEH는 고객님이 머무르시는 시트 및 침구류를 항상 청결하게 소독하고 있습니다. 안심하고 편안하게 머무르세요.,울산,동구 / 북구 / 울주군,300000023,200000254,35.491480114070676,129.43169958605824
139,1,98095,울산 호반펜션(카라반&개별바비큐),펜션,pension,99000,150000,,울산,동구 / 북구 / 울주군,300000023,200000254,35.5349403259921,129.16620787054
140,2,70379,호텔현대 바이 라한 울산,4성급,hotel,99000,99000,,울산,동구 / 북구 / 울주군,300000023,200000254,35.51919,129.430335
141,3,77738,머큐어 앰배서더 울산,4성급,hotel,80750,80750,[금도끼딜] GOD딜 초특가 객실할인 제공 빠르게 예약해서 특전까지 잡자 !,울산,동구 / 북구 / 울주군,300000023,200000254,35.625581,129.441124
142,4,92366,울산 더반호텔,호텔,hotel,65000,100000,,울산,동구 / 북구 / 울주군,300000023,200000254,35.63424618242406,129.4417985243024
143,5,87647,키즈호텔 상상플레이 등억점,호텔,hotel,120000,240000,얼리 체크인,울산,동구 / 북구 / 울주군,300000023,200000254,35.555364,129.074337
144,6,78335,브라운도트 울산신천점,호텔,hotel,75000,100000,성수기 이벤트- Early C/I 2시간 제공,울산,동구 / 북구 / 울주군,300000023,200000254,35.636092,129.353427
145,7,78295,브라운도트 정자해수욕장점,호텔,hotel,60000,100000,7월 23~ 8월 27일까지 얼리체크인 불가,울산,동구 / 북구 / 울주군,300000023,200000254,35.630414,129.440429
146,8,98427,파빌라 호텔 울산 영남알프스점,호텔,hotel,130000,400000,,울산,동구 / 북구 / 울주군,300000023,200000254,35.5560607439512,129.07334346604293
147,9,98626,울산 솔레이 힐링 관광호텔,호텔,hotel,109000,330000,2023년 4월 GRAND OPEN,울산,동구 / 북구 / 울주군,300000023,200000254,35.62677186511252,129.4407133872695
148,10,88553,울산 진하 브라운도트 진하해수욕장점,모텔,motel,70000,0,,울산,동구 / 북구 / 울주군,300000023,200000254,35.38747706648756,129.34516129670922
149,11,98009,울산 영남알프스 케렌시아,모텔,motel,50000,0,,울산,동구 / 북구 / 울주군,300000023,200000254,35.554682809789234,129.0699387991987
150,12,91090,울산 미므미므풀빌라,펜션,pension,399000,419000,,울산,동구 / 북구 / 울주군,300000023,200000254,35.3849129849335,129.34664857993
151,13,89513,울산 유비즈스테이kcc레지던스펜션,펜션,pension,290000,290000,,울산,동구 / 북구 / 울주군,300000023,200000254,35.6262420218357,129.441102413201
152,14,88424,울산 애플망고펜션앤카라반,펜션,pension,120000,120000,,울산,동구 / 북구 / 울주군,300000023,200000254,35.3684798656062,129.353285711889
153,15,81157,울산 울주군 선피크,모텔,motel,35000,38000,,울산,동구 / 북구 / 울주군,300000023,200000254,35.6183909,129.0466043
154,16,88503,울산 온산 루센트,모텔,motel,0,0,,울산,동구 / 북구 / 울주군,300000023,200000254,35.43600778307836,129.31020894075235
155,17,73212,울산 영남알프스 블루탱,모텔,motel,50000,0,"욕조 갖춘 객실 찾는다면♥ 전 객실 PC, 전자레인지, 포트 완비",울산,동구 / 북구 / 울주군,300000023,200000254,35.5555901,129.0745734
156,18,85558,울산 KTX역 브라운도트 울산KTX역점,모텔,motel,0,0,,울산,동구 / 북구 / 울주군,300000023,200000254,35.54763219611494,129.1389102488853
157,19,76350,울산 선펜션,펜션,pension,180000,180000,,울산,동구 / 북구 / 울주군,300000023,200000254,35.3451294531,129.3209824434
158,20,71626,울산 간절곶뷰펜션,펜션,pension,0,0,,울산,동구 / 북구 / 울주군,300000023,200000254,35.3585122,129.3430406
159,21,92175,울산 정자동 더반 호텔,모텔,motel,54900,0,2023 2월 Grand open ! ! 전객실 오션뷰 or 넷플릭스 무료 시청가능,울산,동구 / 북구 / 울주군,300000023,200000254,35.6341717,129.44182990000002
160,22,68893,울산 영남알프스 무인텔 휴,모텔,motel,50000,0,"숙박 고객 대상 컵라면, 음료 증정 이벤트",울산,동구 / 북구 / 울주군,300000023,200000254,35.55295987284519,129.0763029210791
161,23,86095,울산 히든빌풀빌라,펜션,pension,475000,500000,,울산,동구 / 북구 / 울주군,300000023,200000254,35.6136694479666,129.450618933715
162,24,92968,울산 라포레소호글램핑,펜션,pension,0,0,,울산,동구 / 북구 / 울주군,300000023,200000254,35.6694856151657,129.08115428673
163,25,72242,울산 KTX역 제이드,모텔,motel,60000,0,"전객실 넷플릭스 이용가능, 롤.배그 가능",울산,동구 / 북구 / 울주군,300000023,200000254,35.5469666,129.13908249999997
164,26,87570,울산 방어진 그랜드젬,모텔,motel,60000,0,#세스코 방역 및 소독 안심존  #매일 자체소독 #세균제로,울산,동구 / 북구 / 울주군,300000023,200000254,35.4871929555581,129.42139396963188
165,27,76356,울산 간절곶 온더웨이브 호텔,모텔,motel,84000,0,❤22.05 신축 GRAND OPEN !❤,울산,동구 / 북구 / 울주군,300000023,200000254,35.3561038,129.3503536
166,28,98191,울산 솔레이호텔풀빌라,펜션,pension,109000,220000,,울산,동구 / 북구 / 울주군,300000023,200000254,35.6267723820367,129.440706021945
167,29,83932,울산 일산 나무늘보,모텔,motel,50000,0,무더운 여름 고객님들의 시원함을 충족시켜드리겠습니다!,울산,동구 / 북구 / 울주군,300000023,200000254,35.49282677345214,129.43002285905564
168,30,77731,울산 다온풀빌라,펜션,pension,150000,150000,,울산,동구 / 북구 / 울주군,300000023,200000254,35.6182653285,129.0644094388
169,31,77682,울산 신천동 브라운도트 울산신천점,모텔,motel,70000,0,★위생관리등급 최우수(녹색)등급 획득 / 전 객실 공기청정기 비치★,울산,동구 / 북구 / 울주군,300000023,200000254,35.63705425030187,129.353573273233
170,32,73921,울산 정자동 화이트스완,모텔,motel,0,0,"오션뷰(VIP,디럭스룸) 넷플릭스 시청 -단골 손님을 위한 적립 이벤트!!!",울산,동구 / 북구 / 울주군,300000023,200000254,35.6274966,129.43967150000003
171,33,92904,울산 정자동 솔레이 힐링 관광호텔,모텔,motel,99000,0,#GRAND OPEN ! ! !,울산,동구 / 북구 / 울주군,300000023,200000254,35.62677186511252,129.4407133872695
172,34,76460,울산 방어진 콜,모텔,motel,0,0,방어진 콜 OPEN 특가 EVENT!!,울산,동구 / 북구 / 울주군,300000023,200000254,35.48470349999999,129.42207039999994
173,35,72930,울산 영남알프스 NEW JB 무인텔,모텔,motel,0,0,✨22년 11월 1일 부터 이용요금이 소폭 인상되었습니다.✨,울산,동구 / 북구 / 울주군,300000023,200000254,35.552542284479095,129.0767912805548
174,36,76345,울산 호계 더 베스트,모텔,motel,60000,0,✌더 베스트에서 만나는 특별할인쿠폰!✌,울산,동구 / 북구 / 울주군,300000023,200000254,35.62851360000001,129.34456580000005
175,37,72680,울산 락펜션,펜션,pension,70000,70000,,울산,동구 / 북구 / 울주군,300000023,200000254,35.6165767565,129.0427365313
176,38,75536,울산 진장동 삼성장 호텔,모텔,motel,60000,0,조식 제공 안내!,울산,동구 / 북구 / 울주군,300000023,200000254,35.5690091,129.3593805
177,39,70993,울산 까사까미노펜션,펜션,pension,100000,100000,,울산,동구 / 북구 / 울주군,300000023,200000254,35.577958491706,129.452307375154
178,40,80983,울산 일산 프렌치코드,모텔,motel,50000,0,❤프렌치코드에선 배고픔 걱정~NO❤,울산,동구 / 북구 / 울주군,300000023,200000254,35.4935146,129.42894569999999
179,41,74268,울산 진장동 히든베이,모텔,motel,55000,0,✨전객실 넷플릭스  서비스/무료 최신영화 / 65인치 대형 TV / 비데 / 고데기 / 욕조설치✨,울산,동구 / 북구 / 울주군,300000023,200000254,35.5693373,129.3589501
180,42,82514,울산 영남알프스 키즈호텔 상상플레이,모텔,motel,130000,0,얼리 체크인 이벤트(주중 숙박 15시 입실),울산,동구 / 북구 / 울주군,300000023,200000254,35.55535430926622,129.0743445772521
181,43,72652,울산 영남알프스 라헬,모텔,motel,40000,0,넷플릭스 시네 영화 시청 가능,울산,동구 / 북구 / 울주군,300000023,200000254,35.5538552,129.0798193
182,44,69741,울산 영남알프스 인투(INTO),모텔,motel,60000,0,리뉴얼 오픈 기념 할인!,울산,동구 / 북구 / 울주군,300000023,200000254,35.553604,129.07440959999997
183,45,79111,울산 진장동 K2,모텔,motel,55000,0,,울산,동구 / 북구 / 울주군,300000023,200000254,35.5685904,129.3579837
184,46,73383,울산 KTX역 호텔포스,모텔,motel,60000,0,⭕ 넷플릭스✔️디즈니✔️웨이브✔️티빙 ⭕ 무료이용 ➰,울산,동구 / 북구 / 울주군,300000023,200000254,35.5483958,129.14202220000004
185,47,74800,울산 영남알프스 잠자리,모텔,motel,60000,0,,울산,동구 / 북구 / 울주군,300000023,200000254,35.5535801,129.0754646
186,48,72743,울산 영남알프스 럭셔리호텔,모텔,motel,50000,0,✌숙박고객들에 한하여 고급브랜드 양말 및 컵라면 제공✌,울산,동구 / 북구 / 울주군,300000023,200000254,35.5536832,129.0695783
187,49,70439,울산 KTX역 1.2.3,모텔,motel,70000,0,,울산,동구 / 북구 / 울주군,300000023,200000254,35.5477835,129.13931679999996
188,51,75670,울산(소호) 하늘빛펜션(1객실 1바베큐장),펜션,pension,0,0,,울산,동구 / 북구 / 울주군,300000023,200000254,35.6880571997,129.085098676
189,52,72966,울산 울주군 베네,모텔,motel,40000,0,,울산,동구 / 북구 / 울주군,300000023,200000254,35.6176727,129.04738050000003
190,53,86589,울산 ST210펜션,펜션,pension,153000,170000,,울산,동구 / 북구 / 울주군,300000023,200000254,35.6100730520811,129.456679602021
191,54,83513,울산 비클래시키즈풀빌라펜션(덕현점),펜션,pension,168000,168000,,울산,동구 / 북구 / 울주군,300000023,200000254,35.6294755185483,129.051462111607
192,55,83768,울산 간절곶브랑누아펜션,펜션,pension,0,0,,울산,동구 / 북구 / 울주군,300000023,200000254,35.3490201518167,129.329283620347
193,56,78407,울산 영남알프스 더뱀부 호텔,모텔,motel,45000,0,더뱀부에서 제공하는 특별한 혜택,울산,동구 / 북구 / 울주군,300000023,200000254,35.55577412315508,129.07313125938572
194,57,88735,울산 스페스11풀빌라,펜션,pension,290000,290000,,울산,동구 / 북구 / 울주군,300000023,200000254,35.4863478622974,129.155219590876
195,58,82496,울산 간절곶수호천사펜션,펜션,pension,0,0,,울산,동구 / 북구 / 울주군,300000023,200000254,35.3590951730277,129.358906879685
196,59,70906,울산 간절곶AB펜션,펜션,pension,0,0,,울산,동구 / 북구 / 울주군,300000023,200000254,35.359453412611,129.35393373553
197,60,71358,울산 간절곶빨간펜션,펜션,pension,60000,60000,,울산,동구 / 북구 / 울주군,300000023,200000254,35.3603746181,129.3525305277
198,61,74690,울산 더테라스펜션,펜션,pension,83660,83660,,울산,동구 / 북구 / 울주군,300000023,200000254,35.6200967342,129.4451402772
199,62,67555,울산 KTX역 S,모텔,motel,60000,0,,울산,동구 / 북구 / 울주군,300000023,200000254,35.5474579,129.13950639999996
200,63,83983,울산 비클래시키즈풀빌라펜션(간절곶),펜션,pension,198000,198000,,울산,동구 / 북구 / 울주군,300000023,200000254,35.3562287899213,129.351821101741
201,64,75420,울산 진장동 그라운드7,모텔,motel,65000,0,"전 객실 넷플릭스 시청가능, 공기청정기 이용 가능❣ 평일 조식(주말 제외)까지 제공하는 그라운드7✨",울산,동구 / 북구 / 울주군,300000023,200000254,35.5699583,129.3590221
202,65,79924,울산 울주군 가지산히노끼 가족호텔,모텔,motel,0,0,리뷰 작성 이벤트,울산,동구 / 북구 / 울주군,300000023,200000254,35.6173634,129.0539092
203,66,77755,울산 진하 서라벌,모텔,motel,60000,0,,울산,동구 / 북구 / 울주군,300000023,200000254,35.38563680000001,129.3471872
204,67,72169,울산 KTX역 G&G,모텔,motel,60000,0,◆위생 관리 최우수 등급 업체/ 스타일러 구비 / 넷플릭스 가능◆,울산,동구 / 북구 / 울주군,300000023,200000254,35.5468716,129.1388616
205,68,81119,울산 영남알프스 무인텔 킹,모텔,motel,50000,0,2022년 10월 위생관리등급 최우수 선정,울산,동구 / 북구 / 울주군,300000023,200000254,35.556120657473535,129.07049018796252
206,69,80288,울산 라온펜션,펜션,pension,80000,80000,,울산,동구 / 북구 / 울주군,300000023,200000254,35.6339423824293,129.054035635372
207,70,93798,울산 파빌라영남알프스점,펜션,pension,110000,250000,,울산,동구 / 북구 / 울주군,300000023,200000254,35.5560607672981,129.073343419401
208,71,76628,울산 일산 윈,모텔,motel,50000,0,조식 운영 EVENT,울산,동구 / 북구 / 울주군,300000023,200000254,35.4911189,129.43190349999998
209,72,87818,"울산 간절곶간절그곳펜션(신축,스파)",펜션,pension,96000,120000,,울산,동구 / 북구 / 울주군,300000023,200000254,35.3600098640526,129.353080923219
210,73,80528,울산 진하 호텔 로렌토,모텔,motel,60000,0,,울산,동구 / 북구 / 울주군,300000023,200000254,35.38751523278211,129.34446098346712
211,74,66962,울산 영남알프스 더죤,모텔,motel,45000,0,"전객실 휴테크 안마의자 / 출장손님 多 /  소독, 병역은 기본",울산,동구 / 북구 / 울주군,300000023,200000254,35.5521784,129.0763938
212,76,67192,울산 일산 브이,모텔,motel,48000,0,일산지 최다 테마 객실 보유! 1만원 쿠폰제공!,울산,동구 / 북구 / 울주군,300000023,200000254,35.4901191,129.4325802
213,77,83655,울산 춤추는고래펜션,펜션,pension,0,0,,울산,동구 / 북구 / 울주군,300000023,200000254,35.5758783566897,129.452596085635
214,78,76053,울산 진장동 프리미어,모텔,motel,60000,0,,울산,동구 / 북구 / 울주군,300000023,200000254,35.5699128,129.35839199999998
215,79,78083,울산 영남알프스 샌디아온천,모텔,motel,30000,0,,울산,동구 / 북구 / 울주군,300000023,200000254,35.5538713,129.07390910000004
216,80,78723,울산 영남알프스 드메르 호텔,모텔,motel,50000,0,고객 감사 쿠폰 이벤트,울산,동구 / 북구 / 울주군,300000023,200000254,35.5542685,129.0710391
217,81,69224,울산 KTX역 더케이,모텔,motel,60000,0,♬셀프세탁실 + 전객실 전자레인지 +  픽업서비스♬,울산,동구 / 북구 / 울주군,300000023,200000254,35.5466673,129.14126220000003
218,82,72604,울산 영남알프스 발렌타인 온천,모텔,motel,50000,0,,울산,동구 / 북구 / 울주군,300000023,200000254,35.5531378,129.0750747
219,83,69740,울산 정자동 베니스,모텔,motel,45000,80000,,울산,동구 / 북구 / 울주군,300000023,200000254,35.6264958,129.44024660000002
220,84,75437,울산 영남알프스 MW,모텔,motel,40000,0,,울산,동구 / 북구 / 울주군,300000023,200000254,35.5522249,129.07532360000005
221,85,68884,울산 일산 호텔 MVG,모텔,motel,48000,0,#NETFLIX&씨네호텔 시청가능 #조식 #부티끄디자인 #최저가,울산,동구 / 북구 / 울주군,300000023,200000254,35.4905565,129.4330538
222,86,85419,울산 진장동 NEW E-STAY,모텔,motel,60000,0,,울산,동구 / 북구 / 울주군,300000023,200000254,35.5694889,129.3595128
223,87,77533,울산 아름펜션,펜션,pension,100000,100000,,울산,동구 / 북구 / 울주군,300000023,200000254,35.57987197445236,129.44865455581643
224,88,72174,울산 일산 루이스호텔,모텔,motel,45000,0,코로나19 이겨냅시다! 숙박요금 할인 이벤트,울산,동구 / 북구 / 울주군,300000023,200000254,35.4930267,129.4292554
225,89,71623,울산 간절곶해담은펜션,펜션,pension,60000,60000,,울산,동구 / 북구 / 울주군,300000023,200000254,35.3601297592,129.3528886098
226,90,67751,울산 일산 컨시드,모텔,motel,50000,70000,,울산,동구 / 북구 / 울주군,300000023,200000254,35.4908559,129.4321139
227,91,73814,울산 정자동 SOME HOTEL (썸) 정자해변점,모텔,motel,45000,0,,울산,동구 / 북구 / 울주군,300000023,200000254,35.6286529,129.43976
228,92,79575,울산 울주군 E,모텔,motel,34000,0,,울산,동구 / 북구 / 울주군,300000023,200000254,35.618141,129.0467987
229,93,86730,울산 일산 티롤,모텔,motel,40000,0,,울산,동구 / 북구 / 울주군,300000023,200000254,35.49405238552066,129.4276656171581
230,94,76447,울산 클럽33풀빌라,펜션,pension,0,0,,울산,동구 / 북구 / 울주군,300000023,200000254,35.6363375476935,129.056314071317
231,95,79603,울산 영남알프스 호텔 그레이 문,모텔,motel,50000,0,,울산,동구 / 북구 / 울주군,300000023,200000254,35.5538713,129.0739091
232,96,80524,울산 더케이콘도리조트,펜션,pension,50000,50000,,울산,동구 / 북구 / 울주군,300000023,200000254,35.3847853955048,129.34585541548
233,97,98974,울산 진장동 브라운도트 울산진장점,모텔,motel,60000,0,,울산,동구 / 북구 / 울주군,300000023,200000254,35.56930230243359,129.35971629849558
234,98,71830,울산 레지던스호텔블루오션뷰,펜션,pension,66000,66000,,울산,동구 / 북구 / 울주군,300000023,200000254,35.3842753,129.3459401
235,99,78418,울산 영남알프스 다조아,모텔,motel,50000,0,,울산,동구 / 북구 / 울주군,300000023,200000254,35.55384801817853,129.0797763817535
236,100,77929,울산 진하 별,모텔,motel,0,0,,울산,동구 / 북구 / 울주군,300000023,200000254,35.387313,129.34372940000003
237,101,72715,울산 진장동 노바,모텔,motel,50000,0,,울산,동구 / 북구 / 울주군,300000023,200000254,35.5692664,129.35996539999996
238,102,79870,울산 일산 호텔 먹자 닷컴,모텔,motel,60000,0,셀프 스낵바 24시 이용가능,울산,동구 / 북구 / 울주군,300000023,200000254,35.4935658,129.4284996
239,103,82935,울산 창밖을보라펜션,펜션,pension,80000,80000,,울산,동구 / 북구 / 울주군,300000023,200000254,35.5601164961683,129.020902069379
240,104,94125,울산 바담풀빌라,펜션,pension,80000,80000,,울산,동구 / 북구 / 울주군,300000023,200000254,35.3562259607763,129.35520831045
241,105,69433,울산 정자동 더힐,모텔,motel,50000,0,,울산,동구 / 북구 / 울주군,300000023,200000254,35.621456,129.44550449999997
242,106,79873,울산 일산 윈드힐,모텔,motel,55000,0,,울산,동구 / 북구 / 울주군,300000023,200000254,35.4911189,129.4319035
243,107,79934,울산(간절곶) 까르마레펜션,펜션,pension,117000,130000,,울산,동구 / 북구 / 울주군,300000023,200000254,35.3595924607245,129.334082490593
244,108,70976,울산 꿈꾸는바다펜션,펜션,pension,90000,90000,,울산,동구 / 북구 / 울주군,300000023,200000254,35.6121091,129.4574966
245,109,70955,울산 샌디아온천펜션,펜션,pension,45000,45000,,울산,동구 / 북구 / 울주군,300000023,200000254,35.5530394,129.0746247
246,110,82816,울산 파라다이스펜션(배내골),펜션,pension,99000,99000,,울산,동구 / 북구 / 울주군,300000023,200000254,35.5459430693985,129.012004094858
247,111,71355,울산(배내골) 언덕위에펜션,펜션,pension,72000,80000,,울산,동구 / 북구 / 울주군,300000023,200000254,35.5311966,129.0093842
248,112,83587,울산 진하 파라다이스,모텔,motel,50000,0,,울산,동구 / 북구 / 울주군,300000023,200000254,35.383851867885745,129.34509834667102
249,113,68883,울산 진하 유앤아이,모텔,motel,60000,0,,울산,동구 / 북구 / 울주군,300000023,200000254,35.384911,129.34594140000002
250,114,71677,울산 7년만의외출펜션,펜션,pension,50000,50000,,울산,동구 / 북구 / 울주군,300000023,200000254,35.4913138,129.4320616
251,115,72886,울산 영남알프스 알프스온천,모텔,motel,40000,0,,울산,동구 / 북구 / 울주군,300000023,200000254,35.5536039,129.07968389999996
252,116,77951,울산 영남알프스 브라보,모텔,motel,47000,0,,울산,동구 / 북구 / 울주군,300000023,200000254,35.55586,129.08701700000006
253,117,80866,울산 영남알프스 일루아,모텔,motel,50000,0,,울산,동구 / 북구 / 울주군,300000023,200000254,35.5539908,129.07918919999997
254,118,73903,울산 발렌타인온천펜션,펜션,pension,50000,50000,,울산,동구 / 북구 / 울주군,300000023,200000254,35.5531377001,129.0750744048
255,119,79646,울산 당사의아침펜션,펜션,pension,110000,110000,,울산,동구 / 북구 / 울주군,300000023,200000254,35.5808432346586,129.453674134541
256,120,74540,울산 울주군 코코 무인텔,모텔,motel,50000,0,!! 평일 숙박 서비스 할인 !!,울산,동구 / 북구 / 울주군,300000023,200000254,35.6174563,129.0465391
257,121,80061,울산 진장동 보스턴,모텔,motel,50000,0,,울산,동구 / 북구 / 울주군,300000023,200000254,35.56985,129.35962
258,122,77421,울산 365누리팜 펜션,펜션,pension,130000,130000,,울산,동구 / 북구 / 울주군,300000023,200000254,35.5479941164774,129.45464783938615
259,123,66898,울산 진하 짝,모텔,motel,0,0,,울산,동구 / 북구 / 울주군,300000023,200000254,35.387757,129.345011
260,124,68890,울산 영남알프스 브이온천,모텔,motel,30000,0,,울산,동구 / 북구 / 울주군,300000023,200000254,35.5535076,129.0787786
261,125,73244,울산 일산 쿡,모텔,motel,0,0,,울산,동구 / 북구 / 울주군,300000023,200000254,35.494829,129.4278639
262,126,74239,울산 영남알프스 루이스 (Louis),모텔,motel,40000,0,,울산,동구 / 북구 / 울주군,300000023,200000254,35.5390142,129.095079
263,127,79469,울산 몽돌펜션,펜션,pension,0,0,,울산,동구 / 북구 / 울주군,300000023,200000254,35.5807686698648,129.452725302758
264,128,87202,울산 울주군 신라장여관,모텔,motel,30000,30000,넓은 주차장 / 전 객실 와이파이,울산,동구 / 북구 / 울주군,300000023,200000254,35.56190113406134,129.1219416566834
265,129,69521,울산 영남알프스 쿡온천,모텔,motel,0,0,무한쿠폰룸 이벤트 이용안내,울산,동구 / 북구 / 울주군,300000023,200000254,35.5531672,129.07056160000002
266,130,82650,울산 진하 호텔 씨엘,모텔,motel,60000,0,,울산,동구 / 북구 / 울주군,300000023,200000254,35.387614843899705,129.34576720527056
267,131,66925,울산 일산 폼,모텔,motel,0,0,,울산,동구 / 북구 / 울주군,300000023,200000254,35.4957582,129.4281064
268,132,69382,울산 일산 명품 코보스,모텔,motel,40000,0,당신의 피로한 몸을 풀어드리겠습니다!!,울산,동구 / 북구 / 울주군,300000023,200000254,35.4932496,129.42937230000007
269,133,71530,울산(배내골) 배내골가든펜션,펜션,pension,99000,99000,,울산,동구 / 북구 / 울주군,300000023,200000254,35.536331764234,129.01053186856
270,134,67094,울산 일산 아이,모텔,motel,70000,0,♠◆아이모텔의 새주인이 인사드립니다♥♣,울산,동구 / 북구 / 울주군,300000023,200000254,35.4943531,129.42776030000005
271,135,67132,울산 영남알프스 G7,모텔,motel,50000,0,,울산,동구 / 북구 / 울주군,300000023,200000254,35.5539095,129.06881279999993
272,136,75754,울산 울주군 아이비,모텔,motel,0,0,,울산,동구 / 북구 / 울주군,300000023,200000254,35.4351413,129.3090498
273,137,69675,울산 일산 VIP 호텔,모텔,motel,70000,55000,"✌여기 다들 주목✌최대10,000원 할인쿠폰 즉시 사용가능❣ ✌대실 초특가 할인✌",울산,동구 / 북구 / 울주군,300000023,200000254,35.4929055,129.42963209999994
274,138,71500,울산(배내골) 알프스119펜션,펜션,pension,72000,80000,,울산,동구 / 북구 / 울주군,300000023,200000254,35.536492353032,129.01170888984
275,139,69549,울산 진하 아리아나,모텔,motel,0,0,,울산,동구 / 북구 / 울주군,300000023,200000254,35.3837788,129.34379590000003
276,140,98056,울주 노아풀빌라,펜션,pension,247000,380000,,울산,동구 / 북구 / 울주군,300000023,200000254,35.6348858309754,129.055261046528
277,141,79479,울산 숲속의펜션,펜션,pension,150000,150000,,울산,동구 / 북구 / 울주군,300000023,200000254,35.5803446871507,129.448799211855
278,142,84241,울산 일산 모나리자,모텔,motel,35000,35000,,울산,동구 / 북구 / 울주군,300000023,200000254,35.49209003338553,129.42998375086623
279,143,77020,울산 해맞이펜션,펜션,pension,100000,100000,,울산,동구 / 북구 / 울주군,300000023,200000254,35.58093668,129.45318705
280,144,73682,울산 언양 명성,모텔,motel,35000,0,,울산,동구 / 북구 / 울주군,300000023,200000254,35.5614029,129.1213151
281,145,68888,울산 영남알프스 힐,모텔,motel,30000,0,,울산,동구 / 북구 / 울주군,300000023,200000254,35.5533571,129.079546
282,146,71748,울산(배내골) 하늘땅별땅펜션,펜션,pension,60000,60000,,울산,동구 / 북구 / 울주군,300000023,200000254,35.5359516853024,129.0104121361862
283,147,72745,울산 일산 킹,모텔,motel,0,0,,울산,동구 / 북구 / 울주군,300000023,200000254,35.4946265,129.4278117
284,148,77337,울산 힐링펜션,펜션,pension,477000,530000,,울산,동구 / 북구 / 울주군,300000023,200000254,35.5549542119298,129.457610122728
285,149,88182,울산 햇살좋은펜션,펜션,pension,80000,80000,,울산,동구 / 북구 / 울주군,300000023,200000254,35.576869535436,129.452739807528
286,150,77617,울산 언양 북경,모텔,motel,35000,0,,울산,동구 / 북구 / 울주군,300000023,200000254,35.5653843,129.11873000000003
287,151,84491,울산 영남알프스 바르와,모텔,motel,40000,40000,"영남알프스 골프장 인근 위치, 넓은 주차장 보유",울산,동구 / 북구 / 울주군,300000023,200000254,35.53950680312573,129.09077915359993
288,152,84013,울산(배내골) 달펜션,펜션,pension,109000,109000,,울산,동구 / 북구 / 울주군,300000023,200000254,35.5519280275251,129.014745164978
289,153,85804,울산 울주군 뉴그린,모텔,motel,50000,0,,울산,동구 / 북구 / 울주군,300000023,200000254,35.43561561202702,129.30884395899142
290,154,86981,울산 아르떼하우스펜션,펜션,pension,150000,150000,,울산,동구 / 북구 / 울주군,300000023,200000254,35.3593264676132,129.334623051449
291,155,97994,"울산 간절곶캠프펜션(신축, 카라반&개별바베큐)",펜션,pension,110000,130000,,울산,동구 / 북구 / 울주군,300000023,200000254,35.3600586500127,129.357021201508
292,156,88952,울산 BeNe1061펜션(2023년 신축),펜션,pension,200700,223000,,울산,동구 / 북구 / 울주군,300000023,200000254,35.5355592313113,129.010348210492
293,157,80695,울산 영남알프스 피크문,모텔,motel,40000,40000,,울산,동구 / 북구 / 울주군,300000023,200000254,35.552618,129.0753317
294,158,76157,울산 영남알프스 풍경,모텔,motel,50000,40000,,울산,동구 / 북구 / 울주군,300000023,200000254,35.552118606858265,129.07508981356125
295,159,98514,울산 글로리펜션,펜션,pension,150000,150000,,울산,동구 / 북구 / 울주군,300000023,200000254,35.5428776070913,129.014196639118
296,160,98529,울산 비엔베뉴펜션,펜션,pension,142500,150000,,울산,동구 / 북구 / 울주군,300000023,200000254,35.3871440574244,129.346671200116
297,161,85434,울산 황토속펜션,펜션,pension,50000,50000,,울산,동구 / 북구 / 울주군,300000023,200000254,35.5563897692132,129.076870434745
298,162,86024,울산 바다별펜션,펜션,pension,150000,150000,,울산,동구 / 북구 / 울주군,300000023,200000254,35.650419494634,129.448561835799
299,163,67144,울산 범서읍 VOA,모텔,motel,40000,0,,울산,동구 / 북구 / 울주군,300000023,200000254,35.6234524,129.22271
300,164,88551,울산 별펜션,펜션,pension,150000,150000,,울산,동구 / 북구 / 울주군,300000023,200000254,35.6503273416186,129.44821084739
301,165,68874,울산 전하동 내영,모텔,motel,40000,40000,,울산,동구 / 북구 / 울주군,300000023,200000254,35.506661542,129.42894664200003
302,166,68885,울산 울주군 헤라,모텔,motel,33000,0,,울산,동구 / 북구 / 울주군,300000023,200000254,35.6178139929998,129.04711956692358
303,167,69386,울산 진하 호텔 빅토리아,모텔,motel,50000,0,,울산,동구 / 북구 / 울주군,300000023,200000254,35.3829865,129.3447579
304,168,72856,울산 영남알프스 포텐,모텔,motel,0,0,,울산,동구 / 북구 / 울주군,300000023,200000254,35.5568608,129.07078060000003
305,169,68300,울산 영남알프스 간월산온천,모텔,motel,60000,0,,울산,동구 / 북구 / 울주군,300000023,200000254,35.5562513,129.0724424
306,170,83873,울산(배내골) 베네힐펜션,펜션,pension,255000,255000,,울산,동구 / 북구 / 울주군,300000023,200000254,35.5332443262171,129.009116477619
307,171,81486,울산 써니케빈글램핑,펜션,pension,133000,133000,,울산,동구 / 북구 / 울주군,300000023,200000254,35.5573540774137,129.019243432552
308,172,81907,울산 산머루산장펜션,펜션,pension,70000,70000,,울산,동구 / 북구 / 울주군,300000023,200000254,35.56421258465,129.059114090483
309,173,78073,울산 등대펜션,펜션,pension,120000,120000,,울산,동구 / 북구 / 울주군,300000023,200000254,35.6493172702,129.4482254904
310,174,74900,울산(배내골) 리베펜션,펜션,pension,100000,100000,,울산,동구 / 북구 / 울주군,300000023,200000254,35.5489173476111,129.014553489019
311,175,76082,울산(배내골) 로하스펜션,펜션,pension,0,0,,울산,동구 / 북구 / 울주군,300000023,200000254,35.5355584,129.0100193
312,176,76430,울산 소호다락방펜션,펜션,pension,72000,80000,,울산,동구 / 북구 / 울주군,300000023,200000254,35.6902626206148,129.084312879449
313,177,78364,울산 바다소풍애견펜션,펜션,pension,120000,120000,,울산,동구 / 북구 / 울주군,300000023,200000254,35.583080356435,129.456567385269
314,178,79037,울산(배내골) 산들강펜션,펜션,pension,200000,200000,,울산,동구 / 북구 / 울주군,300000023,200000254,35.53536307386234,129.01026074180388
315,179,80080,울산 간절곶등대펜션,펜션,pension,0,0,,울산,동구 / 북구 / 울주군,300000023,200000254,35.3535742674519,129.34635062901
316,180,84991,울산 진하비치펜션,펜션,pension,120000,120000,,울산,동구 / 북구 / 울주군,300000023,200000254,35.3877922316993,129.346062128027
317,181,86500,울산 울주배내배내펜션,펜션,pension,50000,50000,,울산,동구 / 북구 / 울주군,300000023,200000254,35.5430804453967,129.012594532719
318,182,71345,울산 간절곶선뷰펜션,펜션,pension,54000,60000,,울산,동구 / 북구 / 울주군,300000023,200000254,35.3598466,129.353181
319,183,71388,울산 달팽이펜션,펜션,pension,100000,100000,,울산,동구 / 북구 / 울주군,300000023,200000254,35.534982777285,129.0110185451
320,184,99898,울산 영남알프스 자니,모텔,motel,50000,50000,,울산,동구 / 북구 / 울주군,300000023,200000254,35.55306715360464,129.0768608118416
321,185,80733,울산 진하 파타야,모텔,motel,0,0,,울산,동구 / 북구 / 울주군,300000023,200000254,35.3823837,129.34375439999997
322,186,84464,울산 전하동 보은,모텔,motel,38000,38000,,울산,동구 / 북구 / 울주군,300000023,200000254,35.5067734452913,129.4289551456588
323,187,71739,울산(배내골) 걸리버펜션,펜션,pension,270000,270000,,울산,동구 / 북구 / 울주군,300000023,200000254,35.5332545,129.0088285
324,188,98042,울산 파빌라 키즈 & 파티 (영남알프스점),모텔,motel,130000,0,,울산,동구 / 북구 / 울주군,300000023,200000254,35.5560771,129.0733207
325,189,88946,울산 뷰레스트풀빌라,펜션,pension,550000,550000,,울산,동구 / 북구 / 울주군,300000023,200000254,35.6096268440135,129.456521633833
326,190,99442,울산 아만스테이,펜션,pension,55000,55000,,울산,동구 / 북구 / 울주군,300000023,200000254,35.3877821757924,129.344654606852
327,191,98750,울산 메르시펜션,펜션,pension,159000,159000,,울산,동구 / 북구 / 울주군,300000023,200000254,35.6200278239918,129.063908145359
328,192,99166,울산 해브온풀빌라,펜션,pension,220000,220000,,울산,동구 / 북구 / 울주군,300000023,200000254,35.5856806163062,129.45821104701
329,193,99223,울산 펜트풀빌라,펜션,pension,200000,200000,,울산,동구 / 북구 / 울주군,300000023,200000254,35.6264313184507,129.441729379549
330,194,94391,울산 코지인41펜션,펜션,pension,95000,100000,,울산,동구 / 북구 / 울주군,300000023,200000254,35.348138338523,129.328129667608
331,195,94916,울산 푸른파도펜션,펜션,pension,80000,80000,,울산,동구 / 북구 / 울주군,300000023,200000254,35.5818298715631,129.455818088588
332,196,94924,울산 라테라스펜션,펜션,pension,0,0,,울산,동구 / 북구 / 울주군,300000023,200000254,35.5535226921449,129.456742226693
333,197,96075,울산 서생파크펜션,펜션,pension,700000,700000,,울산,동구 / 북구 / 울주군,300000023,200000254,35.3823140463764,129.276583588084
334,198,72453,울산 울주군 대경,모텔,motel,0,0,✨전객실 무료 와이파이 제공 / 넓은 주차장 보유✨,울산,동구 / 북구 / 울주군,300000023,200000254,35.5623786,129.1213691
335,199,79642,울산 온산 세림,모텔,motel,0,0,,울산,동구 / 북구 / 울주군,300000023,200000254,35.4342764,129.309342
336,200,79643,울산 일산 비즈,모텔,motel,0,0,,울산,동구 / 북구 / 울주군,300000023,200000254,35.4949865,129.4279384
337,201,84413,울산 영남알프스 오,모텔,motel,0,0,,울산,동구 / 북구 / 울주군,300000023,200000254,35.55454883422328,129.0703026019101
338,202,85553,울산 진하 헬로,모텔,motel,0,0,,울산,동구 / 북구 / 울주군,300000023,200000254,35.383044064339614,129.34327147507182
339,205,82246,울산 진하 바다,모텔,motel,0,0,,울산,동구 / 북구 / 울주군,300000023,200000254,35.38350891575361,129.3450507128612
340,206,70986,울산(배내골) 퀸즈파크펜션,펜션,pension,70000,70000,,울산,동구 / 북구 / 울주군,300000023,200000254,35.5393514229,129.0125300023
341,207,71464,울산(배내골) 또만나요펜션,펜션,pension,59000,59000,,울산,동구 / 북구 / 울주군,300000023,200000254,35.5366163273,129.0107594634
342,208,74525,울산 이음펜션,펜션,pension,80000,80000,,울산,동구 / 북구 / 울주군,300000023,200000254,35.5864914312,129.4563303555
343,209,73582,울산 마뜨료쉬카펜션,펜션,pension,160000,160000,,울산,동구 / 북구 / 울주군,300000023,200000254,35.3585581527,129.3428818834
344,210,77859,울산(배내골) 샤인펜션,펜션,pension,80000,80000,,울산,동구 / 북구 / 울주군,300000023,200000254,35.5391559,129.0114587
345,211,78344,울산 메이드스테이펜션,펜션,pension,89000,89000,,울산,동구 / 북구 / 울주군,300000023,200000254,35.61659108970568,129.05629727965763
346,212,83006,울산 에이풀하우스풀빌라펜션,펜션,pension,180000,180000,,울산,동구 / 북구 / 울주군,300000023,200000254,35.5799571222066,129.447971779013
347,213,84177,울산 라임하우스펜션,펜션,pension,45000,45000,,울산,동구 / 북구 / 울주군,300000023,200000254,35.5485692501596,129.014294373261
348,214,87430,울산 스톰윈드펜션,펜션,pension,250000,300000,,울산,동구 / 북구 / 울주군,300000023,200000254,35.554830781641,129.457715620545
349,215,94493,울산 파도소리펜션,펜션,pension,120000,120000,,울산,동구 / 북구 / 울주군,300000023,200000254,35.5763292907407,129.452876409534
350,216,94896,울산 K2펜션,펜션,pension,90000,90000,,울산,동구 / 북구 / 울주군,300000023,200000254,35.5777043919305,129.452387527239
351,217,95102,울산 아젤란리조트펜션,펜션,pension,158400,198000,,울산,동구 / 북구 / 울주군,300000023,200000254,35.6296634379018,129.050809093678
352,218,95482,울산 하이호텔펜션,펜션,pension,120000,120000,,울산,동구 / 북구 / 울주군,300000023,200000254,35.5165394198743,129.431275760099
353,219,95851,울산 배내골 민들레펜션,펜션,pension,80000,80000,,울산,동구 / 북구 / 울주군,300000023,200000254,35.5393608071042,129.011665440086
354,220,97605,울산(배내골) 알펜시아둘펜션,펜션,pension,100000,100000,,울산,동구 / 북구 / 울주군,300000023,200000254,35.5444257939934,129.013588823523
355,221,99081,울산 서생 힐링하우스,펜션,pension,350000,350000,,울산,동구 / 북구 / 울주군,300000023,200000254,35.3531232778137,129.30066887371
356,222,99215,"울산 간절곶캠프2 펜션(23.8월 신축, 카라반)",펜션,pension,130000,130000,,울산,동구 / 북구 / 울주군,300000023,200000254,35.3603971806404,129.356808961853
357,223,99482,울산 진하 별펜션,펜션,pension,0,0,,울산,동구 / 북구 / 울주군,300000023,200000254,35.3873137234565,129.343725451731
358,224,99975,울주 포그니펜션,펜션,pension,160000,160000,,울산,동구 / 북구 / 울주군,300000023,200000254,35.5340376561847,129.008576785821
359,225,69770,울산 일산 타임,모텔,motel,0,0,체크인 전 선주차 가능,울산,동구 / 북구 / 울주군,300000023,200000254,35.4918867,129.4303395
360,226,80091,울산 전하동 경원BIZ,모텔,motel,50000,0,,울산,동구 / 북구 / 울주군,300000023,200000254,35.5150601,129.4317487
361,227,80219,울산 전하동 하이,모텔,motel,0,0,,울산,동구 / 북구 / 울주군,300000023,200000254,35.516542,129.43128
362,228,82745,울산 진하 SJ,모텔,motel,0,0,,울산,동구 / 북구 / 울주군,300000023,200000254,35.38512116005573,129.3459822821465
363,229,84578,울산 서부동 경화장,모텔,motel,40000,40000,,울산,동구 / 북구 / 울주군,300000023,200000254,35.53998802135145,129.4237615120648
364,230,84893,울산 영남알프스 파라다이스,모텔,motel,35000,35000,,울산,동구 / 북구 / 울주군,300000023,200000254,35.55646212956966,129.0840500608072
365,231,99614,울산 진하 아만스테이,모텔,motel,50000,50000,,울산,동구 / 북구 / 울주군,300000023,200000254,35.38778227758998,129.344653803337
366,232,99935,울산 영남알프스 호텔먹자닷컴,모텔,motel,60000,0,전기차 7KW 집밥충전기 15대,울산,동구 / 북구 / 울주군,300000023,200000254,35.552758858009014,129.07888558970276
367,233,95960,울산 서부동 힐튼,모텔,motel,40000,0,,울산,동구 / 북구 / 울주군,300000023,200000254,35.54281367166097,129.42692435846266
368,234,71749,울산(배내골) 별천지펜션,펜션,pension,80000,80000,,울산,동구 / 북구 / 울주군,300000023,200000254,35.5608431,129.0214836
369,235,73407,울산 아트앤펜션,펜션,pension,130000,130000,,울산,동구 / 북구 / 울주군,300000023,200000254,35.5305391057,129.0096817717
370,236,74081,울산(배내골) 휴펜션,펜션,pension,110000,110000,,울산,동구 / 북구 / 울주군,300000023,200000254,35.5352212361,129.0112008888
371,237,75557,울산(북구) 시사이드펜션,펜션,pension,140000,140000,,울산,동구 / 북구 / 울주군,300000023,200000254,35.6494802623,129.4483629348
372,238,79777,울산(배내골) 아일랜드펜션,펜션,pension,100000,100000,,울산,동구 / 북구 / 울주군,300000023,200000254,35.5345815551607,129.011129133593
373,239,81386,울산 쉐르빌펜션,펜션,pension,120000,120000,,울산,동구 / 북구 / 울주군,300000023,200000254,35.548005483773,129.013395200608
374,240,87734,울산 울주750하우스펜션,펜션,pension,0,0,,울산,동구 / 북구 / 울주군,300000023,200000254,35.5226942755095,129.261370261707
375,241,76543,울산(배내골) 에델바이스펜션,펜션,pension,70000,70000,,울산,동구 / 북구 / 울주군,300000023,200000254,35.53480402495499,129.01114637406755
376,242,76611,울산 간절곶파란펜션,펜션,pension,60000,60000,,울산,동구 / 북구 / 울주군,300000023,200000254,35.36020617291196,129.35266643467688
377,243,85432,울산 예그리나펜션,펜션,pension,100000,100000,,울산,동구 / 북구 / 울주군,300000023,200000254,35.3556767887771,129.344107172326
378,244,94065,울산 케이프독채풀빌라펜션,펜션,pension,700000,700000,,울산,동구 / 북구 / 울주군,300000023,200000254,35.363619268659,129.354192663809
379,245,94853,울산 간절곶더펜션,펜션,pension,50000,50000,,울산,동구 / 북구 / 울주군,300000023,200000254,35.3602538148587,129.351945908691
380,246,95096,울산 베네치아펜션,펜션,pension,50000,50000,,울산,동구 / 북구 / 울주군,300000023,200000254,35.527097240765,129.009861687914
381,247,95757,울산 동해안로 1505펜션,펜션,pension,110000,110000,,울산,동구 / 북구 / 울주군,300000023,200000254,35.6193006623135,129.446174716
382,248,99345,울산(배내골) 영남알프스,펜션,pension,90000,90000,,울산,동구 / 북구 / 울주군,300000023,200000254,35.5327076241679,129.010845661182
383,0,82518,울산 일산 올레,모텔,motel,70000,0,❤️●안심하세요●❤️ OLLEH는 고객님이 머무르시는 시트 및 침구류를 항상 청결하게 소독하고 있습니다. 안심하고 편안하게 머무르세요.,울산,동구 / 북구 / 울주군,300000023,200000254,35.491480114070676,129.43169958605824
384,1,98095,울산 호반펜션(카라반&개별바비큐),펜션,pension,99000,150000,,울산,동구 / 북구 / 울주군,300000023,200000254,35.5349403259921,129.16620787054
385,2,70379,호텔현대 바이 라한 울산,4성급,hotel,99000,99000,,울산,동구 / 북구 / 울주군,300000023,200000254,35.51919,129.430335
386,3,77738,머큐어 앰배서더 울산,4성급,hotel,80750,80750,[금도끼딜] GOD딜 초특가 객실할인 제공 빠르게 예약해서 특전까지 잡자 !,울산,동구 / 북구 / 울주군,300000023,200000254,35.625581,129.441124
387,4,92366,울산 더반호텔,호텔,hotel,65000,100000,,울산,동구 / 북구 / 울주군,300000023,200000254,35.63424618242406,129.4417985243024
388,5,87647,키즈호텔 상상플레이 등억점,호텔,hotel,120000,240000,얼리 체크인,울산,동구 / 북구 / 울주군,300000023,200000254,35.555364,129.074337
389,6,78335,브라운도트 울산신천점,호텔,hotel,75000,100000,성수기 이벤트- Early C/I 2시간 제공,울산,동구 / 북구 / 울주군,300000023,200000254,35.636092,129.353427
390,7,78295,브라운도트 정자해수욕장점,호텔,hotel,60000,100000,7월 23~ 8월 27일까지 얼리체크인 불가,울산,동구 / 북구 / 울주군,300000023,200000254,35.630414,129.440429
391,8,98427,파빌라 호텔 울산 영남알프스점,호텔,hotel,130000,400000,,울산,동구 / 북구 / 울주군,300000023,200000254,35.5560607439512,129.07334346604293
392,9,98626,울산 솔레이 힐링 관광호텔,호텔,hotel,109000,330000,2023년 4월 GRAND OPEN,울산,동구 / 북구 / 울주군,300000023,200000254,35.62677186511252,129.4407133872695
393,10,88553,울산 진하 브라운도트 진하해수욕장점,모텔,motel,70000,0,,울산,동구 / 북구 / 울주군,300000023,200000254,35.38747706648756,129.34516129670922
394,11,98009,울산 영남알프스 케렌시아,모텔,motel,50000,0,,울산,동구 / 북구 / 울주군,300000023,200000254,35.554682809789234,129.0699387991987
395,12,91090,울산 미므미므풀빌라,펜션,pension,399000,419000,,울산,동구 / 북구 / 울주군,300000023,200000254,35.3849129849335,129.34664857993
396,13,89513,울산 유비즈스테이kcc레지던스펜션,펜션,pension,290000,290000,,울산,동구 / 북구 / 울주군,300000023,200000254,35.6262420218357,129.441102413201
397,14,88424,울산 애플망고펜션앤카라반,펜션,pension,120000,120000,,울산,동구 / 북구 / 울주군,300000023,200000254,35.3684798656062,129.353285711889
398,15,81157,울산 울주군 선피크,모텔,motel,35000,38000,,울산,동구 / 북구 / 울주군,300000023,200000254,35.6183909,129.0466043
399,16,88503,울산 온산 루센트,모텔,motel,0,0,,울산,동구 / 북구 / 울주군,300000023,200000254,35.43600778307836,129.31020894075235
400,17,73212,울산 영남알프스 블루탱,모텔,motel,50000,0,"욕조 갖춘 객실 찾는다면♥ 전 객실 PC, 전자레인지, 포트 완비",울산,동구 / 북구 / 울주군,300000023,200000254,35.5555901,129.0745734
401,18,85558,울산 KTX역 브라운도트 울산KTX역점,모텔,motel,0,0,,울산,동구 / 북구 / 울주군,300000023,200000254,35.54763219611494,129.1389102488853
402,19,76350,울산 선펜션,펜션,pension,180000,180000,,울산,동구 / 북구 / 울주군,300000023,200000254,35.3451294531,129.3209824434
403,20,71626,울산 간절곶뷰펜션,펜션,pension,0,0,,울산,동구 / 북구 / 울주군,300000023,200000254,35.3585122,129.3430406
404,21,92175,울산 정자동 더반 호텔,모텔,motel,54900,0,2023 2월 Grand open ! ! 전객실 오션뷰 or 넷플릭스 무료 시청가능,울산,동구 / 북구 / 울주군,300000023,200000254,35.6341717,129.44182990000002
405,22,68893,울산 영남알프스 무인텔 휴,모텔,motel,50000,0,"숙박 고객 대상 컵라면, 음료 증정 이벤트",울산,동구 / 북구 / 울주군,300000023,200000254,35.55295987284519,129.0763029210791
406,23,86095,울산 히든빌풀빌라,펜션,pension,475000,500000,,울산,동구 / 북구 / 울주군,300000023,200000254,35.6136694479666,129.450618933715
407,24,92968,울산 라포레소호글램핑,펜션,pension,0,0,,울산,동구 / 북구 / 울주군,300000023,200000254,35.6694856151657,129.08115428673
408,25,72242,울산 KTX역 제이드,모텔,motel,60000,0,"전객실 넷플릭스 이용가능, 롤.배그 가능",울산,동구 / 북구 / 울주군,300000023,200000254,35.5469666,129.13908249999997
409,26,87570,울산 방어진 그랜드젬,모텔,motel,60000,0,#세스코 방역 및 소독 안심존  #매일 자체소독 #세균제로,울산,동구 / 북구 / 울주군,300000023,200000254,35.4871929555581,129.42139396963188
410,27,76356,울산 간절곶 온더웨이브 호텔,모텔,motel,84000,0,❤22.05 신축 GRAND OPEN !❤,울산,동구 / 북구 / 울주군,300000023,200000254,35.3561038,129.3503536
411,28,98191,울산 솔레이호텔풀빌라,펜션,pension,109000,220000,,울산,동구 / 북구 / 울주군,300000023,200000254,35.6267723820367,129.440706021945
412,29,83932,울산 일산 나무늘보,모텔,motel,50000,0,무더운 여름 고객님들의 시원함을 충족시켜드리겠습니다!,울산,동구 / 북구 / 울주군,300000023,200000254,35.49282677345214,129.43002285905564
413,30,77731,울산 다온풀빌라,펜션,pension,150000,150000,,울산,동구 / 북구 / 울주군,300000023,200000254,35.6182653285,129.0644094388
414,31,77682,울산 신천동 브라운도트 울산신천점,모텔,motel,70000,0,★위생관리등급 최우수(녹색)등급 획득 / 전 객실 공기청정기 비치★,울산,동구 / 북구 / 울주군,300000023,200000254,35.63705425030187,129.353573273233
415,32,73921,울산 정자동 화이트스완,모텔,motel,0,0,"오션뷰(VIP,디럭스룸) 넷플릭스 시청 -단골 손님을 위한 적립 이벤트!!!",울산,동구 / 북구 / 울주군,300000023,200000254,35.6274966,129.43967150000003
416,33,92904,울산 정자동 솔레이 힐링 관광호텔,모텔,motel,99000,0,#GRAND OPEN ! ! !,울산,동구 / 북구 / 울주군,300000023,200000254,35.62677186511252,129.4407133872695
417,34,76460,울산 방어진 콜,모텔,motel,0,0,방어진 콜 OPEN 특가 EVENT!!,울산,동구 / 북구 / 울주군,300000023,200000254,35.48470349999999,129.42207039999994
418,35,72930,울산 영남알프스 NEW JB 무인텔,모텔,motel,0,0,✨22년 11월 1일 부터 이용요금이 소폭 인상되었습니다.✨,울산,동구 / 북구 / 울주군,300000023,200000254,35.552542284479095,129.0767912805548
419,36,76345,울산 호계 더 베스트,모텔,motel,60000,0,✌더 베스트에서 만나는 특별할인쿠폰!✌,울산,동구 / 북구 / 울주군,300000023,200000254,35.62851360000001,129.34456580000005
420,37,72680,울산 락펜션,펜션,pension,70000,70000,,울산,동구 / 북구 / 울주군,300000023,200000254,35.6165767565,129.0427365313
421,38,75536,울산 진장동 삼성장 호텔,모텔,motel,60000,0,조식 제공 안내!,울산,동구 / 북구 / 울주군,300000023,200000254,35.5690091,129.3593805
422,39,70993,울산 까사까미노펜션,펜션,pension,100000,100000,,울산,동구 / 북구 / 울주군,300000023,200000254,35.577958491706,129.452307375154
423,40,80983,울산 일산 프렌치코드,모텔,motel,50000,0,❤프렌치코드에선 배고픔 걱정~NO❤,울산,동구 / 북구 / 울주군,300000023,200000254,35.4935146,129.42894569999999
424,41,74268,울산 진장동 히든베이,모텔,motel,55000,0,✨전객실 넷플릭스  서비스/무료 최신영화 / 65인치 대형 TV / 비데 / 고데기 / 욕조설치✨,울산,동구 / 북구 / 울주군,300000023,200000254,35.5693373,129.3589501
425,42,82514,울산 영남알프스 키즈호텔 상상플레이,모텔,motel,130000,0,얼리 체크인 이벤트(주중 숙박 15시 입실),울산,동구 / 북구 / 울주군,300000023,200000254,35.55535430926622,129.0743445772521
426,43,72652,울산 영남알프스 라헬,모텔,motel,40000,0,넷플릭스 시네 영화 시청 가능,울산,동구 / 북구 / 울주군,300000023,200000254,35.5538552,129.0798193
427,44,69741,울산 영남알프스 인투(INTO),모텔,motel,60000,0,리뉴얼 오픈 기념 할인!,울산,동구 / 북구 / 울주군,300000023,200000254,35.553604,129.07440959999997
428,45,79111,울산 진장동 K2,모텔,motel,55000,0,,울산,동구 / 북구 / 울주군,300000023,200000254,35.5685904,129.3579837
429,46,73383,울산 KTX역 호텔포스,모텔,motel,60000,0,⭕ 넷플릭스✔️디즈니✔️웨이브✔️티빙 ⭕ 무료이용 ➰,울산,동구 / 북구 / 울주군,300000023,200000254,35.5483958,129.14202220000004
430,47,74800,울산 영남알프스 잠자리,모텔,motel,60000,0,,울산,동구 / 북구 / 울주군,300000023,200000254,35.5535801,129.0754646
431,48,72743,울산 영남알프스 럭셔리호텔,모텔,motel,50000,0,✌숙박고객들에 한하여 고급브랜드 양말 및 컵라면 제공✌,울산,동구 / 북구 / 울주군,300000023,200000254,35.5536832,129.0695783
432,49,70439,울산 KTX역 1.2.3,모텔,motel,70000,0,,울산,동구 / 북구 / 울주군,300000023,200000254,35.5477835,129.13931679999996
433,51,75670,울산(소호) 하늘빛펜션(1객실 1바베큐장),펜션,pension,0,0,,울산,동구 / 북구 / 울주군,300000023,200000254,35.6880571997,129.085098676
434,52,72966,울산 울주군 베네,모텔,motel,40000,0,,울산,동구 / 북구 / 울주군,300000023,200000254,35.6176727,129.04738050000003
435,53,86589,울산 ST210펜션,펜션,pension,153000,170000,,울산,동구 / 북구 / 울주군,300000023,200000254,35.6100730520811,129.456679602021
436,54,83513,울산 비클래시키즈풀빌라펜션(덕현점),펜션,pension,168000,168000,,울산,동구 / 북구 / 울주군,300000023,200000254,35.6294755185483,129.051462111607
437,55,83768,울산 간절곶브랑누아펜션,펜션,pension,0,0,,울산,동구 / 북구 / 울주군,300000023,200000254,35.3490201518167,129.329283620347
438,56,78407,울산 영남알프스 더뱀부 호텔,모텔,motel,45000,0,더뱀부에서 제공하는 특별한 혜택,울산,동구 / 북구 / 울주군,300000023,200000254,35.55577412315508,129.07313125938572
439,57,88735,울산 스페스11풀빌라,펜션,pension,290000,290000,,울산,동구 / 북구 / 울주군,300000023,200000254,35.4863478622974,129.155219590876
440,58,82496,울산 간절곶수호천사펜션,펜션,pension,0,0,,울산,동구 / 북구 / 울주군,300000023,200000254,35.3590951730277,129.358906879685
441,59,70906,울산 간절곶AB펜션,펜션,pension,0,0,,울산,동구 / 북구 / 울주군,300000023,200000254,35.359453412611,129.35393373553
442,60,71358,울산 간절곶빨간펜션,펜션,pension,60000,60000,,울산,동구 / 북구 / 울주군,300000023,200000254,35.3603746181,129.3525305277
443,61,74690,울산 더테라스펜션,펜션,pension,83660,83660,,울산,동구 / 북구 / 울주군,300000023,200000254,35.6200967342,129.4451402772
444,62,67555,울산 KTX역 S,모텔,motel,60000,0,,울산,동구 / 북구 / 울주군,300000023,200000254,35.5474579,129.13950639999996
445,63,83983,울산 비클래시키즈풀빌라펜션(간절곶),펜션,pension,198000,198000,,울산,동구 / 북구 / 울주군,300000023,200000254,35.3562287899213,129.351821101741
446,64,75420,울산 진장동 그라운드7,모텔,motel,65000,0,"전 객실 넷플릭스 시청가능, 공기청정기 이용 가능❣ 평일 조식(주말 제외)까지 제공하는 그라운드7✨",울산,동구 / 북구 / 울주군,300000023,200000254,35.5699583,129.3590221
447,65,79924,울산 울주군 가지산히노끼 가족호텔,모텔,motel,0,0,리뷰 작성 이벤트,울산,동구 / 북구 / 울주군,300000023,200000254,35.6173634,129.0539092
448,66,77755,울산 진하 서라벌,모텔,motel,60000,0,,울산,동구 / 북구 / 울주군,300000023,200000254,35.38563680000001,129.3471872
449,67,72169,울산 KTX역 G&G,모텔,motel,60000,0,◆위생 관리 최우수 등급 업체/ 스타일러 구비 / 넷플릭스 가능◆,울산,동구 / 북구 / 울주군,300000023,200000254,35.5468716,129.1388616
450,68,81119,울산 영남알프스 무인텔 킹,모텔,motel,50000,0,2022년 10월 위생관리등급 최우수 선정,울산,동구 / 북구 / 울주군,300000023,200000254,35.556120657473535,129.07049018796252
451,69,80288,울산 라온펜션,펜션,pension,80000,80000,,울산,동구 / 북구 / 울주군,300000023,200000254,35.6339423824293,129.054035635372
452,70,93798,울산 파빌라영남알프스점,펜션,pension,110000,250000,,울산,동구 / 북구 / 울주군,300000023,200000254,35.5560607672981,129.073343419401
453,71,76628,울산 일산 윈,모텔,motel,50000,0,조식 운영 EVENT,울산,동구 / 북구 / 울주군,300000023,200000254,35.4911189,129.43190349999998
454,72,87818,"울산 간절곶간절그곳펜션(신축,스파)",펜션,pension,96000,120000,,울산,동구 / 북구 / 울주군,300000023,200000254,35.3600098640526,129.353080923219
455,73,80528,울산 진하 호텔 로렌토,모텔,motel,60000,0,,울산,동구 / 북구 / 울주군,300000023,200000254,35.38751523278211,129.34446098346712
456,74,66962,울산 영남알프스 더죤,모텔,motel,45000,0,"전객실 휴테크 안마의자 / 출장손님 多 /  소독, 병역은 기본",울산,동구 / 북구 / 울주군,300000023,200000254,35.5521784,129.0763938
457,76,67192,울산 일산 브이,모텔,motel,48000,0,일산지 최다 테마 객실 보유! 1만원 쿠폰제공!,울산,동구 / 북구 / 울주군,300000023,200000254,35.4901191,129.4325802
458,77,83655,울산 춤추는고래펜션,펜션,pension,0,0,,울산,동구 / 북구 / 울주군,300000023,200000254,35.5758783566897,129.452596085635
459,78,76053,울산 진장동 프리미어,모텔,motel,60000,0,,울산,동구 / 북구 / 울주군,300000023,200000254,35.5699128,129.35839199999998
460,79,78083,울산 영남알프스 샌디아온천,모텔,motel,30000,0,,울산,동구 / 북구 / 울주군,300000023,200000254,35.5538713,129.07390910000004
461,80,78723,울산 영남알프스 드메르 호텔,모텔,motel,50000,0,고객 감사 쿠폰 이벤트,울산,동구 / 북구 / 울주군,300000023,200000254,35.5542685,129.0710391
462,81,69224,울산 KTX역 더케이,모텔,motel,60000,0,♬셀프세탁실 + 전객실 전자레인지 +  픽업서비스♬,울산,동구 / 북구 / 울주군,300000023,200000254,35.5466673,129.14126220000003
463,82,72604,울산 영남알프스 발렌타인 온천,모텔,motel,50000,0,,울산,동구 / 북구 / 울주군,300000023,200000254,35.5531378,129.0750747
464,83,69740,울산 정자동 베니스,모텔,motel,45000,80000,,울산,동구 / 북구 / 울주군,300000023,200000254,35.6264958,129.44024660000002
465,84,75437,울산 영남알프스 MW,모텔,motel,40000,0,,울산,동구 / 북구 / 울주군,300000023,200000254,35.5522249,129.07532360000005
466,85,68884,울산 일산 호텔 MVG,모텔,motel,48000,0,#NETFLIX&씨네호텔 시청가능 #조식 #부티끄디자인 #최저가,울산,동구 / 북구 / 울주군,300000023,200000254,35.4905565,129.4330538
467,86,85419,울산 진장동 NEW E-STAY,모텔,motel,60000,0,,울산,동구 / 북구 / 울주군,300000023,200000254,35.5694889,129.3595128
468,87,77533,울산 아름펜션,펜션,pension,100000,100000,,울산,동구 / 북구 / 울주군,300000023,200000254,35.57987197445236,129.44865455581643
469,88,72174,울산 일산 루이스호텔,모텔,motel,45000,0,코로나19 이겨냅시다! 숙박요금 할인 이벤트,울산,동구 / 북구 / 울주군,300000023,200000254,35.4930267,129.4292554
470,89,71623,울산 간절곶해담은펜션,펜션,pension,60000,60000,,울산,동구 / 북구 / 울주군,300000023,200000254,35.3601297592,129.3528886098
471,90,67751,울산 일산 컨시드,모텔,motel,50000,70000,,울산,동구 / 북구 / 울주군,300000023,200000254,35.4908559,129.4321139
472,91,73814,울산 정자동 SOME HOTEL (썸) 정자해변점,모텔,motel,45000,0,,울산,동구 / 북구 / 울주군,300000023,200000254,35.6286529,129.43976
473,92,79575,울산 울주군 E,모텔,motel,34000,0,,울산,동구 / 북구 / 울주군,300000023,200000254,35.618141,129.0467987
474,93,86730,울산 일산 티롤,모텔,motel,40000,0,,울산,동구 / 북구 / 울주군,300000023,200000254,35.49405238552066,129.4276656171581
475,94,76447,울산 클럽33풀빌라,펜션,pension,0,0,,울산,동구 / 북구 / 울주군,300000023,200000254,35.6363375476935,129.056314071317
476,95,79603,울산 영남알프스 호텔 그레이 문,모텔,motel,50000,0,,울산,동구 / 북구 / 울주군,300000023,200000254,35.5538713,129.0739091
477,96,80524,울산 더케이콘도리조트,펜션,pension,50000,50000,,울산,동구 / 북구 / 울주군,300000023,200000254,35.3847853955048,129.34585541548
478,97,98974,울산 진장동 브라운도트 울산진장점,모텔,motel,60000,0,,울산,동구 / 북구 / 울주군,300000023,200000254,35.56930230243359,129.35971629849558
479,98,71830,울산 레지던스호텔블루오션뷰,펜션,pension,66000,66000,,울산,동구 / 북구 / 울주군,300000023,200000254,35.3842753,129.3459401
480,99,78418,울산 영남알프스 다조아,모텔,motel,50000,0,,울산,동구 / 북구 / 울주군,300000023,200000254,35.55384801817853,129.0797763817535
481,100,77929,울산 진하 별,모텔,motel,0,0,,울산,동구 / 북구 / 울주군,300000023,200000254,35.387313,129.34372940000003
482,101,72715,울산 진장동 노바,모텔,motel,50000,0,,울산,동구 / 북구 / 울주군,300000023,200000254,35.5692664,129.35996539999996
483,102,79870,울산 일산 호텔 먹자 닷컴,모텔,motel,60000,0,셀프 스낵바 24시 이용가능,울산,동구 / 북구 / 울주군,300000023,200000254,35.4935658,129.4284996
484,103,82935,울산 창밖을보라펜션,펜션,pension,80000,80000,,울산,동구 / 북구 / 울주군,300000023,200000254,35.5601164961683,129.020902069379
485,104,94125,울산 바담풀빌라,펜션,pension,80000,80000,,울산,동구 / 북구 / 울주군,300000023,200000254,35.3562259607763,129.35520831045
486,105,69433,울산 정자동 더힐,모텔,motel,50000,0,,울산,동구 / 북구 / 울주군,300000023,200000254,35.621456,129.44550449999997
487,106,79873,울산 일산 윈드힐,모텔,motel,55000,0,,울산,동구 / 북구 / 울주군,300000023,200000254,35.4911189,129.4319035
488,107,79934,울산(간절곶) 까르마레펜션,펜션,pension,117000,130000,,울산,동구 / 북구 / 울주군,300000023,200000254,35.3595924607245,129.334082490593
489,108,70976,울산 꿈꾸는바다펜션,펜션,pension,90000,90000,,울산,동구 / 북구 / 울주군,300000023,200000254,35.6121091,129.4574966
490,109,70955,울산 샌디아온천펜션,펜션,pension,45000,45000,,울산,동구 / 북구 / 울주군,300000023,200000254,35.5530394,129.0746247
491,110,82816,울산 파라다이스펜션(배내골),펜션,pension,99000,99000,,울산,동구 / 북구 / 울주군,300000023,200000254,35.5459430693985,129.012004094858
492,111,71355,울산(배내골) 언덕위에펜션,펜션,pension,72000,80000,,울산,동구 / 북구 / 울주군,300000023,200000254,35.5311966,129.0093842
493,112,83587,울산 진하 파라다이스,모텔,motel,50000,0,,울산,동구 / 북구 / 울주군,300000023,200000254,35.383851867885745,129.34509834667102
494,113,68883,울산 진하 유앤아이,모텔,motel,60000,0,,울산,동구 / 북구 / 울주군,300000023,200000254,35.384911,129.34594140000002
495,114,71677,울산 7년만의외출펜션,펜션,pension,50000,50000,,울산,동구 / 북구 / 울주군,300000023,200000254,35.4913138,129.4320616
496,115,72886,울산 영남알프스 알프스온천,모텔,motel,40000,0,,울산,동구 / 북구 / 울주군,300000023,200000254,35.5536039,129.07968389999996
497,116,77951,울산 영남알프스 브라보,모텔,motel,47000,0,,울산,동구 / 북구 / 울주군,300000023,200000254,35.55586,129.08701700000006
498,117,80866,울산 영남알프스 일루아,모텔,motel,50000,0,,울산,동구 / 북구 / 울주군,300000023,200000254,35.5539908,129.07918919999997
499,118,73903,울산 발렌타인온천펜션,펜션,pension,50000,50000,,울산,동구 / 북구 / 울주군,300000023,200000254,35.5531377001,129.0750744048
500,119,79646,울산 당사의아침펜션,펜션,pension,110000,110000,,울산,동구 / 북구 / 울주군,300000023,200000254,35.5808432346586,129.453674134541
501,120,74540,울산 울주군 코코 무인텔,모텔,motel,50000,0,!! 평일 숙박 서비스 할인 !!,울산,동구 / 북구 / 울주군,300000023,200000254,35.6174563,129.0465391
502,121,80061,울산 진장동 보스턴,모텔,motel,50000,0,,울산,동구 / 북구 / 울주군,300000023,200000254,35.56985,129.35962
503,122,77421,울산 365누리팜 펜션,펜션,pension,130000,130000,,울산,동구 / 북구 / 울주군,300000023,200000254,35.5479941164774,129.45464783938615
504,123,66898,울산 진하 짝,모텔,motel,0,0,,울산,동구 / 북구 / 울주군,300000023,200000254,35.387757,129.345011
505,124,68890,울산 영남알프스 브이온천,모텔,motel,30000,0,,울산,동구 / 북구 / 울주군,300000023,200000254,35.5535076,129.0787786
506,125,73244,울산 일산 쿡,모텔,motel,0,0,,울산,동구 / 북구 / 울주군,300000023,200000254,35.494829,129.4278639
507,126,74239,울산 영남알프스 루이스 (Louis),모텔,motel,40000,0,,울산,동구 / 북구 / 울주군,300000023,200000254,35.5390142,129.095079
508,127,79469,울산 몽돌펜션,펜션,pension,0,0,,울산,동구 / 북구 / 울주군,300000023,200000254,35.5807686698648,129.452725302758
509,128,87202,울산 울주군 신라장여관,모텔,motel,30000,30000,넓은 주차장 / 전 객실 와이파이,울산,동구 / 북구 / 울주군,300000023,200000254,35.56190113406134,129.1219416566834
510,129,69521,울산 영남알프스 쿡온천,모텔,motel,0,0,무한쿠폰룸 이벤트 이용안내,울산,동구 / 북구 / 울주군,300000023,200000254,35.5531672,129.07056160000002
511,130,82650,울산 진하 호텔 씨엘,모텔,motel,60000,0,,울산,동구 / 북구 / 울주군,300000023,200000254,35.387614843899705,129.34576720527056
512,131,66925,울산 일산 폼,모텔,motel,0,0,,울산,동구 / 북구 / 울주군,300000023,200000254,35.4957582,129.4281064
513,132,69382,울산 일산 명품 코보스,모텔,motel,40000,0,당신의 피로한 몸을 풀어드리겠습니다!!,울산,동구 / 북구 / 울주군,300000023,200000254,35.4932496,129.42937230000007
514,133,71530,울산(배내골) 배내골가든펜션,펜션,pension,99000,99000,,울산,동구 / 북구 / 울주군,300000023,200000254,35.536331764234,129.01053186856
515,134,67094,울산 일산 아이,모텔,motel,70000,0,♠◆아이모텔의 새주인이 인사드립니다♥♣,울산,동구 / 북구 / 울주군,300000023,200000254,35.4943531,129.42776030000005
516,135,67132,울산 영남알프스 G7,모텔,motel,50000,0,,울산,동구 / 북구 / 울주군,300000023,200000254,35.5539095,129.06881279999993
517,136,75754,울산 울주군 아이비,모텔,motel,0,0,,울산,동구 / 북구 / 울주군,300000023,200000254,35.4351413,129.3090498
518,137,69675,울산 일산 VIP 호텔,모텔,motel,70000,55000,"✌여기 다들 주목✌최대10,000원 할인쿠폰 즉시 사용가능❣ ✌대실 초특가 할인✌",울산,동구 / 북구 / 울주군,300000023,200000254,35.4929055,129.42963209999994
519,138,71500,울산(배내골) 알프스119펜션,펜션,pension,72000,80000,,울산,동구 / 북구 / 울주군,300000023,200000254,35.536492353032,129.01170888984
520,139,69549,울산 진하 아리아나,모텔,motel,0,0,,울산,동구 / 북구 / 울주군,300000023,200000254,35.3837788,129.34379590000003
521,140,98056,울주 노아풀빌라,펜션,pension,247000,380000,,울산,동구 / 북구 / 울주군,300000023,200000254,35.6348858309754,129.055261046528
522,141,79479,울산 숲속의펜션,펜션,pension,150000,150000,,울산,동구 / 북구 / 울주군,300000023,200000254,35.5803446871507,129.448799211855
523,142,84241,울산 일산 모나리자,모텔,motel,35000,35000,,울산,동구 / 북구 / 울주군,300000023,200000254,35.49209003338553,129.42998375086623
524,143,77020,울산 해맞이펜션,펜션,pension,100000,100000,,울산,동구 / 북구 / 울주군,300000023,200000254,35.58093668,129.45318705
525,144,73682,울산 언양 명성,모텔,motel,35000,0,,울산,동구 / 북구 / 울주군,300000023,200000254,35.5614029,129.1213151
526,145,68888,울산 영남알프스 힐,모텔,motel,30000,0,,울산,동구 / 북구 / 울주군,300000023,200000254,35.5533571,129.079546
527,146,71748,울산(배내골) 하늘땅별땅펜션,펜션,pension,60000,60000,,울산,동구 / 북구 / 울주군,300000023,200000254,35.5359516853024,129.0104121361862
528,147,72745,울산 일산 킹,모텔,motel,0,0,,울산,동구 / 북구 / 울주군,300000023,200000254,35.4946265,129.4278117
529,148,77337,울산 힐링펜션,펜션,pension,477000,530000,,울산,동구 / 북구 / 울주군,300000023,200000254,35.5549542119298,129.457610122728
530,149,88182,울산 햇살좋은펜션,펜션,pension,80000,80000,,울산,동구 / 북구 / 울주군,300000023,200000254,35.576869535436,129.452739807528
531,150,77617,울산 언양 북경,모텔,motel,35000,0,,울산,동구 / 북구 / 울주군,300000023,200000254,35.5653843,129.11873000000003
532,151,84491,울산 영남알프스 바르와,모텔,motel,40000,40000,"영남알프스 골프장 인근 위치, 넓은 주차장 보유",울산,동구 / 북구 / 울주군,300000023,200000254,35.53950680312573,129.09077915359993
533,152,84013,울산(배내골) 달펜션,펜션,pension,109000,109000,,울산,동구 / 북구 / 울주군,300000023,200000254,35.5519280275251,129.014745164978
534,153,85804,울산 울주군 뉴그린,모텔,motel,50000,0,,울산,동구 / 북구 / 울주군,300000023,200000254,35.43561561202702,129.30884395899142
535,154,86981,울산 아르떼하우스펜션,펜션,pension,150000,150000,,울산,동구 / 북구 / 울주군,300000023,200000254,35.3593264676132,129.334623051449
536,155,97994,"울산 간절곶캠프펜션(신축, 카라반&개별바베큐)",펜션,pension,110000,130000,,울산,동구 / 북구 / 울주군,300000023,200000254,35.3600586500127,129.357021201508
537,156,88952,울산 BeNe1061펜션(2023년 신축),펜션,pension,200700,223000,,울산,동구 / 북구 / 울주군,300000023,200000254,35.5355592313113,129.010348210492
538,157,80695,울산 영남알프스 피크문,모텔,motel,40000,40000,,울산,동구 / 북구 / 울주군,300000023,200000254,35.552618,129.0753317
539,158,76157,울산 영남알프스 풍경,모텔,motel,50000,40000,,울산,동구 / 북구 / 울주군,300000023,200000254,35.552118606858265,129.07508981356125
540,159,98514,울산 글로리펜션,펜션,pension,150000,150000,,울산,동구 / 북구 / 울주군,300000023,200000254,35.5428776070913,129.014196639118
541,160,98529,울산 비엔베뉴펜션,펜션,pension,142500,150000,,울산,동구 / 북구 / 울주군,300000023,200000254,35.3871440574244,129.346671200116
542,161,85434,울산 황토속펜션,펜션,pension,50000,50000,,울산,동구 / 북구 / 울주군,300000023,200000254,35.5563897692132,129.076870434745
543,162,86024,울산 바다별펜션,펜션,pension,150000,150000,,울산,동구 / 북구 / 울주군,300000023,200000254,35.650419494634,129.448561835799
544,163,67144,울산 범서읍 VOA,모텔,motel,40000,0,,울산,동구 / 북구 / 울주군,300000023,200000254,35.6234524,129.22271
545,164,88551,울산 별펜션,펜션,pension,150000,150000,,울산,동구 / 북구 / 울주군,300000023,200000254,35.6503273416186,129.44821084739
546,165,68874,울산 전하동 내영,모텔,motel,40000,40000,,울산,동구 / 북구 / 울주군,300000023,200000254,35.506661542,129.42894664200003
547,166,68885,울산 울주군 헤라,모텔,motel,33000,0,,울산,동구 / 북구 / 울주군,300000023,200000254,35.6178139929998,129.04711956692358
548,167,69386,울산 진하 호텔 빅토리아,모텔,motel,50000,0,,울산,동구 / 북구 / 울주군,300000023,200000254,35.3829865,129.3447579
549,168,72856,울산 영남알프스 포텐,모텔,motel,0,0,,울산,동구 / 북구 / 울주군,300000023,200000254,35.5568608,129.07078060000003
550,169,68300,울산 영남알프스 간월산온천,모텔,motel,60000,0,,울산,동구 / 북구 / 울주군,300000023,200000254,35.5562513,129.0724424
551,170,83873,울산(배내골) 베네힐펜션,펜션,pension,255000,255000,,울산,동구 / 북구 / 울주군,300000023,200000254,35.5332443262171,129.009116477619
552,171,81486,울산 써니케빈글램핑,펜션,pension,133000,133000,,울산,동구 / 북구 / 울주군,300000023,200000254,35.5573540774137,129.019243432552
553,172,81907,울산 산머루산장펜션,펜션,pension,70000,70000,,울산,동구 / 북구 / 울주군,300000023,200000254,35.56421258465,129.059114090483
554,173,78073,울산 등대펜션,펜션,pension,120000,120000,,울산,동구 / 북구 / 울주군,300000023,200000254,35.6493172702,129.4482254904
555,174,74900,울산(배내골) 리베펜션,펜션,pension,100000,100000,,울산,동구 / 북구 / 울주군,300000023,200000254,35.5489173476111,129.014553489019
556,175,76082,울산(배내골) 로하스펜션,펜션,pension,0,0,,울산,동구 / 북구 / 울주군,300000023,200000254,35.5355584,129.0100193
557,176,76430,울산 소호다락방펜션,펜션,pension,72000,80000,,울산,동구 / 북구 / 울주군,300000023,200000254,35.6902626206148,129.084312879449
558,177,78364,울산 바다소풍애견펜션,펜션,pension,120000,120000,,울산,동구 / 북구 / 울주군,300000023,200000254,35.583080356435,129.456567385269
559,178,79037,울산(배내골) 산들강펜션,펜션,pension,200000,200000,,울산,동구 / 북구 / 울주군,300000023,200000254,35.53536307386234,129.01026074180388
560,179,80080,울산 간절곶등대펜션,펜션,pension,0,0,,울산,동구 / 북구 / 울주군,300000023,200000254,35.3535742674519,129.34635062901
561,180,84991,울산 진하비치펜션,펜션,pension,120000,120000,,울산,동구 / 북구 / 울주군,300000023,200000254,35.3877922316993,129.346062128027
562,181,86500,울산 울주배내배내펜션,펜션,pension,50000,50000,,울산,동구 / 북구 / 울주군,300000023,200000254,35.5430804453967,129.012594532719
563,182,71345,울산 간절곶선뷰펜션,펜션,pension,54000,60000,,울산,동구 / 북구 / 울주군,300000023,200000254,35.3598466,129.353181
564,183,71388,울산 달팽이펜션,펜션,pension,100000,100000,,울산,동구 / 북구 / 울주군,300000023,200000254,35.534982777285,129.0110185451
565,184,99898,울산 영남알프스 자니,모텔,motel,50000,50000,,울산,동구 / 북구 / 울주군,300000023,200000254,35.55306715360464,129.0768608118416
566,185,80733,울산 진하 파타야,모텔,motel,0,0,,울산,동구 / 북구 / 울주군,300000023,200000254,35.3823837,129.34375439999997
567,186,84464,울산 전하동 보은,모텔,motel,38000,38000,,울산,동구 / 북구 / 울주군,300000023,200000254,35.5067734452913,129.4289551456588
568,187,71739,울산(배내골) 걸리버펜션,펜션,pension,270000,270000,,울산,동구 / 북구 / 울주군,300000023,200000254,35.5332545,129.0088285
569,188,98042,울산 파빌라 키즈 & 파티 (영남알프스점),모텔,motel,130000,0,,울산,동구 / 북구 / 울주군,300000023,200000254,35.5560771,129.0733207
570,189,88946,울산 뷰레스트풀빌라,펜션,pension,550000,550000,,울산,동구 / 북구 / 울주군,300000023,200000254,35.6096268440135,129.456521633833
571,190,99442,울산 아만스테이,펜션,pension,55000,55000,,울산,동구 / 북구 / 울주군,300000023,200000254,35.3877821757924,129.344654606852
572,191,98750,울산 메르시펜션,펜션,pension,159000,159000,,울산,동구 / 북구 / 울주군,300000023,200000254,35.6200278239918,129.063908145359
573,192,99166,울산 해브온풀빌라,펜션,pension,220000,220000,,울산,동구 / 북구 / 울주군,300000023,200000254,35.5856806163062,129.45821104701
574,193,99223,울산 펜트풀빌라,펜션,pension,200000,200000,,울산,동구 / 북구 / 울주군,300000023,200000254,35.6264313184507,129.441729379549
575,194,94391,울산 코지인41펜션,펜션,pension,95000,100000,,울산,동구 / 북구 / 울주군,300000023,200000254,35.348138338523,129.328129667608
576,195,94916,울산 푸른파도펜션,펜션,pension,80000,80000,,울산,동구 / 북구 / 울주군,300000023,200000254,35.5818298715631,129.455818088588
577,196,94924,울산 라테라스펜션,펜션,pension,0,0,,울산,동구 / 북구 / 울주군,300000023,200000254,35.5535226921449,129.456742226693
578,197,96075,울산 서생파크펜션,펜션,pension,700000,700000,,울산,동구 / 북구 / 울주군,300000023,200000254,35.3823140463764,129.276583588084
579,198,72453,울산 울주군 대경,모텔,motel,0,0,✨전객실 무료 와이파이 제공 / 넓은 주차장 보유✨,울산,동구 / 북구 / 울주군,300000023,200000254,35.5623786,129.1213691
580,199,79642,울산 온산 세림,모텔,motel,0,0,,울산,동구 / 북구 / 울주군,300000023,200000254,35.4342764,129.309342
581,200,79643,울산 일산 비즈,모텔,motel,0,0,,울산,동구 / 북구 / 울주군,300000023,200000254,35.4949865,129.4279384
582,201,84413,울산 영남알프스 오,모텔,motel,0,0,,울산,동구 / 북구 / 울주군,300000023,200000254,35.55454883422328,129.0703026019101
583,202,85553,울산 진하 헬로,모텔,motel,0,0,,울산,동구 / 북구 / 울주군,300000023,200000254,35.383044064339614,129.34327147507182
584,205,82246,울산 진하 바다,모텔,motel,0,0,,울산,동구 / 북구 / 울주군,300000023,200000254,35.38350891575361,129.3450507128612
585,206,70986,울산(배내골) 퀸즈파크펜션,펜션,pension,70000,70000,,울산,동구 / 북구 / 울주군,300000023,200000254,35.5393514229,129.0125300023
586,207,71464,울산(배내골) 또만나요펜션,펜션,pension,59000,59000,,울산,동구 / 북구 / 울주군,300000023,200000254,35.5366163273,129.0107594634
587,208,74525,울산 이음펜션,펜션,pension,80000,80000,,울산,동구 / 북구 / 울주군,300000023,200000254,35.5864914312,129.4563303555
588,209,73582,울산 마뜨료쉬카펜션,펜션,pension,160000,160000,,울산,동구 / 북구 / 울주군,300000023,200000254,35.3585581527,129.3428818834
589,210,77859,울산(배내골) 샤인펜션,펜션,pension,80000,80000,,울산,동구 / 북구 / 울주군,300000023,200000254,35.5391559,129.0114587
590,211,78344,울산 메이드스테이펜션,펜션,pension,89000,89000,,울산,동구 / 북구 / 울주군,300000023,200000254,35.61659108970568,129.05629727965763
591,212,83006,울산 에이풀하우스풀빌라펜션,펜션,pension,180000,180000,,울산,동구 / 북구 / 울주군,300000023,200000254,35.5799571222066,129.447971779013
592,213,84177,울산 라임하우스펜션,펜션,pension,45000,45000,,울산,동구 / 북구 / 울주군,300000023,200000254,35.5485692501596,129.014294373261
593,214,87430,울산 스톰윈드펜션,펜션,pension,250000,300000,,울산,동구 / 북구 / 울주군,300000023,200000254,35.554830781641,129.457715620545
594,215,94493,울산 파도소리펜션,펜션,pension,120000,120000,,울산,동구 / 북구 / 울주군,300000023,200000254,35.5763292907407,129.452876409534
595,216,94896,울산 K2펜션,펜션,pension,90000,90000,,울산,동구 / 북구 / 울주군,300000023,200000254,35.5777043919305,129.452387527239
596,217,95102,울산 아젤란리조트펜션,펜션,pension,158400,198000,,울산,동구 / 북구 / 울주군,300000023,200000254,35.6296634379018,129.050809093678
597,218,95482,울산 하이호텔펜션,펜션,pension,120000,120000,,울산,동구 / 북구 / 울주군,300000023,200000254,35.5165394198743,129.431275760099
598,219,95851,울산 배내골 민들레펜션,펜션,pension,80000,80000,,울산,동구 / 북구 / 울주군,300000023,200000254,35.5393608071042,129.011665440086
599,220,97605,울산(배내골) 알펜시아둘펜션,펜션,pension,100000,100000,,울산,동구 / 북구 / 울주군,300000023,200000254,35.5444257939934,129.013588823523
600,221,99081,울산 서생 힐링하우스,펜션,pension,350000,350000,,울산,동구 / 북구 / 울주군,300000023,200000254,35.3531232778137,129.30066887371
601,222,99215,"울산 간절곶캠프2 펜션(23.8월 신축, 카라반)",펜션,pension,130000,130000,,울산,동구 / 북구 / 울주군,300000023,200000254,35.3603971806404,129.356808961853
602,223,99482,울산 진하 별펜션,펜션,pension,0,0,,울산,동구 / 북구 / 울주군,300000023,200000254,35.3873137234565,129.343725451731
603,224,99975,울주 포그니펜션,펜션,pension,160000,160000,,울산,동구 / 북구 / 울주군,300000023,200000254,35.5340376561847,129.008576785821
604,225,69770,울산 일산 타임,모텔,motel,0,0,체크인 전 선주차 가능,울산,동구 / 북구 / 울주군,300000023,200000254,35.4918867,129.4303395
605,226,80091,울산 전하동 경원BIZ,모텔,motel,50000,0,,울산,동구 / 북구 / 울주군,300000023,200000254,35.5150601,129.4317487
606,227,80219,울산 전하동 하이,모텔,motel,0,0,,울산,동구 / 북구 / 울주군,300000023,200000254,35.516542,129.43128
607,228,82745,울산 진하 SJ,모텔,motel,0,0,,울산,동구 / 북구 / 울주군,300000023,200000254,35.38512116005573,129.3459822821465
608,229,84578,울산 서부동 경화장,모텔,motel,40000,40000,,울산,동구 / 북구 / 울주군,300000023,200000254,35.53998802135145,129.4237615120648
609,230,84893,울산 영남알프스 파라다이스,모텔,motel,35000,35000,,울산,동구 / 북구 / 울주군,300000023,200000254,35.55646212956966,129.0840500608072
610,231,99614,울산 진하 아만스테이,모텔,motel,50000,50000,,울산,동구 / 북구 / 울주군,300000023,200000254,35.38778227758998,129.344653803337
611,232,99935,울산 영남알프스 호텔먹자닷컴,모텔,motel,60000,0,전기차 7KW 집밥충전기 15대,울산,동구 / 북구 / 울주군,300000023,200000254,35.552758858009014,129.07888558970276
612,233,95960,울산 서부동 힐튼,모텔,motel,40000,0,,울산,동구 / 북구 / 울주군,300000023,200000254,35.54281367166097,129.42692435846266
613,234,71749,울산(배내골) 별천지펜션,펜션,pension,80000,80000,,울산,동구 / 북구 / 울주군,300000023,200000254,35.5608431,129.0214836
614,235,73407,울산 아트앤펜션,펜션,pension,130000,130000,,울산,동구 / 북구 / 울주군,300000023,200000254,35.5305391057,129.0096817717
615,236,74081,울산(배내골) 휴펜션,펜션,pension,110000,110000,,울산,동구 / 북구 / 울주군,300000023,200000254,35.5352212361,129.0112008888
616,237,75557,울산(북구) 시사이드펜션,펜션,pension,140000,140000,,울산,동구 / 북구 / 울주군,300000023,200000254,35.6494802623,129.4483629348
617,238,79777,울산(배내골) 아일랜드펜션,펜션,pension,100000,100000,,울산,동구 / 북구 / 울주군,300000023,200000254,35.5345815551607,129.011129133593
618,239,81386,울산 쉐르빌펜션,펜션,pension,120000,120000,,울산,동구 / 북구 / 울주군,300000023,200000254,35.548005483773,129.013395200608
619,240,87734,울산 울주750하우스펜션,펜션,pension,0,0,,울산,동구 / 북구 / 울주군,300000023,200000254,35.5226942755095,129.261370261707
620,241,76543,울산(배내골) 에델바이스펜션,펜션,pension,70000,70000,,울산,동구 / 북구 / 울주군,300000023,200000254,35.53480402495499,129.01114637406755
621,242,76611,울산 간절곶파란펜션,펜션,pension,60000,60000,,울산,동구 / 북구 / 울주군,300000023,200000254,35.36020617291196,129.35266643467688
622,243,85432,울산 예그리나펜션,펜션,pension,100000,100000,,울산,동구 / 북구 / 울주군,300000023,200000254,35.3556767887771,129.344107172326
623,244,94065,울산 케이프독채풀빌라펜션,펜션,pension,700000,700000,,울산,동구 / 북구 / 울주군,300000023,200000254,35.363619268659,129.354192663809
624,245,94853,울산 간절곶더펜션,펜션,pension,50000,50000,,울산,동구 / 북구 / 울주군,300000023,200000254,35.3602538148587,129.351945908691
625,246,95096,울산 베네치아펜션,펜션,pension,50000,50000,,울산,동구 / 북구 / 울주군,300000023,200000254,35.527097240765,129.009861687914
626,247,95757,울산 동해안로 1505펜션,펜션,pension,110000,110000,,울산,동구 / 북구 / 울주군,300000023,200000254,35.6193006623135,129.446174716
627,248,99345,울산(배내골) 영남알프스,펜션,pension,90000,90000,,울산,동구 / 북구 / 울주군,300000023,200000254,35.5327076241679,129.010845661182
