,index,code,name,grade,type,d_price,price,benefit,region_L,region_S,code_L,code_S,lat,lon
0,0,76855,"강화도 수에뇨펜션(★무료카페, 개별바베큐)",펜션,pension,69000,120000,,인천,강화,300000021,200000234,37.61064199453131,126.39112909300466
1,1,76773,"강화도 힐스토리펜션(반려견 동반,동막해변)",펜션,pension,129000,190000,,인천,강화,300000021,200000234,37.59718306702813,126.44099878128368
2,2,77486,"강화도 더하루펜션(카페,보드게임)",펜션,pension,99000,140000,,인천,강화,300000021,200000234,37.8002062,126.4156808
3,3,71774,"강화도 구름위산책펜션(스파,동막해변)",펜션,pension,69000,110000,,인천,강화,300000021,200000234,37.5960399,126.4556618
4,4,91379,라르고빌 리조트,리조트,resort,170000,170000,,인천,강화,300000021,200000234,37.64084949559468,126.39098370227838
5,5,82188,강화엘리야리조트,리조트,resort,250000,250000,,인천,강화,300000021,200000234,37.636322,126.385574
6,6,86651,바다가 보이는 사이판 호텔,호텔,hotel,40000,40000,,인천,강화,300000021,200000234,37.704598,126.367962
7,7,70038,호텔 에버리치,호텔,hotel,114000,200000,,인천,강화,300000021,200000234,37.73567,126.473677
8,8,88859,강화도 품안애스파독채펜션,펜션,pension,0,0,,인천,강화,300000021,200000234,37.624366361787,126.377675280719
9,9,94067,강화 올펜션,펜션,pension,110000,110000,,인천,강화,300000021,200000234,37.6341753763116,126.369519352909
10,10,98587,강화도 동막스파펜션,펜션,pension,0,0,,인천,강화,300000021,200000234,37.5983373455846,126.434650238951
11,11,88867,강화도 올제스파온수수영장바다펜션,펜션,pension,89000,119000,,인천,강화,300000021,200000234,37.6082536043235,126.386451111322
12,12,89376,강화도 하이맘키즈 풀빌라 가족펜션강화마린,펜션,pension,89000,99000,,인천,강화,300000021,200000234,37.6102763977968,126.385587575208
13,13,97705,강화도(석모도) 항구펜션,펜션,pension,120000,150000,,인천,강화,300000021,200000234,37.6542347856673,126.327533675549
14,14,72432,강화도 아름다운낙조펜션,펜션,pension,90000,90000,,인천,강화,300000021,200000234,37.6222575,126.3818363
15,15,97958,강화도 엘라움 키즈 스파&풀빌라,펜션,pension,160000,200000,,인천,강화,300000021,200000234,37.5948545332252,126.456480248338
16,16,99254,강화도 마레해수풀빌라,펜션,pension,109000,109000,,인천,강화,300000021,200000234,37.6365149996696,126.530242207826
17,17,98168,강화도 코호풀빌라,펜션,pension,430000,430000,,인천,강화,300000021,200000234,37.798637469587,126.441815901175
18,18,70789,강화도 향원펜션,펜션,pension,300000,300000,,인천,강화,300000021,200000234,37.6143148097,126.3808241236
19,19,87313,강화도 낙조테마스파펜션,펜션,pension,90000,90000,,인천,강화,300000021,200000234,37.6223160617804,126.380663522475
20,20,72358,강화도 황금노을펜션,펜션,pension,220000,220000,,인천,강화,300000021,200000234,37.6227413,126.3770635
21,21,82807,강화도 별빛속으로펜션,펜션,pension,300000,300000,,인천,강화,300000021,200000234,37.6807510906953,126.434778891504
22,22,77102,강화도 베로니카네집펜션,펜션,pension,250000,250000,,인천,강화,300000021,200000234,37.71423562,126.36455127
23,23,73505,인천(강화) 엠스(MS),모텔,motel,35000,35000,✨넓은 주차장 보유 / 쾌적하고 공기 좋은 숙소✨,인천,강화,300000021,200000234,37.6551738,126.4954956
24,24,77060,석모도 장구너머펜션,펜션,pension,72000,80000,,인천,강화,300000021,200000234,37.65544757,126.32841754
25,25,83950,강화도 일마레펜션,펜션,pension,100000,100000,,인천,강화,300000021,200000234,37.6018358793952,126.406218796474
26,26,88335,강화도 여름향기펜션,펜션,pension,99000,110000,,인천,강화,300000021,200000234,37.6025319784785,126.398568564536
27,27,84595,강화도(석모도) 가우디움펜션,펜션,pension,120000,120000,,인천,강화,300000021,200000234,37.6695311143105,126.34456406662
28,28,82014,"석모도 항포펜션(독채,개별바베큐)",펜션,pension,170000,170000,,인천,강화,300000021,200000234,37.7065247422995,126.28680654627
29,29,74340,강화도 마음속에그린집펜션,펜션,pension,80000,80000,,인천,강화,300000021,200000234,37.5987236701,126.4615240145
30,30,86749,강화도 877스테이펜션,펜션,pension,400000,400000,,인천,강화,300000021,200000234,37.610533397107,126.389240316593
31,31,85003,강화도 향기정원펜션(애견동반),펜션,pension,0,0,,인천,강화,300000021,200000234,37.6071825339116,126.400707786688
32,32,70953,강화도 바다소리펜션,펜션,pension,80000,80000,,인천,강화,300000021,200000234,37.6358116,126.379942
33,33,99029,강화도 쥬라기카라반,펜션,pension,69000,69000,,인천,강화,300000021,200000234,37.6002910601804,126.495715739916
34,34,72547,강화도 아라뜰펜션데이지,펜션,pension,0,0,,인천,강화,300000021,200000234,37.6838156749,126.4212809887
35,35,88108,강화도 기차여행독채펜션,펜션,pension,0,0,,인천,강화,300000021,200000234,37.7394791191368,126.381528503604
36,36,86957,강화도(석모도) 가온재독채풀빌라,펜션,pension,0,0,,인천,강화,300000021,200000234,37.6924654138904,126.343463939833
37,37,71428,강화도 해마루펜션(애견펜션),펜션,pension,149000,149000,,인천,강화,300000021,200000234,37.6091356257,126.3869646029
38,38,84925,강화도 카우스펜션,펜션,pension,120000,120000,,인천,강화,300000021,200000234,37.6206369789676,126.376978607557
39,39,86083,강화도 드림펜션,펜션,pension,150000,150000,,인천,강화,300000021,200000234,37.7214305136283,126.401978282558
40,40,93586,강화도 여해로펜션,펜션,pension,390000,390000,,인천,강화,300000021,200000234,37.6065855937596,126.401889235308
41,41,83838,강화도 아띠하우스펜션,펜션,pension,219000,219000,,인천,강화,300000021,200000234,37.7999705317033,126.415168791963
42,42,89355,강화도 마린원풀빌라가족펜션,펜션,pension,149000,169000,,인천,강화,300000021,200000234,37.6105144283125,126.385292059819
43,43,71154,강화도 마차펜션,펜션,pension,0,0,,인천,강화,300000021,200000234,37.720320876406,126.40142496977
44,44,85766,강화도 스테이문스파펜션,펜션,pension,99000,150000,,인천,강화,300000021,200000234,37.5931924531814,126.436529022356
45,45,71147,강화도 힐링11번가펜션,펜션,pension,0,0,,인천,강화,300000021,200000234,37.62165438037359,126.37983895513436
46,46,70860,강화도 499펜션,펜션,pension,120000,120000,,인천,강화,300000021,200000234,37.5967539,126.5088431
47,47,71439,강화도 물빛인쇄소펜션,펜션,pension,150000,150000,,인천,강화,300000021,200000234,37.5978117,126.4352338
48,48,76946,강화도 나니하우스펜션,펜션,pension,230000,230000,,인천,강화,300000021,200000234,37.77259445,126.50643373
49,49,76558,강화도 마리하우스펜션,펜션,pension,150000,150000,,인천,강화,300000021,200000234,37.63426349288041,126.44095676333939
50,50,88386,인천(강화도) 호텔 더 블랙,모텔,motel,50000,0,,인천,강화,300000021,200000234,37.619476683478716,126.53838522627987
51,51,94434,강화 저어새펜션,펜션,pension,130000,130000,,인천,강화,300000021,200000234,37.6014558810944,126.401676531969
52,52,75395,강화도 호텔무무&펜션,펜션,pension,270000,270000,,인천,강화,300000021,200000234,37.620145433,126.4599649978
53,53,94369,강화 아이엠스파펜션,펜션,pension,110000,110000,,인천,강화,300000021,200000234,37.600333701791,126.404899715568
54,54,76673,"강화도 옥타곤펜션(독채,애견동반)",펜션,pension,210000,210000,,인천,강화,300000021,200000234,37.72067157464459,126.51192786304061
55,55,98397,강화도 프로포즈오션뷰펜션,펜션,pension,78000,78000,,인천,강화,300000021,200000234,37.5929582834661,126.459334611637
56,56,86664,강화도 플리트비체펜션,펜션,pension,59000,59000,,인천,강화,300000021,200000234,37.6069605455232,126.40131375529
57,57,83847,강화도 mj하우스펜션,펜션,pension,0,0,,인천,강화,300000021,200000234,37.6642392704637,126.41007836449
58,58,77148,강화도 초당황토펜션,펜션,pension,250000,250000,,인천,강화,300000021,200000234,37.79979367,126.44058354
59,59,76973,강화도 로맨틱큐브B펜션,펜션,pension,69000,140000,,인천,강화,300000021,200000234,37.6019826146064,126.491277099631
60,60,71729,강화도 지중해펜션,펜션,pension,70000,70000,,인천,강화,300000021,200000234,37.6368692,126.3815909
61,61,74674,강화도 좋아요스파펜션(전객실 입욕제 제공),펜션,pension,71200,89000,,인천,강화,300000021,200000234,37.6061117562709,126.479364866548
62,62,78122,인천(강화도) N모텔,모텔,motel,50000,0,2023.6월 내부리모델링 완공!!!,인천,강화,300000021,200000234,37.62672136594463,126.53350266004941
63,63,84962,강화도 온다풀빌라,펜션,pension,170000,210000,,인천,강화,300000021,200000234,37.5912824677499,126.506925831101
64,64,76164,강화도 준라이브펜션,펜션,pension,80000,80000,,인천,강화,300000021,200000234,37.72183010112179,126.40482916964184
65,65,86900,강화도 아라펜션,펜션,pension,55000,55000,,인천,강화,300000021,200000234,37.6201499057398,126.381687780433
66,66,76951,강화도 들꽃펜션,펜션,pension,0,0,,인천,강화,300000021,200000234,37.6179337,126.388537
67,67,94621,강화도 하이마리스테이펜션,펜션,pension,225000,225000,,인천,강화,300000021,200000234,37.6029866305689,126.457230103285
68,68,86868,인천(강화도) 화이트빌펜션,모텔,motel,79000,0,,인천,강화,300000021,200000234,37.613258562626356,126.45584291050787
69,69,71964,강화도 팜스하우스펜션,펜션,pension,69000,69000,,인천,강화,300000021,200000234,37.5937385693,126.4328674656
70,70,85516,강화도 태그하우스펜션,펜션,pension,130000,130000,,인천,강화,300000021,200000234,37.5916434833827,126.506665065123
71,71,78123,인천(강화도) 바다산책,모텔,motel,0,0,✨앞마당의 바다✨,인천,강화,300000021,200000234,37.66510910834898,126.52782681163944
72,72,77526,강화도 나무와나무펜션,펜션,pension,150000,150000,,인천,강화,300000021,200000234,37.77260402058619,126.50613856388532
73,73,87147,강화도 감성힐링여행빈티지박스가족스파펜션,펜션,pension,98100,109000,,인천,강화,300000021,200000234,37.6220658509371,126.380489912548
74,74,71008,강화도 숲속의오후펜션,펜션,pension,80000,80000,,인천,강화,300000021,200000234,37.6081562515247,126.401903951486
75,75,89456,강화도 하이맘키즈가족펜션강화블랙,펜션,pension,59000,79000,,인천,강화,300000021,200000234,37.5930673803696,126.458270941725
76,76,72131,강화도 헤밍웨이스파펜션(전객실입욕제제공),펜션,pension,0,0,,인천,강화,300000021,200000234,37.6059448,126.4795573
77,77,74339,강화도 도우제펜션,펜션,pension,150000,150000,,인천,강화,300000021,200000234,37.6307548919,126.3751865943
78,78,80305,강화도 플루메리아펜션,펜션,pension,110000,110000,,인천,강화,300000021,200000234,37.6360502,126.380422
79,80,70985,강화도 나눔펜션(키즈 풀빌라 수영장),펜션,pension,80000,100000,,인천,강화,300000021,200000234,37.6106308,126.3843872
80,81,86670,강화도 어시장바로앞펜션(침대2),펜션,pension,100000,100000,,인천,강화,300000021,200000234,37.6391389574595,126.391611968144
81,82,79466,강화도 꿈길속에펜션,펜션,pension,0,0,,인천,강화,300000021,200000234,37.5955487738972,126.462033455322
82,83,75580,석모도 박정아펜션(애견동반),펜션,pension,80000,80000,,인천,강화,300000021,200000234,37.6553222378,126.3285591849
83,84,69344,강화도(석모도) 바다가보이는사이판,모텔,motel,40000,40000,,인천,강화,300000021,200000234,37.7046062,126.3679435
84,85,75902,"강화도 정원펜션(수영장 OPEN, 동막 해수욕장)",펜션,pension,0,0,,인천,강화,300000021,200000234,37.6007847795191,126.456850210644
85,86,73872,강화도 바닷가노을펜션,펜션,pension,120000,120000,,인천,강화,300000021,200000234,37.6004065134,126.4907097401
86,87,73873,강화도 하늘아래펜션(루지에서 7분거리),펜션,pension,90000,90000,,인천,강화,300000021,200000234,37.6002243088,126.5124213634
87,88,86638,강화도 허브펜션,펜션,pension,0,0,,인천,강화,300000021,200000234,37.6003163387042,126.456630306966
88,89,71873,석모도(섬) 언덕위에하얀집펜션,펜션,pension,80000,80000,,인천,강화,300000021,200000234,37.6817803,126.3230571
89,90,71263,강화도 아뜰리에펜션,펜션,pension,60000,60000,,인천,강화,300000021,200000234,37.6358316232,126.3818102719
90,91,71554,강화도 초록별펜션,펜션,pension,0,0,,인천,강화,300000021,200000234,37.593235,126.4367519
91,92,71870,강화도 힐마레펜션,펜션,pension,0,0,,인천,강화,300000021,200000234,37.6033256,126.4914717
92,93,81602,강화(석모도) 보문장,모텔,motel,50000,50000,,인천,강화,300000021,200000234,37.6864452,126.3172001
93,94,86683,강화도 아나의섬스파펜션(사계절개별바베큐),펜션,pension,110000,110000,,인천,강화,300000021,200000234,37.621014110074,126.379351885019
94,95,71574,강화도 농부의아침펜션,펜션,pension,90000,90000,,인천,강화,300000021,200000234,37.607255118146,126.42137186699
95,96,68892,인천(강화도) 스위스랜드,모텔,motel,50000,50000,,인천,강화,300000021,200000234,37.622039,126.4746352
96,97,77108,강화도 놀토독채펜션,펜션,pension,80000,80000,,인천,강화,300000021,200000234,37.74412832,126.46129374
97,98,74928,강화도 하늘빛펜션,펜션,pension,70000,70000,,인천,강화,300000021,200000234,37.6135200179,126.3852795515
98,99,74429,강화도 샤르망펜션,펜션,pension,80000,80000,,인천,강화,300000021,200000234,37.6637702163,126.4109417309
99,100,70932,강화도 바닷가펜션,펜션,pension,80000,80000,,인천,강화,300000021,200000234,37.6294864,126.3772737
100,101,79839,강화도 힐링하우스펜션,펜션,pension,250000,250000,,인천,강화,300000021,200000234,37.6956467950232,126.433827576258
101,102,75957,강화도(석모도) 스케치펜션(리뉴얼),펜션,pension,80000,80000,,인천,강화,300000021,200000234,37.653302599,126.335938621
102,103,71572,강화도 그랑블루펜션,펜션,pension,53000,53000,,인천,강화,300000021,200000234,37.5955299,126.5041185
103,105,81411,강화도 민들레펜션,펜션,pension,120000,120000,,인천,강화,300000021,200000234,37.7976763723745,126.446444460602
104,106,72941,강화도 아라뜰펜션1호,펜션,pension,120000,120000,,인천,강화,300000021,200000234,37.6838156749,126.4212809887
105,107,71815,강화도 루치아펜션,펜션,pension,130000,130000,,인천,강화,300000021,200000234,37.6185301,126.4025245
106,108,69880,강화도 더노을펜션,펜션,pension,55000,55000,,인천,강화,300000021,200000234,37.6079525966459,126.458041932739
107,109,79900,강화도 무지개글램핑장,펜션,pension,0,0,,인천,강화,300000021,200000234,37.7947758790018,126.455829429051
108,110,71763,강화도 콘체르트애견동반펜션,펜션,pension,0,0,,인천,강화,300000021,200000234,37.6076471896425,126.401333393242
109,111,86912,강화도 다은펜션,펜션,pension,79000,79000,,인천,강화,300000021,200000234,37.595597920748,126.43929742833
110,112,86703,강화도 산들바다키즈가족펜션,펜션,pension,0,0,,인천,강화,300000021,200000234,37.5959494798695,126.456027050527
111,113,76925,강화도 글로리아펜션,펜션,pension,350000,350000,,인천,강화,300000021,200000234,37.7223416,126.4040674
112,114,77118,강화도 로맨틱큐브펜션,펜션,pension,109000,180000,,인천,강화,300000021,200000234,37.6024022,126.49133936
113,115,79737,강화도 바다요정펜션,펜션,pension,119000,140000,,인천,강화,300000021,200000234,37.5951365632291,126.446520113202
114,116,71046,강화도 천사의아침펜션,펜션,pension,75000,100000,,인천,강화,300000021,200000234,37.5958429,126.4556575
115,117,86610,강화도 화이트빌펜션(바베큐장),펜션,pension,60000,60000,,인천,강화,300000021,200000234,37.6132585221184,126.455842887753
116,118,87633,강화도 해나루펜션,펜션,pension,119000,119000,,인천,강화,300000021,200000234,37.587084676361,126.520857528312
117,119,77542,강화도 솔정펜션,펜션,pension,120000,120000,,인천,강화,300000021,200000234,37.65278345014031,126.51060022014323
118,120,76824,강화도 메종드라메르펜션,펜션,pension,90000,90000,,인천,강화,300000021,200000234,37.5973979,126.4599138
119,121,79791,강화도 피노키오랑코끼리펜션,펜션,pension,0,0,,인천,강화,300000021,200000234,37.602469551874,126.398588431658
120,122,77110,강화도 해와달펜션,펜션,pension,120000,120000,,인천,강화,300000021,200000234,37.60393086,126.40943892
121,123,77123,강화도 쉼펜션,펜션,pension,0,0,,인천,강화,300000021,200000234,37.59887442,126.46217971
122,124,71122,강화도 플로망스풀빌라,펜션,pension,100000,120000,,인천,강화,300000021,200000234,37.6245338,126.3766679
123,125,71610,강화도 웨스트포인트펜션,펜션,pension,70000,70000,,인천,강화,300000021,200000234,37.6098537,126.3866521
124,126,86650,강화도 피크닉펜션(동막해변),펜션,pension,0,0,,인천,강화,300000021,200000234,37.6137554139158,126.460395391464
125,127,71656,강화도 은빛비치는들펜션,펜션,pension,100000,100000,,인천,강화,300000021,200000234,37.6061188,126.4581402
126,128,77078,강화도 이삭펜션,펜션,pension,0,0,,인천,강화,300000021,200000234,37.60094282,126.45739964
127,129,71924,강화도 장보고한옥펜션,펜션,pension,140000,140000,,인천,강화,300000021,200000234,37.7626627,126.4468358
128,130,88778,강화도 화이트스톤펜션,펜션,pension,0,0,,인천,강화,300000021,200000234,37.6089189721253,126.386294566426
129,131,81436,강화도 바닷가뜨락펜션,펜션,pension,69000,69000,,인천,강화,300000021,200000234,37.6103004681935,126.389879619311
130,132,80460,강화도 우리바다펜션,펜션,pension,80000,80000,,인천,강화,300000021,200000234,37.6234062,126.3750971
131,133,79411,강화도 느티나무펜션,펜션,pension,69000,69000,,인천,강화,300000021,200000234,37.62338670892721,126.380993557284
132,134,98585,강화도 엘린휴버트독채펜션,펜션,pension,0,0,,인천,강화,300000021,200000234,37.6044110333825,126.429521452137
133,135,71036,강화도 섬마을펜션,펜션,pension,120000,120000,,인천,강화,300000021,200000234,37.5918099,126.5160872
134,136,92266,강화도 돈대모루펜션(동막해수욕장),펜션,pension,140000,140000,,인천,강화,300000021,200000234,37.5936467629335,126.462123691262
135,137,78783,인천(강화도) 로마,모텔,motel,40000,40000,,인천,강화,300000021,200000234,37.6217127,126.53512649999993
136,138,71415,석모도 심플하우스펜션,펜션,pension,90000,90000,,인천,강화,300000021,200000234,37.6662260922962,126.367836007197
137,139,77673,강화도 별헤는집펜션(전객실 리모델링),펜션,pension,89000,89000,,인천,강화,300000021,200000234,37.5916400263381,126.51775375574644
138,140,71467,강화도 소고펜션(족구장),펜션,pension,88000,110000,,인천,강화,300000021,200000234,37.6374093,126.3920012
139,141,77067,강화도 썬하우스펜션,펜션,pension,59000,59000,,인천,강화,300000021,200000234,37.70605341,126.36695264
140,142,78289,강화도(석모도) 바바벨리펜션,펜션,pension,120000,120000,,인천,강화,300000021,200000234,37.6677586827936,126.3575895954264
141,143,74955,강화도 노을담은스파펜션(전객실 입욕제 제공),펜션,pension,75650,89000,,인천,강화,300000021,200000234,37.6062669977,126.4792633325
142,144,72359,강화도 태양의해변펜션,펜션,pension,100000,100000,,인천,강화,300000021,200000234,37.636099556239735,126.38619025973584
143,145,79406,강화도 아모테카페펜션,펜션,pension,58000,58000,,인천,강화,300000021,200000234,37.59451303097617,126.46203898683713
144,146,88129,강화도 벧엘펜션,펜션,pension,55000,55000,,인천,강화,300000021,200000234,37.635386911711,126.37531185711
145,147,77117,강화도 은가비펜션,펜션,pension,100000,100000,,인천,강화,300000021,200000234,37.68224741,126.39741868
146,148,86655,강화도 로뎀하우스펜션,펜션,pension,69000,69000,,인천,강화,300000021,200000234,37.5943887752335,126.434701400521
147,149,79273,강화도 갈릴리펜션,펜션,pension,90000,90000,,인천,강화,300000021,200000234,37.593677289418636,126.45193583636318
148,150,78799,강화도 라파밀리아펜션,펜션,pension,150000,150000,,인천,강화,300000021,200000234,37.68219082723764,126.39692486618226
149,151,83372,강화도 아기곰키즈스파펜션,펜션,pension,159000,179000,,인천,강화,300000021,200000234,37.7198489939785,126.415474313779
150,152,78595,인천(강화도) 탑모텔,모텔,motel,40000,40000,,인천,강화,300000021,200000234,37.765897,126.4547063
151,153,94515,강화 바다사랑펜션,펜션,pension,70000,70000,,인천,강화,300000021,200000234,37.5929768901143,126.458499640614
152,154,77138,강화도(석모도) 클럽피오씨펜션(A동),펜션,pension,80000,120000,,인천,강화,300000021,200000234,37.66765916,126.35060407
153,155,71423,강화도 요정들의선물펜션,펜션,pension,100000,100000,,인천,강화,300000021,200000234,37.5979518673,126.4621908775
154,156,86173,강화도 동검도한국빌라펜션,펜션,pension,80000,80000,,인천,강화,300000021,200000234,37.5816657752741,126.516500539391
155,157,86859,강화도 쟈밀나하펜션(사계절바베큐),펜션,pension,55100,58000,,인천,강화,300000021,200000234,37.6243652860159,126.378000958313
156,158,77119,강화도 휴엘펜션,펜션,pension,110000,110000,,인천,강화,300000021,200000234,37.723346,126.5021063
157,159,77101,강화도 쑥쑥펜션,펜션,pension,0,0,,인천,강화,300000021,200000234,37.79587233,126.4574485
158,160,68252,강화(석모도) 제이,모텔,motel,40000,0,,인천,강화,300000021,200000234,37.6859759,126.3649583
159,161,78810,인천(석모도) 석모도호텔,모텔,motel,70000,70000,쉴만한 공간 카페 (장소 무료 제공),인천,강화,300000021,200000234,37.71212059999999,126.35525000000007
160,162,79405,강화도 별밭지기펜션,펜션,pension,45000,45000,,인천,강화,300000021,200000234,37.6061656094858,126.39316328741226
161,163,85041,강화도 장락재펜션,펜션,pension,160000,160000,,인천,강화,300000021,200000234,37.6364771534009,126.430868049305
162,164,77128,강화도 아트밸리펜션,펜션,pension,90000,90000,,인천,강화,300000021,200000234,37.73387385,126.44771858
163,165,71806,강화도 바오밥펜션,펜션,pension,0,0,,인천,강화,300000021,200000234,37.6107824,126.3859362
164,166,66974,인천(강화) MOTEL 917,모텔,motel,40000,0,★강화도 최고 오션뷰 빠른입실 문의★,인천,강화,300000021,200000234,37.7011411,126.37691730000006
165,167,70923,강화도 낙조가보이는펜션 (선셋스팟),펜션,pension,89000,150000,,인천,강화,300000021,200000234,37.6183767,126.382515
166,168,84188,강화 터펜션,펜션,pension,59000,59000,,인천,강화,300000021,200000234,37.6112636696257,126.384840569419
167,169,88856,강화도 팽나무펜션,펜션,pension,80000,80000,,인천,강화,300000021,200000234,37.6176557103255,126.388094820627
168,170,74607,강화도 들국화펜션,펜션,pension,0,0,,인천,강화,300000021,200000234,37.6113287836,126.4772437815
169,171,77666,강화도 어나더153펜션(애견펜션),펜션,pension,0,0,,인천,강화,300000021,200000234,37.59447245790946,126.43786670674083
170,172,86955,강화도 해오름펜션,펜션,pension,0,0,,인천,강화,300000021,200000234,37.6819667630988,126.395641249345
171,173,71164,강화도 해오름빛펜션,펜션,pension,50000,50000,,인천,강화,300000021,200000234,37.6104292,126.4562874
172,174,88052,석모도 하늘아래독채펜션,펜션,pension,200000,200000,,인천,강화,300000021,200000234,37.68508671612,126.369265839345
173,175,77124,강화도 J모텔펜션,펜션,pension,50000,50000,,인천,강화,300000021,200000234,37.6861211,126.3649321
174,176,71141,"강화도 내리몽바닷가펜션(오션뷰, 바베큐)",펜션,pension,75650,89000,,인천,강화,300000021,200000234,37.6371502234,126.3970489233
175,177,74804,강화도 몽마르뜨펜션,펜션,pension,100000,100000,,인천,강화,300000021,200000234,37.5952763235,126.4610868693
176,178,71517,강화도 노을칸타타펜션,펜션,pension,70000,70000,,인천,강화,300000021,200000234,37.6075145,126.4016966
177,179,71180,강화도 하나비펜션,펜션,pension,100000,120000,,인천,강화,300000021,200000234,37.6007081,126.3879072
178,180,77605,강화도 아리하우스펜션,펜션,pension,70000,70000,,인천,강화,300000021,200000234,37.608161826764295,126.39872810592318
179,181,77121,강화도 누리펜션타운,펜션,pension,90000,120000,,인천,강화,300000021,200000234,37.60107130372577,126.49277072937114
180,182,70961,강화도 지베르니펜션(전객실 실내바베큐장),펜션,pension,0,0,,인천,강화,300000021,200000234,37.7050487,126.3696156
181,183,71551,강화도 데일리펜션,펜션,pension,60000,60000,,인천,강화,300000021,200000234,37.5928086,126.4367529
182,184,79512,인천(강화도) 캘리포니아,모텔,motel,35000,35000,,인천,강화,300000021,200000234,37.6968972512676,126.42642654418032
183,185,81332,"강화도 바닷가숲속펜션(단체,워크샵)",펜션,pension,100000,100000,,인천,강화,300000021,200000234,37.6633870833139,126.528603965032
184,186,71549,강화도 늘푸른펜션,펜션,pension,50000,50000,,인천,강화,300000021,200000234,37.6091379,126.3959424
185,187,76014,강화도 썬댄스펜션,펜션,pension,140000,140000,,인천,강화,300000021,200000234,37.5927730631,126.438214646
186,188,71712,강화도 동막골바다펜션,펜션,pension,150000,150000,,인천,강화,300000021,200000234,37.5935136,126.4589181
187,189,86384,강화도 더스타스파펜션,펜션,pension,71200,71200,,인천,강화,300000021,200000234,37.6061722637913,126.479805662763
188,190,78802,인천(강화도) 샤인,모텔,motel,45000,50000,장기방 예약 가능 (현장 문의 필요),인천,강화,300000021,200000234,37.6219936,126.53453200000001
189,191,69175,인천(강화도) W,모텔,motel,40000,0,★주차장 완비★ 주차 60대 가능,인천,강화,300000021,200000234,37.6264565,126.5338992
190,192,86403,강화도 하이맘키즈가족스파펜션옐로,펜션,pension,79000,89000,,인천,강화,300000021,200000234,37.6048474986695,126.422746419609
191,193,78798,인천(강화도) 블루,모텔,motel,35000,0,"1층 노래방, 세븐일레븐 편의점 입점",인천,강화,300000021,200000234,37.6368793,126.52820599999995
192,194,71855,강화도 쁘띠펜션(키즈스위밍풀빌라),펜션,pension,100000,100000,,인천,강화,300000021,200000234,37.6231549,126.3819246
193,196,76339,강화도 큐티펜션,펜션,pension,59000,100000,,인천,강화,300000021,200000234,37.6173080589528,126.38327301771555
194,197,75841,강화도 노을과바다펜션,펜션,pension,550000,550000,,인천,강화,300000021,200000234,37.7177583283,126.3536058297
195,198,77463,강화도 노을바다 펜션,펜션,pension,80000,80000,,인천,강화,300000021,200000234,37.71096813,126.35745717
196,199,94514,강화 석모도돌모로펜션A동,펜션,pension,0,0,,인천,강화,300000021,200000234,37.705018315166,126.285908920325
197,200,77111,강화도 노을이머무는곳펜션,펜션,pension,100000,100000,,인천,강화,300000021,200000234,37.71162978,126.35586827
198,201,71377,강화도 파인트리펜션,펜션,pension,55000,65000,,인천,강화,300000021,200000234,37.6110609,126.3909992
199,202,71364,강화도 바다빛노을동산펜션,펜션,pension,75000,75000,,인천,강화,300000021,200000234,37.6188813,126.3806164
200,203,82834,강화도 유리바다펜션,펜션,pension,72900,72900,,인천,강화,300000021,200000234,37.7113978571826,126.356740688038
201,204,78795,인천(강화도) 에쿠스,모텔,motel,40000,40000,,인천,강화,300000021,200000234,37.637714751376194,126.39330705026246
202,205,71233,"강화도 아미바다펜션(오션뷰,개별바베큐,낙조맛집)",펜션,pension,200000,200000,,인천,강화,300000021,200000234,37.6151196,126.3799958
203,206,91081,강화도 풍경이머무는곳펜션,펜션,pension,60000,60000,,인천,강화,300000021,200000234,37.6394493632934,126.395102899139
204,207,76836,"강화도 마니올펜션(스파, 노천탕)",펜션,pension,0,0,,인천,강화,300000021,200000234,37.71134463815152,126.35710915776563
205,208,71831,강화도 카타나펜션,펜션,pension,0,0,,인천,강화,300000021,200000234,37.5941313,126.4521298
206,209,77122,강화도(석모도) 클럽피오씨펜션(B동),펜션,pension,90000,140000,,인천,강화,300000021,200000234,37.6678510422231,126.35048475078
207,210,79387,강화도 그랑빌펜션,펜션,pension,79000,79000,,인천,강화,300000021,200000234,37.58889162359296,126.50848268061483
208,211,70843,석모도(섬) 해비치펜션,펜션,pension,120000,120000,,인천,강화,300000021,200000234,37.6819892947296,126.323584039139
209,212,75734,강화도 파도소리펜션,펜션,pension,59400,66000,,인천,강화,300000021,200000234,37.6136894,126.3825278
210,213,87627,강화도 이즈바스파펜션,펜션,pension,49000,49000,,인천,강화,300000021,200000234,37.6250012947739,126.377115043136
211,215,77063,강화 스토리 펜션,펜션,pension,59000,59000,,인천,강화,300000021,200000234,37.59643008,126.44257157
212,216,77066,강화도 솔밭펜션,펜션,pension,80000,80000,,인천,강화,300000021,200000234,37.59338772,126.45790742
213,217,84861,강화도 엘리시아펜션,펜션,pension,120000,120000,,인천,강화,300000021,200000234,37.5946822951,126.4464254195
214,218,71011,강화도 마로니에펜션,펜션,pension,80000,80000,,인천,강화,300000021,200000234,37.615158,126.4394177
215,219,77104,강화도 밀물때횟집민박,펜션,pension,50000,50000,,인천,강화,300000021,200000234,37.592602258132985,126.4595209568957
216,220,87385,강화도 프로방스고르도스파펜션(사계절바베큐),펜션,pension,79000,79000,,인천,강화,300000021,200000234,37.5943797388013,126.457405515097
217,221,70415,강화도 프레시아 호텔,2성급,hotel,80000,80000,,인천,강화,300000021,200000234,37.632925,126.491225
218,222,82611,강화도(석모도) 하늘나루펜션,펜션,pension,90000,90000,,인천,강화,300000021,200000234,37.6940887749713,126.362346307759
219,223,78874,강화도 휴젠리조트펜션,펜션,pension,90000,90000,,인천,강화,300000021,200000234,37.59290234261595,126.45894358455851
220,224,79668,강화도 바다노리펜션,펜션,pension,80000,80000,,인천,강화,300000021,200000234,37.6101340829614,126.389553446498
221,225,81992,강화도 나나펜션,펜션,pension,80000,80000,,인천,강화,300000021,200000234,37.712641871983,126.353851923278
222,226,86351,강화도 야생화카페펜션,펜션,pension,79000,79000,,인천,강화,300000021,200000234,37.6137107586336,126.460796882142
223,227,77106,강화도 숲속의아침펜션,펜션,pension,120000,120000,,인천,강화,300000021,200000234,37.63037633,126.42996094
224,228,98498,강화도 스카이랜드카라반리조트,펜션,pension,104000,130000,,인천,강화,300000021,200000234,37.6918123942381,126.300528135947
225,229,86915,강화도 바닷가쉼터 펜션,펜션,pension,62100,69000,,인천,강화,300000021,200000234,37.6016364754565,126.486786235477
226,230,86685,강화도 파스텔펜션,펜션,pension,79000,79000,,인천,강화,300000021,200000234,37.593385426163,126.432107772454
227,231,91113,강화도 나폴리펜션,펜션,pension,150000,170000,,인천,강화,300000021,200000234,37.6087347741309,126.385283150728
228,232,88868,"강화도 초콜릿스파펜션(스파,개별바베큐)",펜션,pension,0,0,,인천,강화,300000021,200000234,37.6135044169124,126.383291067857
229,233,87155,강화도 바다네스파펜션(사계절바베큐),펜션,pension,69000,69000,,인천,강화,300000021,200000234,37.6062447884771,126.479886470524
230,234,92925,강화도 친환경바다배범선키즈펜션,펜션,pension,109000,109000,,인천,강화,300000021,200000234,37.698541354596,126.431268935713
231,235,74634,강화도 휴노을펜션,펜션,pension,0,0,,인천,강화,300000021,200000234,37.62599046086811,126.38132539389767
232,236,70883,강화도 풍경소리펜션,펜션,pension,70000,70000,,인천,강화,300000021,200000234,37.611019401512,126.39163340238
233,237,77660,강화도 마니산밸리펜션,펜션,pension,180000,180000,,인천,강화,300000021,200000234,37.62974638533046,126.42936761016249
234,238,77105,강화도 파도민박,펜션,pension,100000,100000,,인천,강화,300000021,200000234,37.59349017,126.45824183
235,239,70999,강화도 강화펜션밴드(독채),펜션,pension,150000,150000,,인천,강화,300000021,200000234,37.7011461,126.4285433
236,240,77120,강화도 해돋이펜션,펜션,pension,100000,100000,,인천,강화,300000021,200000234,37.5950816076316,126.461893466763
237,241,92243,강화도 나무늘보펜션,펜션,pension,250000,250000,,인천,강화,300000021,200000234,37.7389619979578,126.386585550604
238,242,91344,강화도 해미르스파펜션,펜션,pension,0,0,,인천,강화,300000021,200000234,37.6864957547841,126.390672767555
239,243,94415,강화 드림힐펜션,펜션,pension,123500,130000,,인천,강화,300000021,200000234,37.69015061391,126.305412434211
240,244,98718,인천(강화도) 남문장,모텔,motel,40000,40000,,인천,강화,300000021,200000234,37.74523403767699,126.48670673148281
241,245,94094,강화도 위플독애견펜션,펜션,pension,70000,70000,,인천,강화,300000021,200000234,37.6066985914543,126.51419268907
242,246,92248,강화도 해모루펜션,펜션,pension,60000,60000,,인천,강화,300000021,200000234,37.5935740388848,126.456671635107
243,247,98624,강화도 아로니움글램핑,펜션,pension,110000,110000,,인천,강화,300000021,200000234,37.6878818070184,126.363636916848
244,248,97836,강화도 포도나무펜션,펜션,pension,160000,160000,,인천,강화,300000021,200000234,37.6193475478687,126.461507261176
245,249,94107,강화도 황청덕산펜션,펜션,pension,300000,300000,,인천,강화,300000021,200000234,37.7172624607362,126.368538231828
246,250,86675,강화도 나들길흙집펜션,펜션,pension,100000,100000,,인천,강화,300000021,200000234,37.6683121342388,126.481245469164
247,251,86753,강화도 바다빛펜션(사계절바베큐),펜션,pension,0,0,,인천,강화,300000021,200000234,37.637154327234,126.384686081902
248,252,91756,강화도 힐링힐펜션,펜션,pension,150000,150000,,인천,강화,300000021,200000234,37.7431704293977,126.393299919936
249,253,85663,대구 논공 오데오,모텔,motel,40000,40000,,인천,강화,300000021,200000234,35.72628042258305,128.44839421639062
250,254,84626,강화도 오카소펜션,펜션,pension,100000,100000,,인천,강화,300000021,200000234,37.627599374249,126.379566737878
251,255,89326,강화도 로만티카애견리조트펜션,펜션,pension,121600,160000,,인천,강화,300000021,200000234,37.6041869942439,126.411654243159
252,256,94219,강화 포르티아펜션,펜션,pension,0,0,,인천,강화,300000021,200000234,37.7208065414656,126.401256938797
253,257,88925,강화도 에코스파펜션글램핑,펜션,pension,0,0,,인천,강화,300000021,200000234,37.6067682512136,126.478761765156
254,258,87376,강화도 하나와 엘리스 펜션(사계절바베큐),펜션,pension,80000,80000,,인천,강화,300000021,200000234,37.5932613530024,126.450608669482
255,259,83140,강화도 로뎀나무펜션,펜션,pension,110000,110000,,인천,강화,300000021,200000234,37.6374980698122,126.385571941056
256,260,69467,인천(강화도) 자유공간,모텔,motel,0,0,,인천,강화,300000021,200000234,37.7297263,126.48898489999999
257,261,83424,강화도 진하우스펜션,펜션,pension,500000,500000,,인천,강화,300000021,200000234,37.5953762254545,126.462209075619
258,262,84766,강화도 강가에펜션(리버뷰),펜션,pension,110000,110000,,인천,강화,300000021,200000234,37.6978038050101,126.428451096125
259,263,84860,강화도 하얀미소펜션,펜션,pension,80000,80000,,인천,강화,300000021,200000234,37.5957859184,126.4560393381
260,264,78195,강화도 옛길플라워펜션,펜션,pension,140000,140000,,인천,강화,300000021,200000234,37.716829602994096,126.40017371892657
261,265,79719,강화도 별빛가람펜션,펜션,pension,90000,90000,,인천,강화,300000021,200000234,37.618193093407,126.398140915977
262,266,80228,강화도 산타루치아펜션,펜션,pension,150000,150000,,인천,강화,300000021,200000234,37.6365638760964,126.380408189192
263,267,80275,강화도 펜션제제,펜션,pension,170000,170000,,인천,강화,300000021,200000234,37.7586032835785,126.457933816055
264,268,76455,강화도(석모도) 헬로카라반,펜션,pension,0,0,,인천,강화,300000021,200000234,37.65323792888651,126.33661458206888
265,269,76937,강화도 정이넘치는펜션,펜션,pension,180000,180000,,인천,강화,300000021,200000234,37.61980391,126.4032784
266,270,77130,석모도 스텔라펜션,펜션,pension,80000,80000,,인천,강화,300000021,200000234,37.68259141,126.32204668
267,271,77472,강화 별빛별장 펜션,펜션,pension,500000,500000,,인천,강화,300000021,200000234,37.7551342,126.4520633
268,272,74701,강화도 더스테이하우스펜션,펜션,pension,200000,200000,,인천,강화,300000021,200000234,37.7157698147,126.4043876993
269,273,81060,강화도 늘푸른호숫가펜션,펜션,pension,0,0,,인천,강화,300000021,200000234,37.65539336,126.46909301
270,274,81691,강화도 석가헌펜션,펜션,pension,400000,400000,,인천,강화,300000021,200000234,37.6100229404302,126.479841586688
271,275,81768,강화도 제임스펜션,펜션,pension,270000,270000,,인천,강화,300000021,200000234,37.7175329441268,126.384849493293
272,276,82454,강화도 신화팀버하우스펜션,펜션,pension,107000,107000,,인천,강화,300000021,200000234,37.7731285322186,126.360325575793
273,277,82528,강화도 SUN996펜션,펜션,pension,990000,990000,,인천,강화,300000021,200000234,37.6038241259946,126.49828464598
274,278,76001,강화도 마니산문곡펜션,펜션,pension,80000,80000,,인천,강화,300000021,200000234,37.632698075577,126.433820181157
275,279,70754,강화도 예플로펜션,펜션,pension,100000,100000,,인천,강화,300000021,200000234,37.6552368852,126.4727748646
276,280,70859,강화도 바이올렛펜션,펜션,pension,72000,80000,,인천,강화,300000021,200000234,37.7221935473,126.4047219105
277,281,71436,강화도 추억이있는바다펜션,펜션,pension,0,0,,인천,강화,300000021,200000234,37.711396689088375,126.35674126517347
278,282,71587,강화도 노을빛머무는집펜션,펜션,pension,350000,350000,,인천,강화,300000021,200000234,37.6303345,126.3775669
279,283,80156,인천(강화도) 힐하우스,모텔,motel,0,0,,인천,강화,300000021,200000234,37.7021758,126.3754532
280,284,71995,강화도 동그라미펜션(월풀스파),펜션,pension,0,0,,인천,강화,300000021,200000234,37.6204366,126.3776805
281,285,93065,강화도 프레시아호텔펜션,펜션,pension,0,0,,인천,강화,300000021,200000234,37.6321758414757,126.490979240389
282,286,85567,강화도 아붕펜션,펜션,pension,85000,85000,,인천,강화,300000021,200000234,37.6201260682263,126.378864505942
283,287,85716,강화도 성지펜션,펜션,pension,1200000,1200000,,인천,강화,300000021,200000234,37.6598641211337,126.41668216955
284,288,86667,강화도 웨스턴비치펜션,펜션,pension,79000,79000,,인천,강화,300000021,200000234,37.5936071449225,126.433548860257
285,289,94179,강화 아리엘펜션,펜션,pension,99000,99000,,인천,강화,300000021,200000234,37.7200962732375,126.511832166286
286,290,94527,강화 마니산펜션,펜션,pension,120000,120000,,인천,강화,300000021,200000234,37.633074765422,126.424027521293
287,291,94531,강화 석모도돌모로펜션B동,펜션,pension,0,0,,인천,강화,300000021,200000234,37.7052423407734,126.285961428983
288,292,94936,강화 세모바다펜션,펜션,pension,120000,120000,,인천,강화,300000021,200000234,37.5830105264664,126.51791788637
289,293,95261,강화 유한펜션,펜션,pension,60000,60000,,인천,강화,300000021,200000234,37.6532123683379,126.337789933976
290,294,97609,강화도 해넘이하우스펜션,펜션,pension,450000,450000,,인천,강화,300000021,200000234,37.6079023257011,126.395110007988
291,295,97631,강화도 프랑스가든펜션,펜션,pension,0,0,,인천,강화,300000021,200000234,37.7288911939803,126.3937620728
292,296,88130,강화도 새벽별바다펜션(개별바베큐),펜션,pension,109000,109000,,인천,강화,300000021,200000234,37.639433875625,126.397305217784
293,297,98582,강화도 아비앙또스파펜션,펜션,pension,0,0,,인천,강화,300000021,200000234,37.7213227663316,126.401642393907
294,298,98735,강화도 제이크라운몽골게르펜션,펜션,pension,0,0,,인천,강화,300000021,200000234,37.6753810135558,126.489328054347
295,299,99087,강화도(석모도) 에뚜아르 펜션,펜션,pension,100000,100000,,인천,강화,300000021,200000234,37.689635502874,126.311413635201
296,300,99336,강화 더스톤빌리지풀빌라,펜션,pension,400000,400000,,인천,강화,300000021,200000234,37.6925377415047,126.343622260158
297,301,99502,강화도 루체펜션,펜션,pension,70300,70300,,인천,강화,300000021,200000234,37.6074066080534,126.422943177361
298,302,100144,강화도 마니꼴똥돼지펜션,펜션,pension,80000,80000,,인천,강화,300000021,200000234,37.6244215367787,126.380541386617
299,303,68355,인천(강화) 카리브,모텔,motel,50000,40000,,인천,강화,300000021,200000234,37.6026551,126.4578042
300,304,74553,강화도 편의점펜션,펜션,pension,0,0,,인천,강화,300000021,200000234,37.6382415676,126.392009708
301,305,75115,강화도 펜션달,펜션,pension,550000,550000,,인천,강화,300000021,200000234,37.6193892,126.4046912
302,306,75829,강화도 황금빛펜션,펜션,pension,0,0,,인천,강화,300000021,200000234,37.6494199376,126.4452125748
303,307,71984,강화도 온세상펜션,펜션,pension,130000,130000,,인천,강화,300000021,200000234,37.6246,126.4979
304,308,72524,강화도 바다가그리운나무펜션,펜션,pension,350000,350000,,인천,강화,300000021,200000234,37.7056323,126.3663342
305,309,72842,강화도 자연농원펜션,펜션,pension,220000,220000,,인천,강화,300000021,200000234,37.5976586,126.5077172
306,310,71775,강화도 갈매기의꿈펜션,펜션,pension,55000,70000,,인천,강화,300000021,200000234,37.5969689,126.5059062
307,311,80735,인천(강화도) 프레시아호텔,모텔,motel,0,0,,인천,강화,300000021,200000234,37.6320969,126.4910597
308,312,71000,강화도 송화펜션,펜션,pension,750000,750000,,인천,강화,300000021,200000234,37.676495,126.4145204
309,313,71189,강화도 헬기하우스펜션,펜션,pension,120000,120000,,인천,강화,300000021,200000234,37.8004806,126.4414205
310,314,71202,강화도 레이첼펜션,펜션,pension,120000,120000,,인천,강화,300000021,200000234,37.6106488006295,126.390440445271
311,315,80829,강화도 솔향기펜션,펜션,pension,400000,400000,,인천,강화,300000021,200000234,37.7136289,126.3991949
312,316,81052,강화도 테라스펜션(개별바베큐),펜션,pension,70000,70000,,인천,강화,300000021,200000234,37.67496363,126.41089859
313,317,81782,강화도 조운돌담사이로펜션(한옥독채),펜션,pension,400000,400000,,인천,강화,300000021,200000234,37.7557201530729,126.409127233514
314,318,81786,강화도 젤코바펜션,펜션,pension,330000,330000,,인천,강화,300000021,200000234,37.614774059693,126.381189208275
315,319,81958,강화도 산토끼펜션,펜션,pension,70000,70000,,인천,강화,300000021,200000234,37.6104054721737,126.454825351714
316,320,82290,강화도 크루별장펜션,펜션,pension,350000,350000,,인천,강화,300000021,200000234,37.7193928777068,126.406788277976
317,321,78729,강화도 크로바펜션,펜션,pension,120000,120000,,인천,강화,300000021,200000234,37.596823057168194,126.50915068660373
318,322,80096,강화도 하나펜션,펜션,pension,85000,85000,,인천,강화,300000021,200000234,37.6281646661625,126.378133215197
319,323,80176,강화도 고려호반펜션,펜션,pension,120000,120000,,인천,강화,300000021,200000234,37.7236785426376,126.402324650097
320,324,80450,강화도 솔로몬펜션,펜션,pension,0,0,,인천,강화,300000021,200000234,37.6067217791316,126.414075709874
321,325,88871,강화도 낙조힐링카라반캠핑장,펜션,pension,0,0,,인천,강화,300000021,200000234,37.6197899390522,126.381355938128
322,326,88919,"강화도 얼바인펜션(독채, 스크린골프 무료)",펜션,pension,320000,320000,,인천,강화,300000021,200000234,37.7183027307281,126.406057591875
323,327,92668,강화도 씨스테이펜션,펜션,pension,200000,200000,,인천,강화,300000021,200000234,37.6391776535826,126.393054963597
324,328,93120,강화도 어반티지글램핑카라반,펜션,pension,180000,180000,,인천,강화,300000021,200000234,37.7326555445654,126.411390510414
325,329,84358,강화도 틈바구니친구네펜션,펜션,pension,180000,180000,,인천,강화,300000021,200000234,37.7853432277441,126.445921065383
326,330,86123,강화도 소나무집펜션,펜션,pension,450000,450000,,인천,강화,300000021,200000234,37.8090981259425,126.426235022988
327,331,78092,강화도 네르하펜션,펜션,pension,0,0,,인천,강화,300000021,200000234,37.63953011896172,126.39029518810375
328,332,86899,강화도 낙조의왈츠펜션,펜션,pension,0,0,,인천,강화,300000021,200000234,37.6137223127151,126.383264237905
329,333,76970,강화도 바다정원오션뷰펜션,펜션,pension,300000,300000,,인천,강화,300000021,200000234,37.71813738425871,126.35372502815846
330,334,77073,강화도 별장아원펜션,펜션,pension,400000,400000,,인천,강화,300000021,200000234,37.71894327,126.40766055
331,335,77081,강화도 호박펜션,펜션,pension,0,0,,인천,강화,300000021,200000234,37.61111703,126.38543524
332,336,77083,강화도 물마루펜션,펜션,pension,280000,280000,,인천,강화,300000021,200000234,37.80031482,126.44485797
333,337,77116,강화도 UN본부펜션,펜션,pension,140000,140000,,인천,강화,300000021,200000234,37.60360928,126.48381619
334,338,77170,강화도 위딜펜션,펜션,pension,0,0,,인천,강화,300000021,200000234,37.68999198,126.30994337
335,339,77186,강화도 해비치펜션,펜션,pension,100000,100000,,인천,강화,300000021,200000234,37.61051841,126.39162389
336,340,99389,강화도 풀빌라 ESC,펜션,pension,450000,500000,,인천,강화,300000021,200000234,37.6382437896581,126.393263889828
337,341,100448,강화도 룰루랄라스파펜션,펜션,pension,69000,79000,,인천,강화,300000021,200000234,37.6053017827012,126.429157467142
338,342,94402,강화 해들뫼펜션,펜션,pension,60000,60000,,인천,강화,300000021,200000234,37.6931027704936,126.356328241144
339,343,94573,강화 엘리야리조트펜션,펜션,pension,250000,250000,,인천,강화,300000021,200000234,37.6359530206793,126.385335078285
340,344,94707,강화 석모도 발리펜션,펜션,pension,130000,130000,,인천,강화,300000021,200000234,37.6681668431829,126.350650652097
341,345,94752,강화 솔잎향 펜션,펜션,pension,100000,100000,,인천,강화,300000021,200000234,37.6209935576761,126.406923918759
342,346,94765,강화 계절의향기펜션,펜션,pension,350000,350000,,인천,강화,300000021,200000234,37.7186273842735,126.409364810546
343,347,94884,강화 석모도포유펜션A동,펜션,pension,94000,99000,,인천,강화,300000021,200000234,37.7047891996842,126.286221034755
344,348,95163,강화 강화포시즌펜션,펜션,pension,0,0,,인천,강화,300000021,200000234,37.6379705178458,126.385256484301
345,349,98246,강화도 은하산토리니풀빌라펜션,펜션,pension,150000,400000,,인천,강화,300000021,200000234,37.5835583353187,126.518030625454
346,350,98283,강화도 스위트하우스펜션,펜션,pension,80000,80000,,인천,강화,300000021,200000234,37.6230552184933,126.378418528161
347,351,67503,인천(강화) 힐링S,모텔,motel,50000,30000,2023년 1월 리모델링 완료,인천,강화,300000021,200000234,37.6733001,126.4893459
348,352,81454,강화도 소트리팜펜션,펜션,pension,230000,230000,,인천,강화,300000021,200000234,37.7126344170789,126.479690352491
349,353,81951,강화도 세상이보이는집펜션,펜션,pension,110000,110000,,인천,강화,300000021,200000234,37.7107868123837,126.35754776035
350,354,71654,강화도 바닷가에산장펜션,펜션,pension,60000,60000,,인천,강화,300000021,200000234,37.7040137,126.3674765
351,355,71665,"강화도 밸리펜션(키즈,독채)",펜션,pension,400000,400000,,인천,강화,300000021,200000234,37.6076530535124,126.457833232649
352,356,71985,강화도 뷰나인아임파인펜션(애견동반),펜션,pension,0,0,,인천,강화,300000021,200000234,37.6361159,126.3780668
353,357,72551,강화도 랑블리펜션,펜션,pension,300000,300000,,인천,강화,300000021,200000234,37.7155722988,126.4045253785
354,358,85444,강화도 아침숲속야영장펜션,펜션,pension,60000,60000,,인천,강화,300000021,200000234,37.6144886661635,126.478417590275
355,359,85621,강화도 하늘샘물펜션,펜션,pension,100000,100000,,인천,강화,300000021,200000234,37.705502821722,126.359792867778
356,360,85834,강화도 플라워펜션타운,펜션,pension,0,0,,인천,강화,300000021,200000234,37.6699574909145,126.363055189872
357,361,85912,석모도 바다세상펜션,펜션,pension,0,0,,인천,강화,300000021,200000234,37.6868534732035,126.313430486462
358,362,76618,강화도 외포항별장펜션,펜션,pension,150000,150000,,인천,강화,300000021,200000234,37.703732173438425,126.37567217981857
359,363,76964,강화도 오류내우리집펜션,펜션,pension,500000,500000,,인천,강화,300000021,200000234,37.75535764,126.45264263
360,364,77064,강화도 초원의집펜션,펜션,pension,120000,120000,,인천,강화,300000021,200000234,37.67499725,126.41548233
361,365,77100,강화도 꽃향기바다내음펜션,펜션,pension,60000,60000,,인천,강화,300000021,200000234,37.59313418,126.43836592
362,366,77109,강화도 예뜰펜션(독채),펜션,pension,240000,240000,,인천,강화,300000021,200000234,37.71226267,126.3562756
363,367,77918,"강화도 별마당펜션(독채,단체펜션)",펜션,pension,400000,400000,,인천,강화,300000021,200000234,37.7129245230689,126.35472749370484
364,368,70699,강화도 메종스텔라펜션,펜션,pension,0,0,,인천,강화,300000021,200000234,37.632611357,126.4719106231
365,369,70753,강화도 마음의정원펜션,펜션,pension,162000,180000,,인천,강화,300000021,200000234,37.7115399,126.3978639
366,370,70890,강화도 핑크하우스펜션,펜션,pension,0,0,,인천,강화,300000021,200000234,37.71592,126.4049961
367,371,70983,강화도 갑비고차펜션,펜션,pension,250000,250000,,인천,강화,300000021,200000234,37.7410579,126.4609213
368,372,71037,강화도 동검펜션,펜션,pension,80000,80000,,인천,강화,300000021,200000234,37.5862116,126.5189099
369,373,71148,강화도 팜펜션,펜션,pension,250000,250000,,인천,강화,300000021,200000234,37.7059416,126.3961117
370,374,78270,강화도 자연청람펜션,펜션,pension,350000,350000,,인천,강화,300000021,200000234,37.6207476,126.4067543
371,375,78762,강화도 동막아일랜드펜션,펜션,pension,130000,130000,,인천,강화,300000021,200000234,37.59432062916162,126.45779647763484
372,376,83007,강화도 굿모닝펜션,펜션,pension,100000,100000,,인천,강화,300000021,200000234,37.6084704132531,126.393341507009
373,377,83205,강화도 푸른하늘펜션,펜션,pension,55000,55000,,인천,강화,300000021,200000234,37.6136085523093,126.385117880558
374,378,83591,강화도 솔향기가득한펜션,펜션,pension,220000,220000,,인천,강화,300000021,200000234,37.5999684032198,126.511565129485
375,379,74676,석모도(섬) 바닷가하얀집펜션,펜션,pension,100000,100000,,인천,강화,300000021,200000234,37.6519425564,126.3344141447
376,380,75233,강화도 골드뷰펜션,펜션,pension,0,0,,인천,강화,300000021,200000234,37.6095224907,126.3878991671
377,381,73636,강화도 노랑펜션,펜션,pension,0,0,,인천,강화,300000021,200000234,37.5942083111,126.4592375874
378,382,86822,강화 아이리스펜션,펜션,pension,0,0,,인천,강화,300000021,200000234,37.7402677791018,126.320815429778
379,383,87380,강화도 에덴의정원펜션,펜션,pension,59000,59000,,인천,강화,300000021,200000234,37.6048474986695,126.422746419609
380,384,88120,강화도 솔오름펜션,펜션,pension,65000,65000,,인천,강화,300000021,200000234,37.595589350056,126.45561501364
381,385,97799,강화도 머물다펜션,펜션,pension,320000,320000,,인천,강화,300000021,200000234,37.714758840918,126.404707680186
382,386,98313,강화도 산내들펜션,펜션,pension,80000,80000,,인천,강화,300000021,200000234,37.6686005680455,126.348396219264
383,387,88857,강화도 풍경이그려지는집펜션,펜션,pension,89000,89000,,인천,강화,300000021,200000234,37.6931868090039,126.360547085699
384,388,88922,"강화도 노루목별장펜션(애견동반,독채,사계절바베큐)",펜션,pension,100000,100000,,인천,강화,300000021,200000234,37.6583191767391,126.331090219851
385,389,89455,강화도 마린파이브풀빌라가족펜션,펜션,pension,0,0,,인천,강화,300000021,200000234,37.610246678826,126.384760041362
386,390,91279,강화도 마리나펜션,펜션,pension,68000,68000,,인천,강화,300000021,200000234,37.5947874474186,126.456742754195
387,391,98994,강화도 해밀펜션,펜션,pension,70000,100000,,인천,강화,300000021,200000234,37.598965973657,126.496240256682
388,392,98995,강화도 마리펜션,펜션,pension,110000,130000,,인천,강화,300000021,200000234,37.6357743556823,126.378233394713
389,393,94114,강화도 마리스스파펜션,펜션,pension,290000,290000,,인천,강화,300000021,200000234,37.6713692384639,126.365483379182
390,394,94342,강화 석모도 풍차마을펜션,펜션,pension,65000,110000,,인천,강화,300000021,200000234,37.6751959998767,126.335623842183
391,395,94583,강화 파도펜션,펜션,pension,80000,80000,,인천,강화,300000021,200000234,37.7402407227935,126.320763715937
392,396,94842,강화 석모도 라웁펜션,펜션,pension,90000,90000,,인천,강화,300000021,200000234,37.6526585357069,126.332401785391
393,397,95633,강화 놀러오시개 애견펜션,펜션,pension,160000,160000,,인천,강화,300000021,200000234,37.6080288929752,126.415124243991
394,398,99348,강화도 마니빌독채풀빌라펜션,펜션,pension,190000,200000,,인천,강화,300000021,200000234,37.6249029661663,126.37784321436
395,399,99610,강화도 카라반캠핑장,펜션,pension,145000,145000,,인천,강화,300000021,200000234,37.6240520146923,126.534670911724
396,400,99862,강화도 글로리바다펜션,펜션,pension,120000,120000,,인천,강화,300000021,200000234,37.6056978472257,126.480612462932
397,401,91369,강화도 하늘정원풀빌라,펜션,pension,120000,120000,,인천,강화,300000021,200000234,37.615960644821,126.401078161902
398,0,72543,인천(동인천) YAJA 동인천역점,모텔,motel,40000,40000,"전객실 넷플,디즈니,애플,티빙.RTX3060,1060",인천,인천국제공항,300000021,200000235,37.473936,126.6306861
399,1,77569,인천(신포) 넘버25 인천신포점,모텔,motel,40000,0,,인천,인천국제공항,300000021,200000235,37.4726417,126.62759979999998
400,2,76482,"파라다이스호텔&리조트,파라다이스시티",5성급,hotel,383350,383350,,인천,인천국제공항,300000021,200000235,37.437666,126.455981
401,3,74890,그랜드 하얏트 인천,호텔,hotel,201520,201520,,인천,인천국제공항,300000021,200000235,37.440483,126.457508
402,4,74432,데이즈 호텔&스위트 바이 윈덤 인천에어포트,호텔,hotel,79000,79000,★유료 공항 샌딩 셔틀 운영★,인천,인천국제공항,300000021,200000235,37.493379,126.491561
403,5,84087,호텔투어 인천공항 호텔&스위트,호텔,hotel,0,0,,인천,인천국제공항,300000021,200000235,37.492291,126.492427
404,6,72983,골든튤립 인천공항 호텔 & 스위트,호텔,hotel,83000,83000,,인천,인천국제공항,300000021,200000235,37.49225,126.492404
405,7,74443,하워드 존슨 바이 윈덤 인천에어포트,호텔,hotel,95000,95000,★공항 샌딩 셔틀 운영 ★,인천,인천국제공항,300000021,200000235,37.493379,126.491561
406,8,70029,하버파크 호텔,4성급,hotel,110000,110000,,인천,인천국제공항,300000021,200000235,37.472135,126.619551
407,9,70196,베스트웨스턴 프리미어 인천 에어포트,4성급,hotel,0,0,,인천,인천국제공항,300000021,200000235,37.438398,126.459553
408,10,75979,지엘시티호텔 인천공항,호텔,hotel,70000,70000,,인천,인천국제공항,300000021,200000235,37.490603,126.499513
409,11,76200,인천 일루와호텔,호텔,hotel,52000,52000,,인천,인천국제공항,300000021,200000235,37.453613,126.602112
410,12,70126,호텔 에어릴렉스,호텔,hotel,80000,120000,,인천,인천국제공항,300000021,200000235,37.494451,126.489448
411,13,70313,인천호텔 에어스테이,호텔,hotel,50000,100000,,인천,인천국제공항,300000021,200000235,37.49443,126.489691
412,14,84281,전주 관광호텔 꽃심,3성급,hotel,124000,124000,"한옥마을, 객리단길 도보 5분, 전 객실 스타일러, 공기청정기 설치 ,루프탑 이용 가능",인천,인천국제공항,300000021,200000235,35.817635,127.14693
413,15,98092,"파라다이스시티, 아트파라디소",5성급,hotel,405900,405900,,인천,인천국제공항,300000021,200000235,37.4370066,126.4578313
414,16,82288,스카이탑 호텔 인천공항점,호텔,hotel,65000,65000,,인천,인천국제공항,300000021,200000235,37.491249,126.50065
415,17,97688,호텔 에어포트 준,2성급,hotel,75000,80000,,인천,인천국제공항,300000021,200000235,37.494371,126.492549
416,18,99475,영종 샤인 호텔,호텔,hotel,63000,130000,오션뷰 취사가능  세탁기 테라스  NETFLIX,인천,인천국제공항,300000021,200000235,37.49130531449749,126.50063399809798
417,19,69846,더 호텔 영종,호텔,hotel,75000,130000,,인천,인천국제공항,300000021,200000235,37.4948,126.49172
418,20,69858,호텔 휴 에어포트 인천,호텔,hotel,190000,190000,,인천,인천국제공항,300000021,200000235,37.438918,126.461128
419,21,69944,인천공항 호텔 제우메스,호텔,hotel,74900,74900,,인천,인천국제공항,300000021,200000235,37.494299,126.492869
420,22,98834,인천(운서동) 디케이에어포트 호텔,모텔,motel,60000,0,❤ 운서역 공영주차장 이용시 주차비 지원 ❤,인천,인천국제공항,300000021,200000235,37.494111741971054,126.49217481082916
421,23,87828,인천(동인천) 호텔 스카이,모텔,motel,45000,0,,인천,인천국제공항,300000021,200000235,37.47320198249688,126.63077076732188
422,24,73105,인천(운서동) 데일리,모텔,motel,70000,0,"✅ 프론트,통화로 어플요금에서 -1만 ✅",인천,인천국제공항,300000021,200000235,37.4944828,126.4910392
423,25,81148,인천(연안부두) THE K - HOTEL,모텔,motel,50000,0,신축건물 GRAND OPEN!,인천,인천국제공항,300000021,200000235,37.4532242,126.59997650000003
424,26,86830,인천(신포) 호텔 소노,모텔,motel,45000,0,"리뉴얼 오픈,전객실넷플릭스,삼성65인치TV,고성능PC,고급비데,공기청정기,스타일러,셀프바",인천,인천국제공항,300000021,200000235,37.46893825938383,126.62546480531259
425,27,74976,인천(동인천) 호텔 NY70,모텔,motel,40000,0,※ 10/23~10/31 엘레베이터 사용불가,인천,인천국제공항,300000021,200000235,37.4725026,126.6319618
426,29,87738,인천(운서동) 호텔 퀸,모텔,motel,70000,0,♥전 객실 넷플릭스 무료 시청 가능♥,인천,인천국제공항,300000021,200000235,37.494442847905525,126.49173061883583
427,30,68898,인천(신포) 위드,모텔,motel,35000,35000,,인천,인천국제공항,300000021,200000235,37.469628241,126.62583803500002
428,31,84651,인천(동인천) 로얄 모텔,모텔,motel,30000,0,"와이파이 무료, 50인치 대형TV 설치",인천,인천국제공항,300000021,200000235,37.47478376047507,126.6290105778428
429,32,80532,인천(연안부두) 레피다호텔,모텔,motel,45000,0,특별 이벤트,인천,인천국제공항,300000021,200000235,37.455891895540354,126.60461673054965
430,33,68915,인천(운서동) 인천공항호텔,모텔,motel,60000,0,,인천,인천국제공항,300000021,200000235,37.4944814,126.48908929999993
431,34,72597,인천(운서동) 에어텔,모텔,motel,58000,0,"♥전 객실 넷플릭스,웨이브,유튜브,티빙 무료 시청 가능♥ ♥피시방을 그대로 옮겨놓은 커플PC룸 OPEN♥",인천,인천국제공항,300000021,200000235,37.4944944,126.4899327
432,35,69376,인천(동인천) ING,모텔,motel,35000,40000,,인천,인천국제공항,300000021,200000235,37.4728106,126.62868470000001
433,36,68908,인천(차이나타운) 로마,모텔,motel,0,0,,인천,인천국제공항,300000021,200000235,37.4722481,126.624753
434,37,73204,인천(신포)세븐호텔,모텔,motel,40000,0,파티룸/더블/트윈베드/온돌/노래방/수영장/넷플릭스free/대형TV/조식free/노트북,인천,인천국제공항,300000021,200000235,37.4710766,126.62444729999993
435,38,95289,용유도 고고 게스트하우스펜션,펜션,pension,0,0,,인천,인천국제공항,300000021,200000235,37.4391267304409,126.460116976633
436,39,74845,인천(숭의역) 봄날,모텔,motel,33000,0,봄날호텔 고객을 위한 이벤트 Ⅰ,인천,인천국제공항,300000021,200000235,37.4628109,126.6379565
437,40,80396,인천(신포) MY24,모텔,motel,40000,0,전 객실 고데기 설치⭐,인천,인천국제공항,300000021,200000235,37.4694068,126.6256354
438,41,93472,인천(신포) 돈키호텔,모텔,motel,45000,0,,인천,인천국제공항,300000021,200000235,37.46945957436662,126.62520374367686
439,42,72641,인천(운서동) 더 호텔 영종,모텔,motel,75000,0,,인천,인천국제공항,300000021,200000235,37.4948645,126.4916872
440,43,76043,인천(연안부두) 일루와,모텔,motel,50000,0,"전객실: 넷플,디즈니 무료시청,시몬스침대,고사양 PC(배그가능)",인천,인천국제공항,300000021,200000235,37.4536673,126.60213599999997
441,44,97739,인천(연안부두) IT s (이츠호텔),모텔,motel,45000,0,"★전 객실 욕조, 넷플릭스 무료 이용 가능 ★",인천,인천국제공항,300000021,200000235,37.4535712,126.60235030000001
442,46,72605,인천공항(운서동) 에어스테이,모텔,motel,50000,0,운서역 도보 7분 거리,인천,인천국제공항,300000021,200000235,37.4945141,126.48971329999995
443,47,76160,인천(운서동) 에어릴렉스,모텔,motel,0,0,,인천,인천국제공항,300000021,200000235,37.4944508,126.48944819999997
444,48,67447,인천(차이나타운) 호텔아띠,모텔,motel,39000,0,1. 셀프 무료 조식서비스 - 07시부터 08시까지 제공,인천,인천국제공항,300000021,200000235,37.474291,126.6216096
445,49,80856,인천(숭의역) ON&OFF,모텔,motel,33000,0,전 이용고객 무료 라면 제공 Netflix  Disney+ Tving,인천,인천국제공항,300000021,200000235,37.4627175,126.6381851
446,50,69099,인천(연안부두) 포유,모텔,motel,0,0,,인천,인천국제공항,300000021,200000235,37.4542721,126.6028161
447,51,88743,브라운도트 호텔 부산역,호텔,hotel,0,0,,인천,인천국제공항,300000021,200000235,35.11633374800946,129.0383858323037
448,52,92324,연안부두 it s 관광 호텔,호텔,hotel,45000,45000,,인천,인천국제공항,300000021,200000235,37.4536413,126.6023728
449,53,68391,인천(연안부두) 시드니,모텔,motel,40000,0,,인천,인천국제공항,300000021,200000235,37.4540613,126.6022714
450,54,68905,인천(연안부두) 애플,모텔,motel,45000,45000,,인천,인천국제공항,300000021,200000235,37.4559811,126.6051738
451,55,98721,인천(연안부두) 에이스,모텔,motel,40000,0,,인천,인천국제공항,300000021,200000235,37.4552575,126.604569
452,56,69377,인천(동인천) 테마,모텔,motel,40000,0,,인천,인천국제공항,300000021,200000235,37.472711,126.6296498
453,57,99622,인천공항 호텔 퀸,호텔,hotel,0,0,,인천,인천국제공항,300000021,200000235,37.494442847905525,126.49173061883583
454,58,99182,무주 골프펜션(스크린골프펜션),펜션,pension,180000,180000,,인천,인천국제공항,300000021,200000235,35.9658386451757,127.713557029329
455,59,99847,인천(영종도) 관광호텔 준,모텔,motel,75000,88000,,인천,인천국제공항,300000021,200000235,37.49442496690096,126.49255799709255
456,0,80732,인천(송도) 프라하,모텔,motel,40000,0,여러분❤️ ⭐️늦은 퇴실 원하시면 여기로오세요⭐️,인천,송도 / 연수구,300000021,200000236,37.419585205,126.650160514
457,1,74629,인천(연수) HOTEL 498,모텔,motel,60000,0,❤선착순 할인쿠폰❤ 초대형75인치TV❤넷플릭스무료❤무료주차❤,인천,송도 / 연수구,300000021,200000236,37.4173903,126.6761723
458,2,69857,오라카이 송도파크 호텔,4성급,hotel,99000,99000,,인천,송도 / 연수구,300000021,200000236,37.388092,126.640783
459,3,69995,송도 센트럴파크 호텔,호텔,hotel,99000,99000,,인천,송도 / 연수구,300000021,200000236,37.390895,126.637121
460,4,70153,오크우드 프리미어 인천,5성급,hotel,236310,236310,,인천,송도 / 연수구,300000021,200000236,37.389165,126.644162
461,5,79280,경원재 앰배서더 인천,5성급,hotel,366000,366000,,인천,송도 / 연수구,300000021,200000236,37.391765,126.637575
462,6,93527,쉐라톤 그랜드 인천,5성급,hotel,0,0,,인천,송도 / 연수구,300000021,200000236,37.39022508739128,126.64542642443733
463,7,69988,라마다 송도,호텔,hotel,72000,72000,,인천,송도 / 연수구,300000021,200000236,37.414314,126.655356
464,8,70409,홀리데이 인 인천송도,4성급,hotel,143000,143000,,인천,송도 / 연수구,300000021,200000236,37.392514,126.632432
465,9,74846,브릿지 호텔 인천 송도 (구 호텔 스카이파크),호텔,hotel,94110,94110,,인천,송도 / 연수구,300000021,200000236,37.384549,126.638705
466,10,76031,송도 호텔 아마레,호텔,hotel,55000,100000,,인천,송도 / 연수구,300000021,200000236,37.416978,126.650898
467,11,89486,UH FLAT the 송도,호텔,hotel,48000,540000,☆연박 재실청소 무료 / 3박 숙박시 침구류 교체 1회☆,인천,송도 / 연수구,300000021,200000236,37.405178417208106,126.62886032346951
468,12,84076,어반스테이 인천송도,호텔,hotel,53910,53910,"취사/세탁가능 풀옵션 객실★넷플릭스, 커피머신(캡슐제공)",인천,송도 / 연수구,300000021,200000236,37.405031,126.628074
469,13,84544,더 노벰버 스테이 인 랜드마크,호텔,hotel,50000,50000,,인천,송도 / 연수구,300000021,200000236,37.405031,126.628074
470,14,100322,송도 윤슬스테이,호텔,hotel,52000,350000,,인천,송도 / 연수구,300000021,200000236,37.405170218630744,126.62839480092198
471,15,99624,모두스테이 송도,호텔,hotel,59000,150000,,인천,송도 / 연수구,300000021,200000236,37.405170218630744,126.62839480092198
472,16,83773,랜드마크 송도스테이,호텔,hotel,48000,48000,,인천,송도 / 연수구,300000021,200000236,37.405031,126.628074
473,17,84081,더 스테이 송도 호텔,호텔,hotel,54000,54000,"★넷플릭스, 디즈니 기본! 더이상 로그인 필요 없다!★ 야외 수영장 오픈",인천,송도 / 연수구,300000021,200000236,37.405518,126.62911
474,18,98676,더휴식 아늑 더피크 인천송도점,호텔,hotel,70000,70000,,인천,송도 / 연수구,300000021,200000236,37.41873208499915,126.65089676720758
475,19,83602,셀럽스테이 송도 한라웨스턴파크,호텔,hotel,56000,76000,,인천,송도 / 연수구,300000021,200000236,37.405518,126.62911
476,20,70098,브라운도트 호텔 인천송도 (구 알리스위트),호텔,hotel,70000,70000,★조식 2인 무료 서비스 제공★,인천,송도 / 연수구,300000021,200000236,37.416196,126.651497
477,21,70461,인천 스테이 호텔,호텔,hotel,59000,59000,,인천,송도 / 연수구,300000021,200000236,37.419237,126.649558
478,22,74660,Boutique Hotel 498,2성급,hotel,65000,75000,전객실 75인치TV. 넷플릭스❣,인천,송도 / 연수구,300000021,200000236,37.417347,126.676164
479,23,84344,랜드마크 송도스테이2,호텔,hotel,50500,50500,,인천,송도 / 연수구,300000021,200000236,37.405031,126.628074
480,24,88161,인천(송도) 자우리 호텔,모텔,motel,45000,0,다이슨매직기 대여 시작!,인천,송도 / 연수구,300000021,200000236,37.419283062516605,126.65170972247127
481,25,99823,인천(송도) YAJA 인천 송도점,모텔,motel,35000,0,"★두번째 방문시 스타벅스 카스테라 세트 모바일쿠폰(13,500원) 누구나 이벤트 진행중★",인천,송도 / 연수구,300000021,200000236,37.4186018,126.6503726
482,26,77537,인천(연수) ES,모텔,motel,40000,0,♥♥전 객실 넷플릭스 무료 이용 가능♥♥,인천,송도 / 연수구,300000021,200000236,37.4155185,126.67803409999999
483,27,88770,인천(송도) H Avenue 인천송도점,모텔,motel,50000,0,"신규오픈 삼성4K UHD 70,85인치 바디프렌드 안마의자 삼성&LG 공기청정기",인천,송도 / 연수구,300000021,200000236,37.41735864247104,126.65077465014328
484,28,68921,인천(동춘동) 명품호텔,모텔,motel,55000,0,,인천,송도 / 연수구,300000021,200000236,37.4072873,126.6712486
485,30,88692,송도 달빛스테이펜션,펜션,pension,55000,55000,,인천,송도 / 연수구,300000021,200000236,37.4060391141399,126.62896276616
486,31,91045,인천(송도) 다온,모텔,motel,50000,0,,인천,송도 / 연수구,300000021,200000236,37.4173273,126.65118959999995
487,32,67414,인천(송도) 아마레,모텔,motel,50000,0,프리미엄타입 전객실 75~85인치 초대형 티비설치(OTT무비룸 포함)/스위트기준인원4인/ 포레스트아웃팅스 도보5분,인천,송도 / 연수구,300000021,200000236,37.4170257,126.6508485
488,33,81282,인천(송도) 모닝캄,모텔,motel,50000,0,넷플릭스 /디즈니+ 전객실 시청가능,인천,송도 / 연수구,300000021,200000236,37.41901465919147,126.65226433890075
489,34,82768,인천(송도) 큐브,모텔,motel,60000,0,코로나19방역/넓은 주차장/전객실 다른 디자인,인천,송도 / 연수구,300000021,200000236,37.41905202641363,126.65050222468444
490,35,94074,인천(송도) 더휴식 아늑 인천송도점,모텔,motel,45000,0,✨무인 키오스크✨넷플릭스✨금연✨웨이브✨최상급침구,인천,송도 / 연수구,300000021,200000236,37.4186772,126.6508875
491,36,73723,인천(연수) 코코,모텔,motel,40000,0,,인천,송도 / 연수구,300000021,200000236,37.4166078,126.6755677
492,37,68191,인천(송도) 브라운도트 송도점,모텔,motel,60000,0,★전객실 조식 2인 제공★,인천,송도 / 연수구,300000021,200000236,37.4161911,126.6514284
493,38,72116,인천(송도) 스테이호텔,모텔,motel,70000,0,전 객실 넷플릭스 시청가능 & 맛있는 조식이용가능,인천,송도 / 연수구,300000021,200000236,37.4192888,126.64951769999993
494,39,77746,인천(송도) 넘버25 송도점,모텔,motel,43000,0,넷플릭스 및 유튜브 이용 관련,인천,송도 / 연수구,300000021,200000236,37.41918974233458,126.65028559444272
495,40,68342,인천(송도) 프렌즈,모텔,motel,0,0,1999년생~2003년생은 이용불가,인천,송도 / 연수구,300000021,200000236,37.4185472,126.6528871
496,41,75584,인천(연수) 토마토(무인HOTEL),모텔,motel,40000,0,전 객실 넷플릭스 무료 이용 가능 합니다.,인천,송도 / 연수구,300000021,200000236,37.4163471,126.6780828
497,42,66975,인천(송도) 리치,모텔,motel,35000,0,,인천,송도 / 연수구,300000021,200000236,37.4213766,126.643195
498,43,68935,인천(송도) 소풍,모텔,motel,40000,0,★전객실 넷플릭스★셀프코너 무료이용★컵라면증정,인천,송도 / 연수구,300000021,200000236,37.4185208,126.6512
499,44,79758,인천(송도) YAM 인천송도점,모텔,motel,40000,0,♥ 전객실 넷플릭스 OTT 무료이용 ♥,인천,송도 / 연수구,300000021,200000236,37.41961879999999,126.6527086
500,46,68895,인천(송도) 보보스,모텔,motel,30000,0,♥하루 한건의 Short time event ~진행 중입니다 (대실 요금으로 숙박까지 주인공이 되세요~),인천,송도 / 연수구,300000021,200000236,37.4216233,126.63878279999994
501,47,66984,인천(송도) 오투(O2),모텔,motel,40000,0,,인천,송도 / 연수구,300000021,200000236,37.4164632,126.651427
502,48,67168,인천(송도) me2,모텔,motel,35000,0,전객실 (넷플렉스) 프리미엄  무료이용,인천,송도 / 연수구,300000021,200000236,37.4183244,126.6506213
503,49,66943,인천(송도) 블루,모텔,motel,35000,35000,,인천,송도 / 연수구,300000021,200000236,37.4194497,126.6496678
504,50,67121,인천(송도) 로뎀,모텔,motel,40000,0,★신분증 필히 지참바랍니다★,인천,송도 / 연수구,300000021,200000236,37.4191251,126.6499775
505,51,67453,인천(송도) 바다가 보이는 집,모텔,motel,27000,0,☻ 넷플릭스룸 선착순 업그레이드 ☻,인천,송도 / 연수구,300000021,200000236,37.4214997,126.6383842
506,52,68912,인천(송도) 올인,모텔,motel,45000,0,,인천,송도 / 연수구,300000021,200000236,37.419099129,126.651880861
507,53,73425,인천(송도) ING,모텔,motel,35000,0,수험생이라면?,인천,송도 / 연수구,300000021,200000236,37.4218174,126.6393032
508,54,98214,호텔큐브,호텔,hotel,0,0,,인천,송도 / 연수구,300000021,200000236,37.41905202641363,126.65050222468444
509,55,93355,인천 송도 에이치에비뉴호텔,호텔,hotel,60000,60000,,인천,송도 / 연수구,300000021,200000236,37.41735864247104,126.65077465014328
510,56,76055,인천(연수) 초콜릿,모텔,motel,40000,0,,인천,송도 / 연수구,300000021,200000236,37.4157711,126.67813720000004
511,57,68926,인천(송도) 필드,모텔,motel,35000,35000,,인천,송도 / 연수구,300000021,200000236,37.416338,126.651194
512,58,68928,인천(송도) 이채,모텔,motel,40000,0,,인천,송도 / 연수구,300000021,200000236,37.418808,126.65339649999999
513,59,88677,울진 동화,모텔,motel,40000,0,,인천,송도 / 연수구,300000021,200000236,36.72287169455797,129.3435592972996
514,60,79424,인천(송도) 삼미,모텔,motel,30000,0,,인천,송도 / 연수구,300000021,200000236,37.42001399999999,126.6483307
515,61,99657,제주 메이플스테이 애월,펜션,pension,298800,498000,,인천,송도 / 연수구,300000021,200000236,33.4853366076116,126.414536412193
516,62,68941,인천(송도) 호텔리오,모텔,motel,0,0,,인천,송도 / 연수구,300000021,200000236,37.4185216,126.6522616
517,63,67247,인천(송도) HOTEL 2030,모텔,motel,0,0,"평일 최저가 15,000원 대실 이벤트",인천,송도 / 연수구,300000021,200000236,37.4186503,126.6505543
518,0,86125,인천(을왕리) 브라운도트 인천을왕리점,모텔,motel,50000,0,❤️대형 주차장❤️왕산해수욕장❤️을왕리해수욕장❤️,인천,을왕리 / 월미도,300000021,200000237,37.46123481183166,126.37207426004605
519,1,77736,인천(을왕리) 프린스호텔,모텔,motel,50000,0,"★공항 픽업 센딩 무료서비스 상품 시행중, 해수욕장 픽업 센딩 24시간 무료서비스.",인천,을왕리 / 월미도,300000021,200000237,37.4495942,126.38916849999998
520,2,85370,인천(을왕리) 더 레스트 호텔,모텔,motel,57000,0,❤️평일랜덤업그래이드&넷플릭스&65인치삼성스마트TV❤️,인천,을왕리 / 월미도,300000021,200000237,37.44403855120951,126.37736368211273
521,3,98141,인천(월미도) 프리미어스호텔,모텔,motel,70000,0,⭐ 진짜 사나이 이벤트 ✨,인천,을왕리 / 월미도,300000021,200000237,37.47398249050921,126.5977556614356
522,4,70551,네스트 호텔,5성급,hotel,99000,300000,,인천,을왕리 / 월미도,300000021,200000237,37.424873,126.427989
523,5,81668,더위크앤리조트,리조트,resort,118800,118800,,인천,을왕리 / 월미도,300000021,200000237,37.45113,126.371161
524,6,70289,호텔 오라 인천,호텔,hotel,90000,300000,,인천,을왕리 / 월미도,300000021,200000237,37.453891,126.417746
525,7,77525,인천(월미도) 스텔라마리스호텔,호텔,hotel,60000,60000,★1층 인생네컷 1회 무료 이용★무료 조식+아메리카노★,인천,을왕리 / 월미도,300000021,200000237,37.476955,126.60045
526,8,88610,이비스 스타일 앰배서더 인천 에어포트 T2,호텔,hotel,112200,385000,,인천,을왕리 / 월미도,300000021,200000237,37.4811888441908,126.42015088228673
527,9,70070,베니키아 월미도 더 블리스,호텔,hotel,59000,59000,간단한 조식과 함께 즐기는 호캉스~,인천,을왕리 / 월미도,300000021,200000237,37.472789,126.59745
528,10,76533,월미도 그랜드 스위트 호텔,호텔,hotel,80000,90000,,인천,을왕리 / 월미도,300000021,200000237,37.474054,126.598684
529,11,70223,월미도 하버뷰 호텔,호텔,hotel,52000,100000,,인천,을왕리 / 월미도,300000021,200000237,37.477403,126.600916
530,12,73973,풀문 관광호텔,호텔,hotel,45000,240000,♥ 탁 틔인 월미도 바다가 보이는 루프탑에서 BBQ를 즐겨보세요 ♥,인천,을왕리 / 월미도,300000021,200000237,37.476637,126.599114
531,13,69997,월미도 프리미어스 호텔,호텔,hotel,80000,80000,,인천,을왕리 / 월미도,300000021,200000237,37.473941,126.597783
532,14,84755,제이앤파크 호텔,3성급,hotel,100000,100000,,인천,을왕리 / 월미도,300000021,200000237,37.444842,126.378822
533,15,83102,연화문 호텔,2성급,hotel,60000,60000,❤️샴페인2잔+카프레제 무료제공❤️,인천,을왕리 / 월미도,300000021,200000237,37.446463,126.376262
534,16,81686,인천 파크우드 관광호텔,호텔,hotel,57000,130000,,인천,을왕리 / 월미도,300000021,200000237,37.426322,126.421816
535,17,78011,호텔 월미도,호텔,hotel,80000,120000,♥ 자유롭게 즐겨요~★투숙객 무료!!☆루프탑 수영장★ ♥,인천,을왕리 / 월미도,300000021,200000237,37.472433,126.596755
536,18,70319,월미도 다이아몬드 호텔,2성급,hotel,50000,50000,,인천,을왕리 / 월미도,300000021,200000237,37.475333,126.599962
537,19,72834,인천 프린스 관광호텔,호텔,hotel,56000,75000,"★공항 픽업 센딩 무료서비스 상품 시행중, 해수욕장 픽업 센딩 24시간 무료서비스.",인천,을왕리 / 월미도,300000021,200000237,37.449594,126.389168
538,20,81616,인천 호텔 휴 로프트,호텔,hotel,69300,110000,,인천,을왕리 / 월미도,300000021,200000237,37.425897,126.42069
539,21,72891,인천 위너스 호텔,호텔,hotel,55000,120000,,인천,을왕리 / 월미도,300000021,200000237,37.461219,126.368669
540,22,87986,을왕리 어느멋진날에2펜션,펜션,pension,250000,250000,,인천,을왕리 / 월미도,300000021,200000237,37.4504913239764,126.400981420798
541,23,79843,을왕리 도란도란펜션,펜션,pension,0,0,,인천,을왕리 / 월미도,300000021,200000237,37.4470177635345,126.376671913254
542,24,84539,을왕리 옹기종기펜션,펜션,pension,220000,220000,,인천,을왕리 / 월미도,300000021,200000237,37.4627851584875,126.372976809509
543,26,78877,인천(을왕리) 영지호스텔,모텔,motel,100000,0,,인천,을왕리 / 월미도,300000021,200000237,37.44654970000001,126.37449659999993
544,27,98987,을왕리 팜비치펜션,펜션,pension,0,0,,인천,을왕리 / 월미도,300000021,200000237,37.4416239085698,126.37985489468
545,28,85302,인천(을왕리) 블루프로그 호텔,모텔,motel,65000,0,✅ 자유로운 영혼들의 감각 @bluefrog_hotel_jay ✅,인천,을왕리 / 월미도,300000021,200000237,37.44960341882876,126.3720751483949
546,29,78381,인천(월미도) 호텔월미여관,모텔,motel,60000,0,,인천,을왕리 / 월미도,300000021,200000237,37.4736163,126.59947069999998
547,30,75950,을왕리 리움펜션,펜션,pension,80000,80000,,인천,을왕리 / 월미도,300000021,200000237,37.4584764337,126.3753298059
548,31,74293,인천(을왕리) 더 프린스 호텔,모텔,motel,70000,0,숙박 시 브런치 set 상시 할인 이벤트,인천,을왕리 / 월미도,300000021,200000237,37.4494559,126.3715996
549,32,91149,인천(월미도) 블루마린,모텔,motel,50000,0,세스코와 함께 고객님의 건강을 지키겠습니다!!,인천,을왕리 / 월미도,300000021,200000237,37.4755902,126.59814340000003
550,33,83750,을왕리 에버뷰펜션(전객실신축리모델링),펜션,pension,88000,88000,,인천,을왕리 / 월미도,300000021,200000237,37.4499093797393,126.375109255983
551,34,83160,인천(월미도) 호텔 옐로우,모텔,motel,50000,0,세스코와 함께 안전한 휴식처를 제공합니다!!,인천,을왕리 / 월미도,300000021,200000237,37.475551268663835,126.59850415633795
552,35,73602,을왕리 엔소이펜션,펜션,pension,130000,130000,,인천,을왕리 / 월미도,300000021,200000237,37.4460743438,126.3779236047
553,36,76578,인천(월미도) 스텔라마리스호텔,모텔,motel,50000,0,　★포토존이벤트객실업그레이드★★무료조식 제공★,인천,을왕리 / 월미도,300000021,200000237,37.4769545,126.60044970000001
554,37,84556,을왕리 해처럼펜션,펜션,pension,80000,100000,,인천,을왕리 / 월미도,300000021,200000237,37.4634200940263,126.366624946667
555,38,75995,을왕리 별자리펜션,펜션,pension,60000,60000,,인천,을왕리 / 월미도,300000021,200000237,37.4418459595,126.379811817
556,39,75333,인천(을왕리) 나폴리관광호텔,모텔,motel,60000,0,,인천,을왕리 / 월미도,300000021,200000237,37.4483295,126.37433550000003
557,40,74223,인천(월미도) 해월관광호텔,모텔,motel,80000,0,,인천,을왕리 / 월미도,300000021,200000237,37.4735928,126.5980367
558,41,81142,인천(을왕리) 캐슬,모텔,motel,60000,0,,인천,을왕리 / 월미도,300000021,200000237,37.44935636917081,126.37270114232786
559,42,93525,인천(월미도) 네이버 호텔,모텔,motel,45000,0,리뷰 이벤트 참여 시 객실 UP!!,인천,을왕리 / 월미도,300000021,200000237,37.47409801485589,126.59954755012619
560,43,88660,을왕리 힛포펜션,펜션,pension,0,0,,인천,을왕리 / 월미도,300000021,200000237,37.4413130036374,126.378985556444
561,44,88036,을왕리 신화스위트리펜션,펜션,pension,80000,90000,,인천,을왕리 / 월미도,300000021,200000237,37.4633684446005,126.366839353102
562,45,76953,을왕리 푸른솔 펜션,펜션,pension,80000,80000,,인천,을왕리 / 월미도,300000021,200000237,37.4626225307865,126.366120772235
563,46,84572,을왕리 반하다펜션,펜션,pension,160000,240000,,인천,을왕리 / 월미도,300000021,200000237,37.4634062462255,126.372710856324
564,47,76428,인천(월미도) 호텔 루비,모텔,motel,50000,0,❤️생수서비스❤️세스코소독❤️월미도 중앙위치/바다 도보1분⭐놀이기구2분,인천,을왕리 / 월미도,300000021,200000237,37.4739494,126.59845500000006
565,49,68902,인천(을왕리) 레이호텔,모텔,motel,55000,0,전객실 넷플릭스/공기청정기/아메리카노 제공,인천,을왕리 / 월미도,300000021,200000237,37.4495543,126.3717604
566,51,71923,을왕리 대명펜션,펜션,pension,0,0,,인천,을왕리 / 월미도,300000021,200000237,37.4457876,126.3773262
567,53,78794,인천(을왕리) 해변,모텔,motel,55000,0,,인천,을왕리 / 월미도,300000021,200000237,37.4455776,126.37364520000006
568,54,88981,을왕리 킹스테이펜션(전객실바다뷰),펜션,pension,99000,120000,,인천,을왕리 / 월미도,300000021,200000237,37.4569386277373,126.368754375818
569,55,83781,을왕리 롱비치하우스펜션(바닷가 3분),펜션,pension,52000,100000,,인천,을왕리 / 월미도,300000021,200000237,37.4459462257853,126.377291377379
570,56,75262,을왕리 큐하우스펜션,펜션,pension,230000,230000,,인천,을왕리 / 월미도,300000021,200000237,37.447301652703,126.377540740272
571,57,74672,을왕리 오션스카이펜션,펜션,pension,70000,70000,,인천,을왕리 / 월미도,300000021,200000237,37.4420077,126.3772024
572,58,67598,인천(월미도) W호텔,모텔,motel,39900,0,★ 고객 감사 이벤트 실시,인천,을왕리 / 월미도,300000021,200000237,37.477067,126.6001253
573,59,74065,을왕리 바이드302펜션,펜션,pension,70000,80000,,인천,을왕리 / 월미도,300000021,200000237,37.4459669347,126.3766904633
574,60,90953,을왕리 포시즌펜션,펜션,pension,60000,60000,,인천,을왕리 / 월미도,300000021,200000237,37.4486748662942,126.373465389856
575,61,95072,용유도 푸른솔펜션,펜션,pension,80000,80000,,인천,을왕리 / 월미도,300000021,200000237,37.4626994608235,126.366067563081
576,62,67359,인천(월미도) 갤럭시 호텔,모텔,motel,40000,0,"전객실 넥플러스,유튜브,시청가능",인천,을왕리 / 월미도,300000021,200000237,37.4769737,126.5991521
577,63,67462,인천(을왕리) 호텔 오션뷰,모텔,motel,55000,0,오션뷰//넷플릭스//아메리카노 무료1잔,인천,을왕리 / 월미도,300000021,200000237,37.4418287,126.37867289999997
578,64,71672,을왕리 제이든29펜션,펜션,pension,56000,70000,,인천,을왕리 / 월미도,300000021,200000237,37.446458678026936,126.37699376316581
579,65,68326,인천(월미도) 다이아몬드 호텔,모텔,motel,50000,0,,인천,을왕리 / 월미도,300000021,200000237,37.475395,126.5997409
580,66,79954,"을왕리 자니노니펜션 (유럽빈티지카라반,전객실개별모닥불)",펜션,pension,120000,150000,,인천,을왕리 / 월미도,300000021,200000237,37.4579769193425,126.373083755466
581,67,68925,인천(을왕리) 오션사이드호텔,모텔,motel,50000,0,공항 무료 셔틀 + 4박 5일 무료 주차 서비스,인천,을왕리 / 월미도,300000021,200000237,37.4265277,126.4212369
582,68,71981,을왕리 마린캠프펜션,펜션,pension,50000,50000,,인천,을왕리 / 월미도,300000021,200000237,37.4467606145,126.3768420892
583,69,72360,인천공항 호텔 휴 로프트,모텔,motel,56000,0,1박 투숙시 무료로 3일 동안 주차서비스 제공,인천,을왕리 / 월미도,300000021,200000237,37.4259694,126.42054589999998
584,70,76581,을왕리 아소프로아펜션(전객실 신축),펜션,pension,55000,55000,,인천,을왕리 / 월미도,300000021,200000237,37.446053896919885,126.3774627070336
585,71,73590,을왕리 비치펜션,펜션,pension,70000,70000,,인천,을왕리 / 월미도,300000021,200000237,37.4421606723,126.3786611316
586,72,68927,인천(영종도) 파크우드,모텔,motel,55000,0,,인천,을왕리 / 월미도,300000021,200000237,37.4261896,126.42182969999999
587,73,82671,무의도 빨간지붕펜션,펜션,pension,70000,70000,,인천,을왕리 / 월미도,300000021,200000237,37.3757500723365,126.432857545017
588,74,77632,을왕리 바다풍경펜션,펜션,pension,55000,55000,,인천,을왕리 / 월미도,300000021,200000237,37.44136017287111,126.37926890851888
589,75,76147,인천(월미도) 그랜드 스위트 호텔,모텔,motel,60000,0,♥리뷰이벤트♥,인천,을왕리 / 월미도,300000021,200000237,37.47420981470469,126.598763327092
590,76,85236,을왕리 서해캠핑장,펜션,pension,40000,40000,,인천,을왕리 / 월미도,300000021,200000237,37.4576407151712,126.368119269796
591,77,68417,인천(월미도) 하버뷰,모텔,motel,40000,80000,주차공간 여유있습니다^^,인천,을왕리 / 월미도,300000021,200000237,37.477395,126.6008532
592,78,92694,인천(을왕리) 더 홀리랜드 호텔,모텔,motel,65000,0,"✨바닷가,식당가 도보1~2분거리!!✨",인천,을왕리 / 월미도,300000021,200000237,37.449893232334745,126.37187421536608
593,79,68305,인천(송림동) 호텔아이,모텔,motel,35000,0,,인천,을왕리 / 월미도,300000021,200000237,37.47490440000001,126.64423940000006
594,80,80992,을왕리 제이에스하우스펜션,펜션,pension,200000,200000,,인천,을왕리 / 월미도,300000021,200000237,37.4500245418,126.393215407
595,81,85189,인천(무의도) 해둥실펜션(새로오픈),펜션,pension,55000,55000,,인천,을왕리 / 월미도,300000021,200000237,37.4034424346363,126.409945124985
596,82,68924,인천(을왕리) 씨월드,모텔,motel,60000,0,,인천,을왕리 / 월미도,300000021,200000237,37.464457488,126.369320953
597,83,74295,을왕리 왕산오토캠핑장,펜션,pension,80000,80000,,인천,을왕리 / 월미도,300000021,200000237,37.4578791897,126.368065046
598,84,73565,인천(을왕리) 홀리랜드,모텔,motel,41000,0,"☆바닷가,편의점,식당,정류장 도보 1~2분거리☆",인천,을왕리 / 월미도,300000021,200000237,37.4500136,126.3717376
599,85,73494,을왕리 왕산예림펜션,펜션,pension,180000,180000,,인천,을왕리 / 월미도,300000021,200000237,37.4621928666,126.369357986
600,86,72958,인천(을왕리) 휴,모텔,motel,40000,0,,인천,을왕리 / 월미도,300000021,200000237,37.4434983,126.3785889
601,87,67051,인천(월미도) 두바이,모텔,motel,50000,0,,인천,을왕리 / 월미도,300000021,200000237,37.4746089,126.6005238
602,88,70627,을왕리 하나펜션,펜션,pension,65000,65000,,인천,을왕리 / 월미도,300000021,200000237,37.4458741676,126.3761849645
603,89,78685,인천(송림동) 레인보우,모텔,motel,25000,0,,인천,을왕리 / 월미도,300000021,200000237,37.47385674263152,126.6443767067459
604,90,78728,인천(송림동) 팔레스,모텔,motel,30000,45000,,인천,을왕리 / 월미도,300000021,200000237,37.474934,126.64407040000003
605,91,71534,을왕리 바다&별하우스펜션,펜션,pension,80000,80000,,인천,을왕리 / 월미도,300000021,200000237,37.4589212,126.3773906
606,92,76864,을왕리 안악민박펜션,펜션,pension,31500,35000,,인천,을왕리 / 월미도,300000021,200000237,37.4463897782,126.373504675
607,93,78720,인천(을왕리) 발리,모텔,motel,50000,0,,인천,을왕리 / 월미도,300000021,200000237,37.44992219714977,126.3722170243839
608,94,84744,을왕리 메누하 펜션,펜션,pension,170000,170000,,인천,을왕리 / 월미도,300000021,200000237,37.4473912746347,126.376356232369
609,95,93101,인천 화이트펜션,펜션,pension,104000,104000,,인천,을왕리 / 월미도,300000021,200000237,37.4623105825455,126.368253249292
610,96,68939,인천(월미도) 세피앙,모텔,motel,50000,0,,인천,을왕리 / 월미도,300000021,200000237,37.4743331,126.5992873
611,97,82998,을왕리 아령펜션,펜션,pension,60000,60000,,인천,을왕리 / 월미도,300000021,200000237,37.4027204802137,126.414462693748
612,98,97721,"을왕리 어울림펜션(신규오픈,개별바베큐,노래방,단체,을왕리 해수욕장 3분)",펜션,pension,149000,149000,,인천,을왕리 / 월미도,300000021,200000237,37.4497406779062,126.374047102043
613,99,98984,을왕리 힐링캠프글램핑,펜션,pension,60000,60000,,인천,을왕리 / 월미도,300000021,200000237,37.4396042996866,126.379440139363
614,100,98371,을왕리 하나스토리펜션,펜션,pension,60000,60000,,인천,을왕리 / 월미도,300000021,200000237,37.4485075958923,126.373507920653
615,101,85571,순천 송산제낙안민박펜션,펜션,pension,80000,80000,,인천,을왕리 / 월미도,300000021,200000237,34.8884331227545,127.366194440001
616,102,70148,인천(월미도) 두바이 호텔,2성급,hotel,0,0,월미랜드 쿠폰 이벤트,인천,을왕리 / 월미도,300000021,200000237,37.474559,126.600516
617,103,72204,인천(월미도) 대원모텔,모텔,motel,0,0,,인천,을왕리 / 월미도,300000021,200000237,37.4771402,126.6009056
618,104,99448,인스파이어 엔터테인먼트 리조트,호텔,hotel,0,0,,인천,을왕리 / 월미도,300000021,200000237,37.45574516132386,126.38803488497182
619,105,78663,을왕리 하루가달고나펜션,펜션,pension,80000,80000,,인천,을왕리 / 월미도,300000021,200000237,37.44770549233381,126.37627824687118
620,106,78929,을왕리 콩깍지펜션,펜션,pension,130000,130000,,인천,을왕리 / 월미도,300000021,200000237,37.4630098,126.3727043
621,107,87044,을왕리 하늘구름펜션,펜션,pension,0,0,,인천,을왕리 / 월미도,300000021,200000237,37.4472783457385,126.377837128552
622,108,91031,을왕리 별빛바다펜션,펜션,pension,200000,200000,,인천,을왕리 / 월미도,300000021,200000237,37.4626248224642,126.372950681797
623,109,100421,인천(무의도) 상수리나무아래펜션,펜션,pension,0,0,,인천,을왕리 / 월미도,300000021,200000237,37.4028916696866,126.410690117043
624,110,99014,을왕리 왕산가족오토캠핑장,펜션,pension,80000,80000,,인천,을왕리 / 월미도,300000021,200000237,37.4581517752564,126.366203833964
625,111,99513,을왕리 오션사이드 호텔,호텔,hotel,50000,60000,,인천,을왕리 / 월미도,300000021,200000237,37.426631,126.4211811
626,112,70142,루비관광호텔 월미도,1성급,hotel,60000,200000,❤️생수서비스❤️세스코소독❤️월미도 중앙위치/바다 도보1분⭐놀이기구2분,인천,을왕리 / 월미도,300000021,200000237,37.473949,126.598455
627,113,84234,인천(을왕리) 라인모텔,모텔,motel,70000,70000,,인천,을왕리 / 월미도,300000021,200000237,37.44975540942834,126.37237873383563
628,114,86758,인천(을왕리) 제이앤파크,모텔,motel,0,0,,인천,을왕리 / 월미도,300000021,200000237,37.44500659296286,126.37930145017916
629,115,73033,을왕리 당나귀펜션,펜션,pension,150000,150000,,인천,을왕리 / 월미도,300000021,200000237,37.4622782783,126.3684801482
630,116,83025,을왕리 한라펜션,펜션,pension,110000,110000,,인천,을왕리 / 월미도,300000021,200000237,37.4501062452092,126.404352387509
631,117,70273,월미도 W 관광호텔,2성급,hotel,0,0,,인천,을왕리 / 월미도,300000021,200000237,37.4770933,126.6001201
632,118,74098,인천 씨월드 호텔,호텔,hotel,60000,150000,,인천,을왕리 / 월미도,300000021,200000237,37.464386,126.369296
633,119,78878,인천(을왕리) 스위스파크,모텔,motel,60000,60000,,인천,을왕리 / 월미도,300000021,200000237,37.4491812,126.37250940000001
634,120,87994,을왕리 어느멋진날에1펜션,펜션,pension,280000,280000,,인천,을왕리 / 월미도,300000021,200000237,37.4507099607536,126.40100985197
635,121,93976,무의도 빌리쉬펜션,펜션,pension,130000,130000,,인천,을왕리 / 월미도,300000021,200000237,37.3985701340631,126.420915029666
636,122,95314,월미도 호텔월미여관,펜션,pension,60000,60000,,인천,을왕리 / 월미도,300000021,200000237,37.4736957587835,126.59942363849
637,123,99279,을왕리 스와니펜션,펜션,pension,80000,80000,,인천,을왕리 / 월미도,300000021,200000237,37.4467508572872,126.374074951752
638,0,80459,인천(영종도) Grace Suite Hotel,모텔,motel,45000,0,"아침을 든든하게, 하루를 힘차게! #조식 2인 패키지",인천,영종도,300000021,200000238,37.4903307,126.5813462
639,1,77728,리베라 인천 에어포트,호텔,hotel,49000,200000,,인천,영종도,300000021,200000238,37.485245,126.561306
640,2,73592,웨스턴 그레이스 호텔,호텔,hotel,45000,60000,,인천,영종도,300000021,200000238,37.490311,126.582105
641,3,82500,에어스카이 호텔 (AIRSKY HOTEL),호텔,hotel,59000,59000,✨넷플릭스&디즈니플러스시청가능(개인계정)✨,인천,영종도,300000021,200000238,37.490798,126.580489
642,4,72678,로얄 엠포리움 호텔,호텔,hotel,68000,68000,,인천,영종도,300000021,200000238,37.492297,126.577118
643,5,80521,Grace Suite Hotel,호텔,hotel,45000,230000,"아침을 든든하게, 하루를 힘차게! #조식2인",인천,영종도,300000021,200000238,37.490266,126.581456
644,6,91490,영종 웨스턴 그레이스,호텔,hotel,55000,290000,주중 리뷰이벤트 Room Upgrade,인천,영종도,300000021,200000238,37.49027286493172,126.58147090892737
645,8,84542,인천 리베라베리움 호텔,호텔,hotel,59000,59000,,인천,영종도,300000021,200000238,37.485245,126.561306
646,9,79002,인터내셔널호텔 인천영종,호텔,hotel,29900,60000,◈ 인터내셔널호텔만의 방역&청결,인천,영종도,300000021,200000238,37.491687,126.580967
647,10,80372,오션 솔레뷰 호텔,호텔,hotel,50000,50000,스마트카페 쿠폰 이벤트!,인천,영종도,300000021,200000238,37.494497,126.579371
648,11,85461,위코스테이 영종,호텔,hotel,85000,220000,,인천,영종도,300000021,200000238,37.49278,126.579167
649,12,88666,그랑블루 호텔 앤 레지던스,호텔,hotel,49500,120000,,인천,영종도,300000021,200000238,37.48833352834236,126.5611512159145
650,13,83700,블루오션 레지던스 호텔,호텔,hotel,57000,57000,,인천,영종도,300000021,200000238,37.487372,126.563492
651,14,99097,블루오션 레지던스 호텔3,호텔,hotel,60000,60000,,인천,영종도,300000021,200000238,37.48703047464384,126.56307428845925
652,15,87978,블루오션 레지던스 호텔2,호텔,hotel,180000,180000,,인천,영종도,300000021,200000238,37.48605,126.562167
653,16,100018,웨스턴 하늘과 바다 호텔,호텔,hotel,55000,85000,,인천,영종도,300000021,200000238,37.49027286493172,126.58147090892737
654,18,98486,인천(영종도) 웨스턴그레이스 호텔,모텔,motel,50000,0,주중 리뷰이벤트 Room Upgrade,인천,영종도,300000021,200000238,37.49027286493172,126.58147090892737
655,19,80436,영종도 LaFleur펜션,펜션,pension,50000,50000,,인천,영종도,300000021,200000238,37.5284117701394,126.515568136148
656,20,79008,영종도 씨사이드에비뉴펜션,펜션,pension,60000,60000,,인천,영종도,300000021,200000238,37.49722892495376,126.57856773711313
657,21,85212,인천 영종도 리베라베리움 호텔,모텔,motel,60000,0,,인천,영종도,300000021,200000238,37.485241681117685,126.56134352413376
658,22,83867,영종도 blessing20펜션,펜션,pension,55000,55000,,인천,영종도,300000021,200000238,37.5293674253188,126.516176606681
659,23,82934,영종도 MaBelle펜션,펜션,pension,45000,45000,,인천,영종도,300000021,200000238,37.5278353103636,126.516336513698
660,24,78567,인천(영종도) 인터내셔널 호텔,모텔,motel,29900,0,◈ 인터내셔널호텔만의 방역&청결,인천,영종도,300000021,200000238,37.4917346,126.58099519999996
661,25,77135,영종도 씨사이드카라반캠핑장,펜션,pension,84000,140000,,인천,영종도,300000021,200000238,37.47381207018477,126.52583742887573
662,26,75780,영종도 블루오션펜션(애견동반객실보유),펜션,pension,120000,120000,,인천,영종도,300000021,200000238,37.4963472689,126.5789390816
663,27,79886,영종도 SIESTA펜션,펜션,pension,45000,45000,,인천,영종도,300000021,200000238,37.5291618881492,126.516809779764
664,28,93129,영종도 라메종하우스펜션,펜션,pension,70000,70000,,인천,영종도,300000021,200000238,37.5289455121671,126.514908064747
665,29,84422,영종도 밴프펜션,펜션,pension,50000,50000,,인천,영종도,300000021,200000238,37.5290883181777,126.516687731872
666,30,100181,인천(영종도) 웨스턴 그레이스 인천영종,모텔,motel,34800,0,✨휴대폰 충전기 무료대여✨,인천,영종도,300000021,200000238,37.49027286493172,126.58147090892737
667,31,98892,영종도 블루밍하우스,펜션,pension,54000,60000,,인천,영종도,300000021,200000238,37.5297071030967,126.516683512948
668,32,84420,영종도 초코하우스펜션,펜션,pension,0,0,,인천,영종도,300000021,200000238,37.5290435960106,126.517252438014
669,33,98368,영종도 인더문1호펜션,펜션,pension,0,0,,인천,영종도,300000021,200000238,37.4873357099561,126.563517208536
670,34,99099,영종도 인더문2호펜션,펜션,pension,0,0,,인천,영종도,300000021,200000238,37.4873357099561,126.563517208536
671,0,83474,인천(서구) 브라운도트 인천서구청점,모텔,motel,60000,0,,인천,청라,300000021,200000239,37.54466593535544,126.67315202238218
672,1,100210,인천(서구) 비욘드호텔,호텔,hotel,70000,70000,,인천,청라,300000021,200000239,37.54437417095915,126.67464175016765
673,2,75163,인천 호텔 원티드,호텔,hotel,0,0,,인천,청라,300000021,200000239,37.507604,126.645861
674,3,70457,호텔 소프라 인천청라,호텔,hotel,70000,150000,,인천,청라,300000021,200000239,37.544421,126.674493
675,4,85137,3S 부띠크 호텔(검단),2성급,hotel,0,0,❤️넷플릭스&웨이브 전객실무료시청❤️디즈니+❤️티빙❤️안마의자❤️스타일러❤️,인천,청라,300000021,200000239,37.59315,126.698419
676,5,73510,인천 펜타스타 호텔,호텔,hotel,60000,60000,,인천,청라,300000021,200000239,37.595495824180716,126.6318034047698
677,6,93637,인천(서구) 하운드 인천서구,모텔,motel,50000,0,💗23년 4월 하운드 서구청점 GRAND OPEN💗,인천,청라,300000021,200000239,37.54481853192586,126.67355359605473
678,7,76233,인천(검단) 브리즈호텔,모텔,motel,50000,0,고사양 2PC 게이밍룸 RTX3070TI,인천,청라,300000021,200000239,37.6014577,126.65828090000002
679,8,89313,인천(검단) 이쁘다,모텔,motel,55000,0,루프탑 바베큐 오픈 / 빈대 방역 실시,인천,청라,300000021,200000239,37.60088100723339,126.65922226813795
680,9,67768,인천(석남동) 호텔 루미,모텔,motel,40000,0,전객실 공기청정기★65/75인치 넷플릭스티비,인천,청라,300000021,200000239,37.5069892,126.6688276
681,10,88794,인천(검단신도시) 브라운도트 인천검단신도시점,모텔,motel,80000,0,💗전객실 넷플릭스 무료시청💗,인천,청라,300000021,200000239,37.59445285673872,126.7158010571755
682,11,82086,인천(석남동) 돈키호텔,모텔,motel,35000,0,♥♥  전 객실 넷플릭스 시청가능 ♥♥,인천,청라,300000021,200000239,37.50730333185129,126.67287286070831
683,12,83855,인천(검단) 3S BOTIQUE HOTEL,모텔,motel,55000,0,☆3S직영 오픈 / 전객실 욕조 / 전 객실 넷플릭스 (Netflix) 무료시청 / 안마의자 / 스타일러☆,인천,청라,300000021,200000239,37.59315658291672,126.69841930270256
684,13,91800,인천(검단신도시) 하운드 인천검단신도시,모텔,motel,80000,0,전객실 넷플릭스/웨이브 무료시청 PC방급 최신사양 보유,인천,청라,300000021,200000239,37.59418966232531,126.71599901851329
685,14,68104,인천(석남동) The 쉼,모텔,motel,40000,0,♥쿨패치 증정 이벤트♥,인천,청라,300000021,200000239,37.5078789,126.670677
686,15,67115,인천(검단) 데이앤나잇(DAY&NIGHT),모텔,motel,50000,0,★ 평일 연박가능 / 출장손님 환영★,인천,청라,300000021,200000239,37.6009932,126.6587712
687,16,88146,인천(서구) 호텔 산타,모텔,motel,47000,0,신규이벤트 리뷰 이벤트무료초대권,인천,청라,300000021,200000239,37.5454865563528,126.67522777924495
688,17,68105,인천(석남동) 더 라임,모텔,motel,40000,0,💗💗💗후기 이벤트 진행 합니다💗💗💗,인천,청라,300000021,200000239,37.5069431,126.67107980000003
689,18,75569,인천(석남동) 오션,모텔,motel,35000,0,,인천,청라,300000021,200000239,37.5084773,126.6729812
690,20,84098,인천(검단) 브라운도트 인천검단사거리점,모텔,motel,60000,0,전객실 최고급 수입 침대/고사양 RTX2060/마일리지 적립,인천,청라,300000021,200000239,37.60062441579441,126.65949666513292
691,21,72468,인천(석남동) HOTEL 3&4,모텔,motel,35000,0,♥쿨패치 증정 이벤트♥,인천,청라,300000021,200000239,37.508293,126.6729489
692,22,84888,인천(서구) 데이앤나잇(DAY&NIGHT),모텔,motel,55000,0,"💗고급대형타일욕조, 에어드레서, 공기청정기, 전객실 대형TV로 넷플릭스 무료시청💗",인천,청라,300000021,200000239,37.54505431632936,126.67403828244466
693,23,91288,인천(서구) 인천베이호텔,모텔,motel,60000,0,,인천,청라,300000021,200000239,37.56259721673342,126.61867571520585
694,24,80614,인천(석남동) 호텔 더 브라운,모텔,motel,45000,0,,인천,청라,300000021,200000239,37.5078894,126.6718343
695,25,69303,인천(서구) BNB,모텔,motel,35000,0,이벤트,인천,청라,300000021,200000239,37.5447907,126.67444090000004
696,26,85297,인천(서구) 비욘드 호텔,모텔,motel,50000,0,,인천,청라,300000021,200000239,37.54437417095915,126.67464175016765
697,27,84630,인천(석남동) 뱅크,모텔,motel,40000,0,"전객실 넷플릭스,디즈니,애플TV 무료시청가능.",인천,청라,300000021,200000239,37.506842943392115,126.66849570127589
698,28,79107,인천(석남동) 델루나호텔,모텔,motel,40000,0,넷플릭스 무료/코로나19소독/RTX3060/70 커플PC,인천,청라,300000021,200000239,37.5080256,126.6718179
699,29,85261,인천(서구) 호텔 여기어때,모텔,motel,50000,0,❤️미니풀❤️넷플릭스❤️디즈니플러스❤️전자렌지❤️전기매트❤️안마의자❤️스타일러❤️공기청정기❤️라면조리기(각층),인천,청라,300000021,200000239,37.54527471191679,126.67323238619522
700,30,67823,인천(검단) 클리오,모텔,motel,45000,0,,인천,청라,300000021,200000239,37.601333,126.6586622
701,31,69214,인천(서구) 카카오,모텔,motel,55000,0,"출장고객, 연박고객 이벤트",인천,청라,300000021,200000239,37.5453811,126.6748173
702,32,92074,인천(검단) 펜타스타,모텔,motel,50000,0,,인천,청라,300000021,200000239,37.5955238,126.6317979
703,33,73833,인천(석남동) KOJAJA,모텔,motel,40000,0,★평일숙박! 영화티켓증정★,인천,청라,300000021,200000239,37.5069416,126.6709279
704,34,78420,인천(검단) 공감,모텔,motel,45000,0,,인천,청라,300000021,200000239,37.6008798,126.6589559
705,35,72485,인천(석남동) ON&OFF,모텔,motel,33000,0,"Netflix Disney+ Tving YouTube(Noad) AppleTV 4k,UHD 고화질시청",인천,청라,300000021,200000239,37.5077902,126.672867
706,36,75721,인천(검단) 크리스탈 호텔,모텔,motel,45000,0,,인천,청라,300000021,200000239,37.5951704,126.6314615
707,37,74107,인천(석남동) 요기,모텔,motel,27000,0,회원제 평일 대실 4+1 및 포인트적립 !!  ❤️최고급 사양 노하드 커플 PC❤️,인천,청라,300000021,200000239,37.5085988,126.6732637
708,38,68106,인천(석남동) 리츠,모텔,motel,40000,0,,인천,청라,300000021,200000239,37.5070608,126.6694142
709,39,72276,인천(서구) 연,모텔,motel,40000,0,후기 작성시 1시간 연장 or 객실 업그레이드,인천,청라,300000021,200000239,37.5441731,126.6744448
710,40,80791,인천(석남동) 스위치,모텔,motel,0,0,"3PC/2PC ROOM,  NETFLIX,  ROOM UPGRADE,",인천,청라,300000021,200000239,37.5076701,126.6732444
711,41,91614,인천(석남동) 버스,모텔,motel,35000,0,💗넷플릭스💗석남동최고주차공간💗공기청정기💗전자렌지💗3060💗,인천,청라,300000021,200000239,37.50860003002719,126.67297312300046
712,42,74519,인천(검단) 러브버드,모텔,motel,45000,0,AMD5600X/그래픽 3060/램16G/게이밍커브드모니터/기계식키보드/7.1채널헤드셋,인천,청라,300000021,200000239,37.6016133,126.65967690000002
713,43,79816,인천(서구) 호텔더원,모텔,motel,56000,0,서구청 The One 호텔 오픈 기념 리뷰이벤트 진행,인천,청라,300000021,200000239,37.544930120305814,126.67423764907379
714,44,67310,인천(석남동) ACE,모텔,motel,40000,0,,인천,청라,300000021,200000239,37.5074589,126.6728844
715,45,93560,인천(서구) 아티초크,모텔,motel,40000,0,비지니스  032-561-1522 (전화예약),인천,청라,300000021,200000239,37.545391,126.67428999999993
716,46,80449,인천(서구) 가우디,모텔,motel,40000,0,출장고객 대학생 장기숙박 환영,인천,청라,300000021,200000239,37.5441539,126.6742126
717,47,75495,인천(석남동) 어썸,모텔,motel,30000,0,,인천,청라,300000021,200000239,37.5079098,126.6729491
718,48,99261,브라운도트 호텔 검단사거리점,호텔,hotel,68770,68770,,인천,청라,300000021,200000239,37.600631,126.659476
719,49,89269,인천(검단) 더 모텔 인천검단점,모텔,motel,40000,0,,인천,청라,300000021,200000239,37.60244379477494,126.65917016727843
720,50,97712,인천 검단신도시 호텔 에이치에비뉴,호텔,hotel,100000,100000,,인천,청라,300000021,200000239,37.59437726366143,126.71636320883287
721,51,78889,인천(석남동) 알프스,모텔,motel,40000,0,,인천,청라,300000021,200000239,37.5080613,126.67058339999994
722,52,98470,인천(서구) 넘버25 인천서구점,모텔,motel,50000,0,조식 무료 제공!,인천,청라,300000021,200000239,37.54481435812259,126.67422524214473
723,53,100044,하운드호텔 인천 검단신도시,호텔,hotel,0,0,,인천,청라,300000021,200000239,37.59418966232531,126.71599901851329
724,54,100122,인천 가든나인,펜션,pension,0,0,,인천,청라,300000021,200000239,37.5110450767951,126.665697003594
725,55,87487,인천(석남동) 미니,모텔,motel,27000,0,전 객실 오픈 와이파이/ 넷플릭스 / 고급일회용품제공 / 일반실 UHD55인치 티비 주차는 예약전 문의주세요.,인천,청라,300000021,200000239,37.50916518988893,126.67326597788416
726,56,68942,인천(석남동) 갤러리,모텔,motel,0,0,,인천,청라,300000021,200000239,37.5089542,126.6730123
727,57,69718,인천(석남동) STAY HOTEL,모텔,motel,40000,0,,인천,청라,300000021,200000239,37.5069374,126.6712268
728,58,92274,검단 호텔 이쁘다,호텔,hotel,75000,75000,,인천,청라,300000021,200000239,37.6007833,126.6591311
729,0,74751,인천(부평) ORA(오라),모텔,motel,35000,0,"최고급 토퍼 설치, 야간대실 , 3060 파티룸, 노래방, 노하드 커플pc",인천,부평,300000021,200000240,37.4923332,126.7274475
730,1,87284,인천(부평) 갤러리아 호텔,모텔,motel,40000,0,,인천,부평,300000021,200000240,37.49189214109511,126.72748042240794
731,2,98841,더휴식 아늑호텔 인천 부평점,호텔,hotel,58240,58240,,인천,부평,300000021,200000240,37.492002877409746,126.72705970252161
732,3,72840,인천 boutique 노리터호텔,호텔,hotel,35000,70000,,인천,부평,300000021,200000240,37.491529,126.726303
733,4,70556,부평 제니스 호텔,호텔,hotel,55000,60000,,인천,부평,300000021,200000240,37.491496,126.727647
734,5,85900,인천(부평) 더휴식 아늑호텔,모텔,motel,45000,0,스타벅스 아이스 아메리카노 가 공짜!!,인천,부평,300000021,200000240,37.492002877409746,126.72705970252161
735,7,86618,인천(부평) 호텔 센트로 스테이,모텔,motel,45000,0,"★스타벅스★ 원두커피 무상제공, 전 객실 넷플릭스, 65인치 초대형TV",인천,부평,300000021,200000240,37.49501668200872,126.72793742636053
736,8,98208,인천(동암) 넘버25 동암역점,모텔,motel,27000,0,,인천,부평,300000021,200000240,37.47228817466671,126.70160572674702
737,9,67880,인천(부평) 아이유,모텔,motel,50000,0,,인천,부평,300000021,200000240,37.5035667,126.72250120000001
738,10,68475,인천(부평) 호텔게이트,모텔,motel,40000,0,"전객실 YouTube , NETFLIX , 비데설치 , 65인치TV 설치",인천,부평,300000021,200000240,37.4903383,126.72815059999994
739,11,88043,인천(부평) 호텔 세븐스텝,호텔,hotel,60000,60000,,인천,부평,300000021,200000240,37.493719,126.730902
740,12,78933,인천(부평) 호텔 마루,모텔,motel,40000,0,23년6월15일 GRAND OPEN 더욱 좋아진 호텔마루,인천,부평,300000021,200000240,37.491629,126.72723670000005
741,13,87276,인천(부평) ON&OFF,모텔,motel,38000,0,"Netflix Disney+ Tving YouTube(Noad) 4K,UHD",인천,부평,300000021,200000240,37.49388036235254,126.72821439024385
742,14,80086,인천(부평) 테이크원,모텔,motel,35000,0,"넷플릭스,티빙,디즈니+,왓챠,유투브,애플 전객실 무료♥최강청결 후기 인증, 5성급호텔침구",인천,부평,300000021,200000240,37.4921858,126.7267331
743,15,82212,인천(부평) 넘버25 인천부평점,모텔,motel,40000,0,,인천,부평,300000021,200000240,37.491749950563495,126.72580183205658
744,16,89257,인천(부평) 칼튼,모텔,motel,45000,0,"전객실 NETFLIX , YOUTUBE , 공기청정기 , 고급비데 설치",인천,부평,300000021,200000240,37.4926,126.72095669999999
745,17,68003,인천(동암) HOTEL 3&4,모텔,motel,30000,0,,인천,부평,300000021,200000240,37.4717288,126.70193310000002
746,18,67599,인천(부평) CF,모텔,motel,0,0,Event 01. 평일 무한숙박 이벤트,인천,부평,300000021,200000240,37.490884,126.7195287
747,19,78288,인천(부평) 라임,모텔,motel,40000,0,,인천,부평,300000021,200000240,37.49585328776992,126.72433005092626
748,20,77706,이코노미호텔 인천부평,호텔,hotel,65000,110000,,인천,부평,300000021,200000240,37.518496,126.726259
749,21,67839,인천(동암) 더 스타일,모텔,motel,30000,30000,,인천,부평,300000021,200000240,37.4719485,126.70231519999993
750,22,69627,인천(부평) Boutique노리터 호텔,모텔,motel,35000,0,!전객실   넷플릭스 /youtube 버퍼링 없는 무료 시청!,인천,부평,300000021,200000240,37.4917499,126.7259769
751,23,70598,인천(동암) 느낌 호텔,모텔,motel,33000,0,❤ 쿨패치 증정 이벤트❤,인천,부평,300000021,200000240,37.4720607,126.7025956
752,24,72280,인천(동암) 수(秀),모텔,motel,30000,0,2022년3월17일 객실PC 업그레이드,인천,부평,300000021,200000240,37.4696699,126.7024301
753,26,75698,인천(동암) 린,모텔,motel,30000,0,,인천,부평,300000021,200000240,37.4719337,126.7025993
754,27,72165,인천(동암) 호텔민트,모텔,motel,30000,0,,인천,부평,300000021,200000240,37.47060582005331,126.70192214567773
755,28,68899,인천(동암) 필,모텔,motel,25000,0,,인천,부평,300000021,200000240,37.4690609,126.7024169
756,29,67677,인천(부평) 호텔주노,모텔,motel,40000,0,"☆ 200Hz 커브드모니터, PC전용시스템테이블,의자, 기계식키보드, G102, 7.1ch 진동헤드셋, ★",인천,부평,300000021,200000240,37.4955866,126.7246115
757,30,84051,인천(동암) 탑,모텔,motel,35000,0,쿨패치 증정 이벤트,인천,부평,300000021,200000240,37.47034088582415,126.7024758858347
758,31,66743,인천(동암) 홈,모텔,motel,30000,0,,인천,부평,300000021,200000240,37.4697692,126.7024088
759,32,68458,인천(부평) 버니1,모텔,motel,40000,0,"★★전객실 노하드커플PC, 65인치TV★★",인천,부평,300000021,200000240,37.4922827,126.7263322
760,33,74248,인천(부평) 문라이트,모텔,motel,25000,0,♥ 호텔과 같은 서비스를 누려보세요 ♥,인천,부평,300000021,200000240,37.4918028,126.7207219
761,34,69397,인천(부평) 더 상상 호텔,모텔,motel,28000,28000,★새로운 주인으로 새 단장 OPEN 하였습니다 ★,인천,부평,300000021,200000240,37.4923241,126.721572
762,35,68940,인천(부평) 애플그린,모텔,motel,25000,0,,인천,부평,300000021,200000240,37.492455237,126.720972282
763,36,70611,인천(부평) 스테이 인 호텔,모텔,motel,35000,0,"⚡65/76TV, 전객실 게이밍PC,Netflix,Disney+,Wavve,,커플PC룸⚡",인천,부평,300000021,200000240,37.49312252880939,126.72904208238585
764,37,66982,인천(부평) 버스,모텔,motel,30000,30000,,인천,부평,300000021,200000240,37.4920604,126.7214401
765,38,70501,인천(부평) 제니스,모텔,motel,45000,0,"1실1주차(발렛파킹), 전기자동차 충전 가능, 넷플릭스",인천,부평,300000021,200000240,37.4915901,126.72764170000005
766,39,68117,인천(부평) 샵,모텔,motel,23000,0,★무한숙박★,인천,부평,300000021,200000240,37.4919435,126.72131869999998
767,40,84480,인천(부평) Amy호텔,모텔,motel,32000,0,ps:각 객실 결별난방,인천,부평,300000021,200000240,37.49383384427131,126.7241773896448
768,41,84906,인천(부평) 호텔 벨루스,모텔,motel,45000,0,더운 여름 시원한 슬러시 무료 이벤트,인천,부평,300000021,200000240,37.497566586927746,126.7240880002514
769,42,72205,인천(부평) 시크릿,모텔,motel,27000,25000,★야간대실 EVENT★,인천,부평,300000021,200000240,37.4931264,126.729476
770,43,80914,인천(부평) 호텔 세븐스텝,모텔,motel,50000,0,# 룸서비스 개시 #  룸서비스 맛집 # 배달료가 없다 # 푸짐하게또는 간단하게 #,인천,부평,300000021,200000240,37.4937164,126.7308979
771,44,86997,인천(부평) 알프스,모텔,motel,25000,25000,,인천,부평,300000021,200000240,37.49193356972735,126.72107982743705
772,45,77657,인천 (부평) 버니2,모텔,motel,30000,0,,인천,부평,300000021,200000240,37.4923377,126.72769960000005
773,46,75518,인천(동암) 두루와,모텔,motel,30000,0,,인천,부평,300000021,200000240,37.4719542,126.7016155
774,47,66814,인천(부평) IMT,모텔,motel,35000,0,,인천,부평,300000021,200000240,37.4922434,126.7269889
775,48,79282,인천(부평) 갈산역 하이파크,모텔,motel,40000,40000,"전 객실 넷플릭스, 디즈니 플러스 업그레이드",인천,부평,300000021,200000240,37.5174495,126.7221378
776,49,80771,인천(부평) 굿타임,모텔,motel,27000,0,,인천,부평,300000021,200000240,37.492272,126.7271822
777,50,73275,인천(부평) 두루와 1호점(본관),모텔,motel,38000,0,❤️전화예약[032)516-1006]❤️리뉴얼오픈❤️웰컴드링크❤️넷플릭스❤️,인천,부평,300000021,200000240,37.492029,126.7261159
778,51,69334,인천(부평) RG,모텔,motel,40000,0,,인천,부평,300000021,200000240,37.5045745,126.71390080000003
779,52,67569,인천(부평) 마리골드,모텔,motel,32000,0,❤쿨패치 증정 이벤트❤,인천,부평,300000021,200000240,37.4919316,126.7267036
780,53,72285,인천(부평) HOTEL W,모텔,motel,23000,0,★23년 1월 호텔W 새단장★,인천,부평,300000021,200000240,37.4921128,126.72182509999993
781,54,81140,인천(부평) 갈산역 윈,모텔,motel,40000,35000,,인천,부평,300000021,200000240,37.5172601,126.72211270000003
782,55,72450,인천(부평) 두루와 1호점(별관),모텔,motel,35000,0,부평 두루와 호텔 별관 이벤트❤,인천,부평,300000021,200000240,37.4919298,126.7264266
783,56,67646,인천(부평) XYM2,모텔,motel,30000,0,❤️프리미엄R -야간대실❤️ 이용가능합니다.,인천,부평,300000021,200000240,37.4925546,126.7265763
784,57,74639,인천(동암) 쉴,모텔,motel,25000,25000,,인천,부평,300000021,200000240,37.4699274,126.7024425
785,58,74738,인천 부평(청천동) 샘,모텔,motel,35000,0,방문 결제 이벤트,인천,부평,300000021,200000240,37.5197701,126.7050567
786,59,67561,인천(부평) S1,모텔,motel,35000,0,"🎬전객실 1pc ,넷플릭스 무료   /특실,커플PC객실  배틀그라운드가능2 PC",인천,부평,300000021,200000240,37.4919659,126.72189060000005
787,60,75920,인천(부평) COGORA(코고라),모텔,motel,35000,0,"전객실 NETFLIX, YouTube 완비, 발렛파킹 ,  야간대실 , 아이스크림 이벤트",인천,부평,300000021,200000240,37.4915511,126.72671930000001
788,61,73273,인천(부평) 러브스업,모텔,motel,35000,0,러브스업에 다양한 테마룸을 즐기세요,인천,부평,300000021,200000240,37.4923156,126.7265116
789,62,76081,인천(동암) 리치,모텔,motel,23000,0,,인천,부평,300000021,200000240,37.4694047,126.7024407
790,63,80635,인천(부평) 샴푸,모텔,motel,41000,0,총 30대 지상 주차시설 보유,인천,부평,300000021,200000240,37.4904811,126.7214151
791,64,69147,인천(동암) 피카소,모텔,motel,30000,0,,인천,부평,300000021,200000240,37.469953,126.7021574
792,65,68894,인천(부평) 쁠랑,모텔,motel,35000,0,"전 객실 NETPLIX, YouTube 무료시청가능",인천,부평,300000021,200000240,37.491948802,126.727205061
793,66,67921,인천(부평) 레니엘,모텔,motel,30000,0,♥고객님이 직접! 원하시는 숙박시간을 선택해주세요~! 아늑한 무비룸 or 최고 사양 2PC룸 (가성비 최고^^)♥,인천,부평,300000021,200000240,37.4928541,126.7272854
794,67,67935,인천(동암) 호텔베네,모텔,motel,30000,0,★ 동암역 최고의 가성비 호텔베네 ★,인천,부평,300000021,200000240,37.4717757,126.7025779
795,68,66786,인천(동암) 고추잠자리 호텔,모텔,motel,35000,35000,★동암상권 최대크기 객실보유★,인천,부평,300000021,200000240,37.4704625,126.70162359999995
796,69,73012,인천(부평) 두루와 호텔(2호점),모텔,motel,30000,0,쿨 패치 증정 이벤트,인천,부평,300000021,200000240,37.4919131,126.7281725
797,70,69309,인천(부평) 동경,모텔,motel,25000,25000,,인천,부평,300000021,200000240,37.4932676,126.7290568
798,71,68897,인천(부평) 이오스,모텔,motel,23000,23000,,인천,부평,300000021,200000240,37.492340194,126.72676896
799,72,73225,인천(부평) 씨마(CIMA),모텔,motel,27000,0,CIMA Upgrade ⭐️ 베틀그라운드 고사양 pc 비치,인천,부평,300000021,200000240,37.4919589,126.7216896
800,73,78022,인천(부평) 자바,모텔,motel,25000,0,"스넥바, 렌즈케이스&리뉴, 넷플릭스",인천,부평,300000021,200000240,37.4924736,126.72685260000003
801,74,73487,인천(부평) 넷텔,모텔,motel,28000,30000,,인천,부평,300000021,200000240,37.504224,126.7139456
802,75,78330,인천(부평) 세븐,모텔,motel,30000,30000,,인천,부평,300000021,200000240,37.4932192,126.72890480000001
803,76,78979,인천 부평(청천동) 리치,모텔,motel,35000,0,,인천,부평,300000021,200000240,37.5183599,126.70619729999999
804,77,92054,인천(부평) 갈산,모텔,motel,30000,0,,인천,부평,300000021,200000240,37.51838679276843,126.72583618024817
805,78,77635,인천(부평) 스카이,모텔,motel,35000,0,,인천,부평,300000021,200000240,37.49347849999999,126.72795960000008
806,79,99523,인천(부평) 서해,모텔,motel,30000,30000,,인천,부평,300000021,200000240,37.49458634187302,126.72710828596858
807,80,80734,인천(동암) 체리,모텔,motel,35000,35000,,인천,부평,300000021,200000240,37.470156258829704,126.70162810815364
808,81,91766,인천(부평) 힐탑모텔,모텔,motel,0,0,,인천,부평,300000021,200000240,37.492692567300026,126.72900886219665
809,82,78807,인천 부평(청천동) 필,모텔,motel,35000,40000,,인천,부평,300000021,200000240,37.5175913,126.70561780000003
810,83,67764,인천(동암) 르네상스,모텔,motel,25000,30000,,인천,부평,300000021,200000240,37.4700999,126.7024537
811,84,66800,인천(부평) 웰빙,모텔,motel,27000,0,대실 마감연장 이벤트~!!,인천,부평,300000021,200000240,37.4916823,126.7270534
812,85,100037,부평 스테이 인 호텔,호텔,hotel,45000,55000,"◆전객실 75/65TV,게이밍커플PC,Netflix,Disney+,Wavve,Tving",인천,부평,300000021,200000240,37.49312252880939,126.72904208238585
813,86,97635,인천(부평) 갈산역 킹,모텔,motel,40000,0,,인천,부평,300000021,200000240,37.51740246203297,126.72214425958231
814,0,83403,인천(주안) 넘버25 인천주안역점,모텔,motel,26000,0,❌문신❌만취❌❤️최고다❤️깨끗함❤️흡연❌,인천,주안,300000021,200000241,37.461970756540474,126.68211983636236
815,1,88406,인천 보스코호텔,호텔,hotel,64710,64710,,인천,주안,300000021,200000241,37.46197473725936,126.68226238197641
816,2,88282,인천(주안) H Avenue 인천주안역점,모텔,motel,40000,0,,인천,주안,300000021,200000241,37.46161895197895,126.68205905058007
817,3,69469,인천(주안) 보스코,모텔,motel,40000,0,,인천,주안,300000021,200000241,37.4619757,126.682271
818,4,75336,인천(주안) YOU&I(유앤아이),모텔,motel,60000,0,,인천,주안,300000021,200000241,37.4619856,126.6819389
819,5,78053,인천(주안) St.179,모텔,motel,38000,0,국내최초 전객실 티오더설치업소 (10月초완공),인천,주안,300000021,200000241,37.4594712,126.68242950000001
820,6,85920,인천(주안) 청춘호텔,모텔,motel,40000,0,도도포인트 적립 운영,인천,주안,300000021,200000241,37.459419493084205,126.68728015343466
821,7,68192,인천(주안) 소마호텔,모텔,motel,40000,0,"★ 노하드 커플 PC룸 , 전객실 넷플릭스",인천,주안,300000021,200000241,37.4587798,126.68286020000005
822,8,66763,인천(주안) 호텔 레인보우,모텔,motel,43000,0,💕3인 게이밍pc 💕 4인 게이밍pc💕 할인이벤트,인천,주안,300000021,200000241,37.4604471842672,126.67882113355809
823,9,67588,인천(주안) 디데이,모텔,motel,35000,0,,인천,주안,300000021,200000241,37.462569604835416,126.68295023669815
824,10,72863,인천(주안) 스텔라,모텔,motel,45000,50000,,인천,주안,300000021,200000241,37.4594629,126.68826339999998
825,11,78925,인천(주안) 페이지46,모텔,motel,40000,0,1. 페이지46 호텔 이벤트,인천,주안,300000021,200000241,37.4591879,126.68798089999996
826,12,67524,인천(주안) 루나,모텔,motel,40000,45000,"주차 20여대,숙박시 요일무관 2000포인트 적립(요청시),라텍스침대",인천,주안,300000021,200000241,37.4645091,126.674251
827,13,67682,인천(주안) 데이앤나잇(DAY&NIGHT),모텔,motel,40000,40000,💕고사양 PC로 게임도 하고 영화도보고💕,인천,주안,300000021,200000241,37.4609022,126.68111520000002
828,14,84280,인천(주안) 호텔 여기어때 주안점,모텔,motel,40000,0,# 75인치 대형TV / 2PC(게이밍) / 풀빌라(복층객실)/ 넷플릭스 / 공기청정기 / 발렛서비스 #,인천,주안,300000021,200000241,37.46168373045941,126.68257106438597
829,15,89055,인천(주안) AM,모텔,motel,38000,0,주차 필요하신분은 업체에 꼭 연락부탁드립니다.,인천,주안,300000021,200000241,37.4591190706195,126.68728302288768
830,16,72298,인천(주안) 식스(SIX),모텔,motel,35000,0,Newly Renovated 트렌디한 호텔식스,인천,주안,300000021,200000241,37.4621978,126.6822525
831,17,68199,인천(주안) 썸,모텔,motel,35000,0,Surprise✨ 무한 대실 이벤트❤️,인천,주안,300000021,200000241,37.4592527,126.6876176
832,19,66848,인천(주안) 프로포즈,모텔,motel,40000,0,"◈전 객실 최신 리뉴얼 완료(고사양 올인원PC,침대및스마트TV전체교체,아메리칸스탠다드세트 설치)",인천,주안,300000021,200000241,37.4625534,126.6824885
833,20,68107,인천(주안) 미미,모텔,motel,31000,31000,주안 호텔 미미 후기 이벤트 진행⭐,인천,주안,300000021,200000241,37.4600063,126.683266
834,21,86779,인천(주안) 글램(GLAM),모텔,motel,40000,0,전객실 넷플릭스  sealy매트리스 65 스마트 티비 매력적인 공간제공❤,인천,주안,300000021,200000241,37.459090024686944,126.6853867080213
835,22,81953,인천(주안) 두루와,모텔,motel,40000,0,"3인 ,4인 ,5인 게이밍pc, 야간대실, 전객실 넷플,티빙,디즈니,애플 시청가능",인천,주안,300000021,200000241,37.46167533241274,126.68150811289905
836,23,78819,인천(주안) 나인호텔(Nine hotel),모텔,motel,32000,0,,인천,주안,300000021,200000241,37.459554,126.67951189999997
837,24,78312,인천(주안) 리운,모텔,motel,50000,0,"❤️전객실 70인치TV, 보다 편리한 넷플릭스❤️",인천,주안,300000021,200000241,37.4628516,126.67805450000003
838,25,72952,인천(주안) 호텔오라,모텔,motel,33000,0,,인천,주안,300000021,200000241,37.4594683,126.6880971
839,26,82547,인천(주안) 호텔나무,모텔,motel,40000,0,𝑩𝒐𝒖𝒕𝒊𝒒𝒖𝒆 𝑯𝒐𝒕𝒆𝒍 𝑵𝒂𝒎𝒖,인천,주안,300000021,200000241,37.45864130862357,126.68837992392872
840,27,86118,인천(주안) 소셜스테이,모텔,motel,32000,0,숙박/대실 이벤트 - 리안 헤어 살롱 30만원 상품권 추점 증정.,인천,주안,300000021,200000241,37.45859186424349,126.68809302088823
841,28,66760,인천(주안) 호텔마음,모텔,motel,35000,0,,인천,주안,300000021,200000241,37.4632271,126.6837308
842,29,99449,주안 칼튼 호텔,호텔,hotel,40000,200000,,인천,주안,300000021,200000241,37.46263798101754,126.67806866365432
843,30,67223,인천(주안) Luxury짝,모텔,motel,25000,0,★무한숙박/대실 이벤트★,인천,주안,300000021,200000241,37.4590109,126.6862138
844,31,66802,인천(주안) 더자자,모텔,motel,40000,0,"✨3,6,9 요금제 도입/1인 객실 운영/전 층 얼음정수기 비치✨",인천,주안,300000021,200000241,37.4607024,126.68439760000001
845,32,69219,인천(주안) 토마토호텔,모텔,motel,27000,34000,★19.06 주안 토마토 Renewal Open!,인천,주안,300000021,200000241,37.4634425,126.6784373
846,33,73827,인천(주안) 베드스테이션,모텔,motel,30000,0,신규리모델링완료RTX3060.2060넷플릭스,인천,주안,300000021,200000241,37.463301,126.6817603
847,34,81941,인천(주안) 아미호텔,모텔,motel,25900,0,넷플릭스 이용가능,인천,주안,300000021,200000241,37.45914412312598,126.68497151422437
848,35,67874,인천(주안) 러블리,모텔,motel,27000,30000,★게이밍 GTX1080 ★넷플릭스 시청,인천,주안,300000021,200000241,37.4598892,126.6854998
849,36,68460,인천(주안) 프로방스,모텔,motel,30000,0,드디어 넷플렉스가!!!,인천,주안,300000021,200000241,37.4617198,126.68175829999996
850,37,80685,인천(주안) ON&OFF,모텔,motel,28000,0,전 객실 넷플릭스.티빙.디즈니/ 고사양 노하드,인천,주안,300000021,200000241,37.4637372,126.6785343
851,38,74948,인천(주안) HERTZ(헤르츠),모텔,motel,25000,25000,,인천,주안,300000021,200000241,37.4634831,126.68214499999999
852,39,82923,인천(주안) 브라운도트 인천주안역점,모텔,motel,40000,0,❤ 전객실 2PC/넷플/디즈니/티빙 가능❤,인천,주안,300000021,200000241,37.46249945919264,126.68213334047972
853,40,74943,인천(주안) 바네(VANE),모텔,motel,40000,0,2022년 11월 신규 오픈 전 객실 오픈특가중!,인천,주안,300000021,200000241,37.4594142,126.6884204
854,41,70581,인천(주안) 홀인원,모텔,motel,32000,0,🎁전객실 2PC/넷플릭스/유카타 가운/1일1회 자체방역🎁,인천,주안,300000021,200000241,37.4593963,126.6851191
855,42,69264,인천(주안) 호텔주노,모텔,motel,30000,0,"✅1일 1회 자체 방역 중, 깔끔 청결 호텔⭐",인천,주안,300000021,200000241,37.4587943,126.6868827
856,43,67296,인천(주안) 칼튼,모텔,motel,35000,0,,인천,주안,300000021,200000241,37.4626461,126.67808220000006
857,44,66866,인천(주안) 로지,모텔,motel,25000,23000,선착순최저가숙박이벤트 전객실넷플릭스무제한시청가능,인천,주안,300000021,200000241,37.4612739,126.683016
858,45,70398,인천 소마 호텔,호텔,hotel,0,0,,인천,주안,300000021,200000241,37.458732,126.68285
859,46,78345,인천(주안) HOTEL 3&4,모텔,motel,24000,0,"넷플릭스,애플TV,디즈니 무료시청, 배그pc",인천,주안,300000021,200000241,37.4585706,126.68777869999997
860,47,68914,인천(주안) 썬플라워,모텔,motel,25000,24000,선착순최저가숙박이벤트 전객실넷플릭스무제한시청가능,인천,주안,300000021,200000241,37.4604987,126.6829937
861,48,67390,인천(주안) 테마(CGV점),모텔,motel,25000,35000,,인천,주안,300000021,200000241,37.4615399,126.6797618
862,49,82728,에스티 179 (St.179),호텔,hotel,40000,50000,,인천,주안,300000021,200000241,37.459528,126.682484
863,50,91615,인천(주안) 쉬리,모텔,motel,30000,25000,,인천,주안,300000021,200000241,37.45904962212527,126.68802194402511
864,51,68903,인천(주안) 로아,모텔,motel,40000,30000,,인천,주안,300000021,200000241,37.4613196,126.6797505
865,52,85197,인천(주안) 옥천모텔,모텔,motel,45000,0,,인천,주안,300000021,200000241,37.46685500785355,126.68225375837969
866,53,67665,인천(주안) 폭스,모텔,motel,40000,35000,,인천,주안,300000021,200000241,37.464473993927754,126.67948840885924
867,0,70232,카리스 호텔,3성급,hotel,110000,260000,,인천,계양,300000021,200000242,37.526363,126.72314
868,1,76381,인천(작전동) 꿈의궁전,호텔,hotel,45000,45000,,인천,계양,300000021,200000242,37.531613,126.735574
869,2,86464,호텔 소울하다 (인천점),호텔,hotel,70000,70000,레이트체크인특가 상품 판매 중!,인천,계양,300000021,200000242,37.535785,126.736869
870,3,83009,인천(작전동) 소울하다,모텔,motel,60000,0,,인천,계양,300000021,200000242,37.53571248998943,126.73694261944134
871,4,88375,인천(작전동) 넘버25 인천작전점,모텔,motel,60000,0,"RTX3070,RTX2060 ,75인치TV ,86인치TV 완비",인천,계양,300000021,200000242,37.53580923249588,126.7356860209009
872,5,75848,인천(작전동) VOW,모텔,motel,60000,0,자체방역 실시,인천,계양,300000021,200000242,37.5359602,126.735502
873,6,87161,인천(작전동) 브라운도트 인천작전점,모텔,motel,60000,0,전 객실 고가의 ACE침대 메모리 기능성 매트리스 시설 / RTX3080 240Hz 모니터,인천,계양,300000021,200000242,37.53329614228707,126.73523103641527
874,7,75616,인천(작전동) 아마레,모텔,motel,50000,0,전객실 NETFLIX 무료 시청 가능,인천,계양,300000021,200000242,37.5326235,126.7355638
875,8,88557,인천(경인교대) 온호텔,모텔,motel,45000,45000,#넷플릭스#공기청정기#65인치TV#고사양PC,인천,계양,300000021,200000242,37.538355422156044,126.7251804988099
876,9,97867,인천(작전동) 토마토,모텔,motel,40000,40000,,인천,계양,300000021,200000242,37.53204860194623,126.73563098197222
877,10,84431,인천(작전동) HOTEL 월(月),모텔,motel,40000,0,〈 전 객실 넷플릭스 / 유튜브 시청 가능 〉,인천,계양,300000021,200000242,37.53191404641649,126.73561478562682
878,11,67558,인천(작전동) BUTI&,모텔,motel,50000,0,[이벤트] 실시간 리얼리뷰,인천,계양,300000021,200000242,37.5324941,126.7357549
879,12,82278,인천(경인교대) NINE(9),모텔,motel,50000,0,쿨패치 증정 이벤트,인천,계양,300000021,200000242,37.53850419487491,126.72386282488738
880,13,86666,인천(작전동) 유앤아이,모텔,motel,40000,40000,,인천,계양,300000021,200000242,37.53178465489118,126.73560023112329
881,14,67929,인천(작전동) 반도,모텔,motel,40000,0,"★ 전객실 넷플릭스 (최신영화, TV프로그램 무제한)",인천,계양,300000021,200000242,37.5326375,126.7353605
882,15,78296,인천(경인교대) ILLUA 일루아 호텔,모텔,motel,30000,0,"대실 숙박(현금5+1, 카드7+1, 사이트10+1) / 조식 무료제공 (라면+단무지)",인천,계양,300000021,200000242,37.5384447,126.72527020000007
883,16,84675,인천(경인교대) 어썸호텔,모텔,motel,32000,32000,셀빠 무료이용,인천,계양,300000021,200000242,37.5389939,126.7240333
884,17,78475,인천(경인교대) 마리호텔,모텔,motel,40000,0,전객실 넷플릭스,인천,계양,300000021,200000242,37.5386725,126.72341519999998
885,18,67158,인천(작전동) RG,모텔,motel,40000,0,"★ 전객실 넷플릭스, 유튜브 무료시청 ★",인천,계양,300000021,200000242,37.5332799,126.7358567
886,19,78886,인천(경인교대) 테마25,모텔,motel,30000,0,,인천,계양,300000021,200000242,37.5379589,126.72375320000003
887,20,72055,인천(작전동) 짝,모텔,motel,35000,0,넷플릭스 객실이용 숙박 이벤트룸 실시,인천,계양,300000021,200000242,37.5316595,126.7358479
888,21,68374,인천(작전동) 소풍호텔,모텔,motel,50000,0,"전 객실 70&65인치 TV로 넷플릭스,와챠,디즈니플러스 시청가능합니다",인천,계양,300000021,200000242,37.5335822,126.7360297
889,22,68901,인천(작전동) 써클,모텔,motel,45000,0,★ 70인치 TV로 무료 넷플릭스/유튜브,인천,계양,300000021,200000242,37.533263852,126.73564571
890,23,74975,인천(작전동) 꿈의궁전,모텔,motel,35000,0,전객실 넷플릭스 무료이용,인천,계양,300000021,200000242,37.5316744,126.7355849
891,24,73435,인천(경인교대) 멜로디,모텔,motel,27000,31000,,인천,계양,300000021,200000242,37.5410321,126.72111
892,25,80682,인천(경인교대) 하얏트,모텔,motel,35000,0,무한대실 이벤트!,인천,계양,300000021,200000242,37.5391285,126.7237952
893,26,67271,인천(경인교대) 짝,모텔,motel,30000,0,넷플릭스 전객실 이용가능,인천,계양,300000021,200000242,37.5377915,126.724748
894,27,91116,인천(경인교대) 호텔 101,모텔,motel,40000,40000,,인천,계양,300000021,200000242,37.5382746,126.7238003
895,28,70182,호텔 부티앤,호텔,hotel,55000,60000,,인천,계양,300000021,200000242,37.532415,126.735723
