,index,code,name,grade,type,d_price,price,benefit,region_L,region_S,code_L,code_S,lat,lon
0,0,66832,μ²­μ£Ό λ©”λ¦¬μ μΈ,λ¨ν…”,motel,60000,70000,"NETFLIX, μ›¨μ΄λΈ, ν‹°λΉ™, λ””μ¦λ‹+ μ „κ°μ‹¤μ‹μ²­κ°€λ¥",μ¶©λ¶,μ²­μ£Ό / μ§„μ²,300000031,200000322,36.6302626,127.4291627
1,1,69083,μ²­μ£Ό νΈν…” μΈ μΉ΄ν ν„°λ―Έλ„μ ,λ¨ν…”,motel,40000,55000,,μ¶©λ¶,μ²­μ£Ό / μ§„μ²,300000031,200000322,36.624155548,127.43394835499998
2,2,67472,μ²­μ£Ό μ§ νΈν…”,λ¨ν…”,motel,40000,50000,β¤οΈ μ „ κ°μ‹¤ λ„·ν”λ¦­μ¤ /νμ½/μλ£/μ»¤ν”Ό μ κ³µβ¤οΈ,μ¶©λ¶,μ²­μ£Ό / μ§„μ²,300000031,200000322,36.6297153,127.42602190000002
3,3,72121,μ²­μ£Ό νΈν…” 7,λ¨ν…”,motel,35000,0,π’•ν‰μΌ λ€μ‹¤ μ΄λ²¤νΈ μ§„ν–‰ μ¤‘π’•,μ¶©λ¶,μ²­μ£Ό / μ§„μ²,300000031,200000322,36.6097643,127.50345149999998
4,4,81452,μ μ΄μ› νΈν…”,νΈν…”,hotel,141000,141000,[λ£ΈUP νΉκ°€β…] μ¤νƒ λ‹¤λ“β†’μ΄κ·Έμ νν‹°λΈ κ°μ‹¤,μ¶©λ¶,μ²­μ£Ό / μ§„μ²,300000031,200000322,36.714725,127.439208
5,5,69930,κ·Έλλ“ ν”λΌμ μ²­μ£Ό(κµ¬ λΌλ§λ‹¤ ν”„λΌμ μ²­μ£Ό),νΈν…”,hotel,200000,200000,"μ²­μ£Ό μ μΌ 5μ„±κΈ‰ νΈν…”, νΈμΊ‰μ¤",μ¶©λ¶,μ²­μ£Ό / μ§„μ²,300000031,200000322,36.666457,127.494353
6,6,88938,κΈ€λ΅μ¤ν„° νΈν…” μ²­μ£Ό,νΈν…”,hotel,139000,139000,λ¦¬λ·° μ΄λ²¤νΈ μ§„ν–‰μ¤‘,μ¶©λ¶,μ²­μ£Ό / μ§„μ²,300000031,200000322,36.64424859118977,127.42776309264283
7,7,82474,νΈν…”μΈλ¨λ μ²­μ£Όν„°λ―Έλ„,νΈν…”,hotel,55000,55000,,μ¶©λ¶,μ²­μ£Ό / μ§„μ²,300000031,200000322,36.626362,127.435244
8,8,79672,μ„ΈμΆ…μ‹ν‹° μ¤μ†΅νΈν…”,νΈν…”,hotel,90000,90000,#μ¤μ†΅μ—­μΈκ·Ό #λ‹¨λ…μ—…κ·Έλ μ΄λ“,μ¶©λ¶,μ²­μ£Ό / μ§„μ²,300000031,200000322,36.631414,127.328772
9,9,78589,μ¤μ†΅ H νΈν…” μ„ΈμΆ…μ‹ν‹°,νΈν…”,hotel,83000,83000,,μ¶©λ¶,μ²­μ£Ό / μ§„μ²,300000031,200000322,36.631921,127.329123
10,10,84129,μ²­μ£Ό λ”•μ…”λ„λ¦¬νΈν…”,νΈν…”,hotel,55000,55000,,μ¶©λ¶,μ²­μ£Ό / μ§„μ²,300000031,200000322,36.626464,127.435414
11,11,78628,μ²­μ£Ό λ©”λ¦¬μ μΈ νΈν…”,νΈν…”,hotel,63530,63530,,μ¶©λ¶,μ²­μ£Ό / μ§„μ²,300000031,200000322,36.63034,127.429268
12,12,82338,λ²¨λ¦¬λ…ΈνΈν…”,νΈν…”,hotel,55000,60000,,μ¶©λ¶,μ²­μ£Ό / μ§„μ²,300000031,200000322,36.624151,127.433544
13,13,70353,μ§„μ² λ―Έλ‹νΈν…”,νΈν…”,hotel,0,0,κΈ ν†  μΌ  μ΄μ© κ³ κ° 5 λ¶„  μ™€μΈμ΄λ²¤νΈ,μ¶©λ¶,μ²­μ£Ό / μ§„μ²,300000031,200000322,36.911521,127.505933
14,14,78681,νΈν…” μ– μ²­μ£Όν„°λ―Έλ„,νΈν…”,hotel,40000,40000,,μ¶©λ¶,μ²­μ£Ό / μ§„μ²,300000031,200000322,36.629674,127.430029
15,15,77619,λ‰΄λ² λΌκ΄€κ΄‘νΈν…”,νΈν…”,hotel,50000,50000,,μ¶©λ¶,μ²­μ£Ό / μ§„μ²,300000031,200000322,36.628034,127.430029
16,16,73224,νΈν…” λ®¤μ μ¤,νΈν…”,hotel,100000,100000,,μ¶©λ¶,μ²­μ£Ό / μ§„μ²,300000031,200000322,36.625358,127.42799
17,17,70315,μ²­μ£Όμ΅°μ•„νΈν…”,νΈν…”,hotel,80500,90000,,μ¶©λ¶,μ²­μ£Ό / μ§„μ²,300000031,200000322,36.715008,127.4277
18,18,92140,μ²­μ£Ό λΉμ„ΌνΈ HOTEL μ¤μ†΅μ—­μ ,νΈν…”,hotel,80000,80000,,μ¶©λ¶,μ²­μ£Ό / μ§„μ²,300000031,200000322,36.62453717002264,127.32001077562944
19,19,78375,μ²­μ£Ό νΈν…” λ³Έ,νΈν…”,hotel,50000,50000,,μ¶©λ¶,μ²­μ£Ό / μ§„μ²,300000031,200000322,36.647769,127.486726
20,20,83371,λ¦¬λ°”μ¥¬ νΈν…”,νΈν…”,hotel,60000,70000,,μ¶©λ¶,μ²­μ£Ό / μ§„μ²,300000031,200000322,36.629169,127.429946
21,21,87603,μ²­μ£Ό μ¤μ†΅ μ¤ν…μ΄ νΈν…”,νΈν…”,hotel,90000,90000,,μ¶©λ¶,μ²­μ£Ό / μ§„μ²,300000031,200000322,36.622981,127.323048
22,22,70317,μ²­μ£Ό λ” λ§ν¬νΈν…”,νΈν…”,hotel,63000,63000,,μ¶©λ¶,μ²­μ£Ό / μ§„μ²,300000031,200000322,36.625881,127.428591
23,23,69990,μ²­μ£Ό λ‚λ¬΄ νΈν…”,νΈν…”,hotel,70000,170000,,μ¶©λ¶,μ²­μ£Ό / μ§„μ²,300000031,200000322,36.656954,127.528172
24,24,81242,νΈν…” μ– μ¶©λ¶λ€μ ,νΈν…”,hotel,43000,43000,,μ¶©λ¶,μ²­μ£Ό / μ§„μ²,300000031,200000322,36.634068,127.453787
25,25,78753,μ²­μ£Ό λ£¨λΉ„λ…Έ νΈν…”,νΈν…”,hotel,60000,60000,,μ¶©λ¶,μ²­μ£Ό / μ§„μ²,300000031,200000322,36.631476,127.428653
26,26,82152,μ²­μ£Ό μ¤μ°½ μ— ν”„λ μ¤ λ μ§€λμ¤ (Empress Residence),λ¨ν…”,motel,85000,0,,μ¶©λ¶,μ²­μ£Ό / μ§„μ²,300000031,200000322,36.71471857818655,127.43922648135181
27,27,78565,μ§„μ² μ•λ§ λΉ„μ¦λ‹μ¤νΈν…”,λ¨ν…”,motel,0,0,μ¤νƒ€λ²…μ¤ Cafe Verona μ›λ‘ μ‚¬μ©,μ¶©λ¶,μ²­μ£Ό / μ§„μ²,300000031,200000322,36.9893132,127.44322119999993
28,29,88560,μ²­μ£Ό λ³„,λ¨ν…”,motel,26900,26900,"β…μ²­μ£Όμ‹λ‚΄ μ¤‘μ‹¬ μ§€ν•μƒκ°€,μ†λ‚λ¬΄κΈΈ λ§›μ§‘κ±°λ¦¬ μ„μΉ β…λ¨λ“  κ°μ‹¤ λ„·ν”λ¦­μ¤/λ””μ¦λ‹ν”λ¬μ¤/μ ν¬λΈ/wi-fi β…μ„Έμ¤μ½”,μ •κΈ°μ†λ… μ—…μ²΄",μ¶©λ¶,μ²­μ£Ό / μ§„μ²,300000031,200000322,36.6378485702419,127.48839112486392
29,30,69077,μ²­μ£Ό νΈν…” λ¦¬μ¨(HOTEL LION),λ¨ν…”,motel,45000,60000,,μ¶©λ¶,μ²­μ£Ό / μ§„μ²,300000031,200000322,36.6288784,127.4298871
30,31,72273,μ²­μ£Ό λ§¨ν•νƒ„,λ¨ν…”,motel,38800,55000,β…μ λ¦½μ΄λ²¤νΈ λ° λ“μΈλΌλ©΄ νλ§¤λ°λ£Έμ¨λΉ„μ¤!!!!,μ¶©λ¶,μ²­μ£Ό / μ§„μ²,300000031,200000322,36.6292218,127.4305145
31,32,77296,μ²­μ£Ό ν•λνμ…,νμ…,pension,130000,130000,,μ¶©λ¶,μ²­μ£Ό / μ§„μ²,300000031,200000322,36.69051324887623,127.63288972141532
32,33,94036,μ²­μ£Ό μ²­λ‚¨λ€μΊ ν”„νμ…,νμ…,pension,120000,120000,,μ¶©λ¶,μ²­μ£Ό / μ§„μ²,300000031,200000322,36.5330515070765,127.499959892915
33,34,81967,μ²­μ£Ό μ‰μΉ΄μμ•„μΉ¨λ…μ±„νμ…,νμ…,pension,350000,350000,,μ¶©λ¶,μ²­μ£Ό / μ§„μ²,300000031,200000322,36.6070617850729,127.693810429228
34,35,81401,μ²­μ£Ό μ†”ν–¥ ν•μ¥ νμ…,νμ…,pension,0,0,,μ¶©λ¶,μ²­μ£Ό / μ§„μ²,300000031,200000322,36.7350918346606,127.405106706571
35,36,78833,μ²­μ£Ό μ μ΄νΈν…”,λ¨ν…”,motel,65000,0,,μ¶©λ¶,μ²­μ£Ό / μ§„μ²,300000031,200000322,36.60896109999999,127.50278120000007
36,37,74582,μ²­μ£Ό λ” ν‚Ή HOTEL,λ¨ν…”,motel,66000,0,"24μ‹ μ¤λ‚µλ°” μ΄μ ,μ „ κ°μ‹¤ λ„·ν”λ¦­μ¤ μ΄μ© κ°€λ¥",μ¶©λ¶,μ²­μ£Ό / μ§„μ²,300000031,200000322,36.6651474,127.49527809999995
37,38,84007,μ²­μ£Ό λ΅μ‹ νΈν…”(Hotel Roxy),λ¨ν…”,motel,65000,75000,2021λ…„ 8μ›” 14μΌ GRAND OPEN,μ¶©λ¶,μ²­μ£Ό / μ§„μ²,300000031,200000322,36.630282786302,127.42532256639252
38,39,83341,μ²­μ£Ό ν„°λ―Έλ„ μ¤μ•„μ‹μ¤,λ¨ν…”,motel,50000,60000,,μ¶©λ¶,μ²­μ£Ό / μ§„μ²,300000031,200000322,36.62377986998776,127.43304959124129
39,40,82844,μ§„μ² νΈν…” κ°¤λ­μ‹,λ¨ν…”,motel,45000,45000,λ€μ‹¤ 1μ‹κ°„ μ—°μ¥ μ„λΉ„μ¤,μ¶©λ¶,μ²­μ£Ό / μ§„μ²,300000031,200000322,36.765289163647935,127.44891859658144
40,41,69078,μ²­μ£Ό νΈν…” μ¤λΈμ ,λ¨ν…”,motel,55000,80000,,μ¶©λ¶,μ²­μ£Ό / μ§„μ²,300000031,200000322,36.6310034,127.428845
41,42,82331,μ§„μ² νΈν…” λΌμΏ μ¤,λ¨ν…”,motel,68000,0,,μ¶©λ¶,μ²­μ£Ό / μ§„μ²,300000031,200000322,36.91899450961101,127.4890659359789
42,43,69090,μ²­μ£Ό μ¤μΉ΄μ΄ν…”,λ¨ν…”,motel,30000,35000,,μ¶©λ¶,μ²­μ£Ό / μ§„μ²,300000031,200000322,36.6262953,127.4350564
43,44,69081,μ²­μ£Ό νΈν…” ES,λ¨ν…”,motel,50000,0,β…λ„“μ€ μ£Όμ°¨μ¥ μ™„λΉ„β…,μ¶©λ¶,μ²­μ£Ό / μ§„μ²,300000031,200000322,36.655324,127.48232499999995
44,45,92697,μ²­μ£Ό νΈν…” λ΅μ§€(Rosy),λ¨ν…”,motel,50000,0,β΅ μ©μ•”λ™ μµμ‹ λ¦¬λ¨λΈλ§ λ§¤μ¥ β΅,μ¶©λ¶,μ²­μ£Ό / μ§„μ²,300000031,200000322,36.60785202422711,127.50278671460215
45,46,66947,μ²­μ£Ό λ¶λ¬Έλ΅ ν† λ΅ ν†  νΈν…”,λ¨ν…”,motel,35000,0,β™¥λ„·ν”λ¦­μ¤ β™¥ μ „κ°μ‹¤ μ‚Όμ„± μ΄λ€ν• μ¤λ§νΈTV(70μΈμΉ) λ° λ€ν•μ»¤ν”μ•μ΅° μ„¤μΉμ™„λ£β™¥  μ„Έμ¤μ½” λ°©μ—­ μ†λ… μ‹¤μ‹μ¤‘ β™¥,μ¶©λ¶,μ²­μ£Ό / μ§„μ²,300000031,200000322,36.6378317,127.48946580000006
46,47,67053,μ²­μ£Ό λ‘λ°”μ΄ λ¬΄μΈνΈν…”,λ¨ν…”,motel,40000,0,λ„“μ€ μ£Όμ°¨μ¥.  μ¤λ‚µλ°” λ¬΄λ£μ΄μ©,μ¶©λ¶,μ²­μ£Ό / μ§„μ²,300000031,200000322,36.6321959,127.4856689
47,48,67060,μ²­μ£Ό μ•„λ¦¬μ•„ λ¬΄μΈν…”,λ¨ν…”,motel,40000,0,,μ¶©λ¶,μ²­μ£Ό / μ§„μ²,300000031,200000322,36.63331291194892,127.48580030974851
48,49,76072,μ§„μ²(μ¤μ°½) λ…ν’λ¬΄μΈνΈν…”,λ¨ν…”,motel,60000,0,,μ¶©λ¶,μ²­μ£Ό / μ§„μ²,300000031,200000322,36.7656725,127.44917540000006
49,50,79095,μ²­μ£Ό μ΄νƒλ¦¬νν¬,λ¨ν…”,motel,35000,0,,μ¶©λ¶,μ²­μ£Ό / μ§„μ²,300000031,200000322,36.5042304,127.4223128
50,51,79691,μ²­μ£Ό ν”„λ μΉμ½”λ“,λ¨ν…”,motel,50000,0,β… μ¤νƒ€μΌλ¬ μ „κ°μ‹¤ λ°°μΉ !! λ„·ν”λ¦­μ¤ μ„¤μΉμ™„λ£!!  β…,μ¶©λ¶,μ²­μ£Ό / μ§„μ²,300000031,200000322,36.65642718214523,127.48330823002469
51,52,87455,μ²­μ£Ό μ¤μ†΅ μ¤ν…μ΄ νΈν…”,λ¨ν…”,motel,90000,100000,,μ¶©λ¶,μ²­μ£Ό / μ§„μ²,300000031,200000322,36.62298109514269,127.32304804439592
52,53,69084,μ§„μ² μ•„ν¬λΌ,λ¨ν…”,motel,45000,40000,,μ¶©λ¶,μ²­μ£Ό / μ§„μ²,300000031,200000322,36.989523114,127.446027265
53,54,69815,μ²­μ£Ό λΈλΌμ΄λ„νΈ μ²­μ£Όν„°λ―Έλ„μ (μ•λ§νΈν…”),λ¨ν…”,motel,50000,0,β…μ „κ°μ‹¤ λ„·ν”λ¦­μ¤ μ‹μ²­ κ°€λ¥(νΈμκ°μ‹¤ μ μ™Έ)β…,μ¶©λ¶,μ²­μ£Ό / μ§„μ²,300000031,200000322,36.6288538,127.43022280000002
54,55,68306,μ²­μ£Ό λ¶λ¬Έλ΅ μ•„λ¨λ¥΄,λ¨ν…”,motel,35000,0,β€» μΌμ”μΌ νΉλ³„κ°€ μ΄λ²¤νΈ,μ¶©λ¶,μ²­μ£Ό / μ§„μ²,300000031,200000322,36.6384221,127.48942929999998
55,56,67106,μ²­μ£Ό JOY νΈν…”,λ¨ν…”,motel,50000,60000,β­2023 μ„¤ λ…μ  νΉκ°€ νΈμΊ‰μ¤ μ΄λ²¤νΈ μ§„ν–‰ β­,μ¶©λ¶,μ²­μ£Ό / μ§„μ²,300000031,200000322,36.6278552,127.4298702
56,57,94991,μ²­μ£Ό μ¥ν™”μμ—°λ‹΄μ€νμ…,νμ…,pension,80000,80000,,μ¶©λ¶,μ²­μ£Ό / μ§„μ²,300000031,200000322,36.6053112743263,127.696589046715
57,58,78015,μ²­μ£Ό λ¶λ¬Έλ΅ μƒΉλ³΄λ¥΄,λ¨ν…”,motel,35000,0,,μ¶©λ¶,μ²­μ£Ό / μ§„μ²,300000031,200000322,36.637516,127.4896139
58,59,81746,μ²­μ£Ό νΈν…” κ° (μ²­μ£Ό ν„°λ―Έλ„μ ),λ¨ν…”,motel,60000,65000,,μ¶©λ¶,μ²­μ£Ό / μ§„μ²,300000031,200000322,36.6291512,127.4260634
59,60,84159,μ²­μ£Ό ν•λ°”λ‚,λ¨ν…”,motel,33000,55000,,μ¶©λ¶,μ²­μ£Ό / μ§„μ²,300000031,200000322,36.63433921000837,127.45822455743084
60,61,82242,μ²­μ£Ό μ•„λ²¨λΌ νΈν…”,λ¨ν…”,motel,50000,75000,νΈν…” λ‚΄μ™Έλ¶€ λ°©μ—­ μ™„λ£,μ¶©λ¶,μ²­μ£Ό / μ§„μ²,300000031,200000322,36.625859048727506,127.43418973068692
61,62,95799,μ²­μ£Ό μ΄ν‹°μ„±ν’€λΉλΌ,νμ…,pension,0,0,,μ¶©λ¶,μ²­μ£Ό / μ§„μ²,300000031,200000322,36.6981244080059,127.605886683864
62,63,84946,μ²­μ£Ό μ¤μ°½ λ μ¤νΈ(REST)νΈν…”,λ¨ν…”,motel,85000,0,μ¤ν” κ· μΌκ°€ μ΄λ²¤νΈ,μ¶©λ¶,μ²­μ£Ό / μ§„μ²,300000031,200000322,36.69728079936732,127.42078267078364
63,64,75690,μ²­μ£Ό Leaders Hotel (λ¦¬λ”μ¤ νΈν…”),λ¨ν…”,motel,80000,0,"κ°μ‹¤μ—μ΄μ¤μΉ¨λ€,νƒ€μ…μ— λ”°λ¥Έ λ””μμΈ μ•μ‹¤,μ¤νƒ€μΌλ¬,νΈν…”μΉ΄ν&μ„Ένƒμ‹¤μ΄μ©",μ¶©λ¶,μ²­μ£Ό / μ§„μ²,300000031,200000322,36.6654135,127.45155879999993
64,65,68242,μ²­μ£Ό νΈν…” λ‚λ¬΄λλ³΄(λ‚΄λ•μ ),λ¨ν…”,motel,45000,0,,μ¶©λ¶,μ²­μ£Ό / μ§„μ²,300000031,200000322,36.6571977,127.48355400000003
65,66,82198,μ§„μ²(μ¤μ°½) G7 λ¬΄μΈνΈν…”,λ¨ν…”,motel,50000,50000,,μ¶©λ¶,μ²­μ£Ό / μ§„μ²,300000031,200000322,36.77432072963683,127.52003294358211
66,67,76522,μ²­μ£Ό μΉ΄λ„,λ¨ν…”,motel,43000,40000,"μ „κ°μ‹¤ - κ³µκΈ°μ²­μ •κΈ° + λ„·ν”λ¦­μ¤,λ””μ¦λ‹+  μ„¤μΉμ™„λ£",μ¶©λ¶,μ²­μ£Ό / μ§„μ²,300000031,200000322,36.6256983,127.43428779999999
67,69,67960,μ²­μ£Ό λ‚®μ΄λ°¤μ΄,λ¨ν…”,motel,35000,35000,β… κΉ”λ”ν• ν„λ€ ν•μ¥ μΈν…λ¦¬μ–΄ β… νΈν•κ³  μ•„λ‘ν• λ¶„μ„κΈ° β…,μ¶©λ¶,μ²­μ£Ό / μ§„μ²,300000031,200000322,36.6551696,127.4820677
68,70,69089,μ²­μ£Ό λ°μ§€ νΈν…” (BANJI HOTEL),λ¨ν…”,motel,45000,70000,2μΈ μ¤ν μ•μ΅°  μ•„λ΅λ§ μ…μ•μ  μ¦μ •!! 40λ€ μ΄μƒ μ£Όμ°¨μ¥ λ³΄μ !!,μ¶©λ¶,μ²­μ£Ό / μ§„μ²,300000031,200000322,36.628993,127.4266479
69,71,82353,μ§„μ² νΈν…” μ‹ν‹°,λ¨ν…”,motel,55000,0,λ‹¨μ²΄ κ³ κ°  νμμ‹¤ μ κ³µ,μ¶©λ¶,μ²­μ£Ό / μ§„μ²,300000031,200000322,36.96685929210337,127.437193040002
70,72,85542,μ§„μ² μƒµ,λ¨ν…”,motel,0,0,,μ¶©λ¶,μ²­μ£Ό / μ§„μ²,300000031,200000322,36.85667433580313,127.44431745385529
71,73,68023,μ²­μ£Ό μ©μ•”λ™ μΉ΄λ¦¬λΈ,λ¨ν…”,motel,40000,0,ν™”λν• λ€μ‹¤ μ΄λ²¤νΈ μ‹¤μ‹!!,μ¶©λ¶,μ²­μ£Ό / μ§„μ²,300000031,200000322,36.608573,127.50469099999998
72,74,93889,μ²­μ£Ό λΉμ„ΌνΈ νΈν…” μ¤μ†΅μ—­μ ,λ¨ν…”,motel,80000,0,,μ¶©λ¶,μ²­μ£Ό / μ§„μ²,300000031,200000322,36.62453717002264,127.32001077562944
73,75,68134,μ²­μ£Ό λ²…μ¤79,λ¨ν…”,motel,33500,0,,μ¶©λ¶,μ²­μ£Ό / μ§„μ²,300000031,200000322,36.63302294562709,127.48509643434859
74,76,76830,μ²­μ£Ό λ²¨λ¦¬λ…Έ,λ¨ν…”,motel,45000,80000,5μ„±κΈ‰ νΈν…”μ—μ„ μ‚¬μ©ν•λ” μ‹λ¬μ¤ μµκ³ κΈ‰ν• λ·°ν‹°λ μ¤νΈ ν”„λ¦¬λ―Έμ—„κΈ‰ μΉ¨λ€ μ‚¬μ©,μ¶©λ¶,μ²­μ£Ό / μ§„μ²,300000031,200000322,36.6241068,127.4335347
75,77,75185,μ²­μ£Ό YAM μ²­μ£Όν„°λ―Έλ„μ ,λ¨ν…”,motel,35000,35000,"μ „ κ°μ‹¤ λ„·ν”λ¦­μ¤, μ „κΈ°μ°¨ μ¶©μ „, ν‚¤μ¤μ¤ν¬",μ¶©λ¶,μ²­μ£Ό / μ§„μ²,300000031,200000322,36.6296855,127.43001939999999
76,78,82269,μ²­μ£Ό νΈν…” μΈ λ¨λ μ²­μ£Όν„°λ―Έλ„μ ,λ¨ν…”,motel,45000,0,β…'νΈν…”μΈ μΉ΄ν'κ°€ λ°μΉ­ν• ν”„λ¦¬λ―Έμ—„λΈλλ“'νΈν…”,μ¶©λ¶,μ²­μ£Ό / μ§„μ²,300000031,200000322,36.62635849232881,127.43523306823279
77,79,75996,μ²­μ£Ό μ¤ν…μ΄ νΈν…”,λ¨ν…”,motel,35000,0,"β μ „ν™”λ¬Έμ 043-254-5231 β…μ „ κ°μ‹¤ 65μΈμΉ μ‚Όμ„±μ¤λ§νΈTV, μ΄κ³ μ‚¬μ–‘PC, λ„·ν”λ¦­μ¤ μ‹μ²­β…",μ¶©λ¶,μ²­μ£Ό / μ§„μ²,300000031,200000322,36.634338,127.4847689
78,80,72876,μ²­μ£Ό μ„Έλ„λ‚,λ¨ν…”,motel,35000,45000,λ¬΄ν•λ€μ‹¤,μ¶©λ¶,μ²­μ£Ό / μ§„μ²,300000031,200000322,36.6096524,127.5033377
79,81,69091,μ²­μ£Ό λΉ„μ—”λ‚ λ¨ν…”,λ¨ν…”,motel,50000,32000,,μ¶©λ¶,μ²­μ£Ό / μ§„μ²,300000031,200000322,36.6448079,127.4630813
80,82,81175,μ²­μ£Ό λΈλΌμ΄λ„νΈ μ²­μ£Όμ‹μ²­μ ,λ¨ν…”,motel,35000,0,,μ¶©λ¶,μ²­μ£Ό / μ§„μ²,300000031,200000322,36.6395382,127.487894
81,84,82316,μ²­μ£Ό λ‚¨μ΄ G2 λ¬΄μΈν…”,λ¨ν…”,motel,50000,60000,β…κΉ”λ”ν•κ³  νΈλ¦¬ν• λ¬΄μΈ μ‹μ¤ν…β…,μ¶©λ¶,μ²­μ£Ό / μ§„μ²,300000031,200000322,36.553207349463364,127.42910946478273
82,85,74030,μ²­μ£Ό(λ¬Έμ) μΈ,λ¨ν…”,motel,33000,40000,,μ¶©λ¶,μ²­μ£Ό / μ§„μ²,300000031,200000322,36.5301897,127.5037665
83,86,72608,μ²­μ£Ό νΈν…” μ¤λ§νΈ,λ¨ν…”,motel,40000,0,,μ¶©λ¶,μ²­μ£Ό / μ§„μ²,300000031,200000322,36.6335287,127.4858536
84,87,87008,μ²­μ£Ό νΈν…” μ•„λ‹΄ν• μ¶©λ¶λ€μ ,λ¨ν…”,motel,40000,70000,"β¤οΈλ€μ‹¤5+1μΏ ν°/μµκ³ μ‚¬μ–‘PC/μ¤λ§νΈTV/λ€ν•μ£Όμ°¨μ¥/λΌλ©΄,μ¤λ‚µλ°” λ¬΄λ£μ κ³µβ¤οΈ",μ¶©λ¶,μ²­μ£Ό / μ§„μ²,300000031,200000322,36.63388426956274,127.4511191675689
85,88,86977,μ²­μ£Ό μ²κ²½λ€ν‚¤μ¦ν’€λΉλΌ,νμ…,pension,82770,89000,,μ¶©λ¶,μ²­μ£Ό / μ§„μ²,300000031,200000322,36.613417404622,127.701275746099
86,89,98104,λ‹¨μ–‘ λ§λ΅ λ―Όλ°•νμ…,νμ…,pension,0,0,,μ¶©λ¶,μ²­μ£Ό / μ§„μ²,300000031,200000322,37.0871578399554,128.49068142608
87,90,74704,μ²­μ£Ό(λ¬Έμ) μ¤μ•„μ‹μ¤,λ¨ν…”,motel,0,0,,μ¶©λ¶,μ²­μ£Ό / μ§„μ²,300000031,200000322,36.530032,127.5037219
88,91,92757,μ²­μ£Ό νμ¤νƒ€,λ¨ν…”,motel,40000,0,μ„ μ°©μ κ°μ‹¤ μ—…κ·Έλ μ΄λ“ μ΄λ²¤νΈ!,μ¶©λ¶,μ²­μ£Ό / μ§„μ²,300000031,200000322,36.6326448,127.48367029999997
89,92,83139,μ²­μ£Ό λ¦¬λ°”μ¥¬ νΈν…” (HOTEL RIVAGE),λ¨ν…”,motel,45000,55000,,μ¶©λ¶,μ²­μ£Ό / μ§„μ²,300000031,200000322,36.629165560572176,127.42993960758194
90,93,82699,μ²­μ£Ό νΈν…” λ΅μ•„ (HOTEL ROA),λ¨ν…”,motel,50000,0,EVENT,μ¶©λ¶,μ²­μ£Ό / μ§„μ²,300000031,200000322,36.60889927295863,127.50504569951566
91,94,70528,μ²­μ£Ό Boutique μ΄ν‹€ νΈν…” (ν•λ³µλ€μ ),λ¨ν…”,motel,49000,0,ν–‰μ΄μ λ£°λ › μ΄λ²¤νΈ!!,μ¶©λ¶,μ²­μ£Ό / μ§„μ²,300000031,200000322,36.6316662,127.4278127
92,95,76111,μ²­μ£Ό μ΄μ •μ•½μ S,λ¨ν…”,motel,40000,45000,β¨μ„ΈμΆ…λ€μ™• μ΄μ •ν–‰κ¶ λ„λ³΄ 10λ¶„ κ±°λ¦¬β¨,μ¶©λ¶,μ²­μ£Ό / μ§„μ²,300000031,200000322,36.7180666,127.60761980000007
93,96,70531,μ²­μ£Ό νΈν…” μ¤μ…,λ¨ν…”,motel,44000,64000,1.μ¤μ…νΈμΊ‰μ¤-λ§¥μ£Όor ν—λ‹λΈλ λ“λΉµ μ κ³µ,μ¶©λ¶,μ²­μ£Ό / μ§„μ²,300000031,200000322,36.6237691,127.4324292
94,97,67554,μ²­μ£Ό RUNνΈν…”,λ¨ν…”,motel,40000,60000,,μ¶©λ¶,μ²­μ£Ό / μ§„μ²,300000031,200000322,36.6286333,127.43020760000002
95,98,75313,μ²­μ£Ό μ†”λ λ£¨λ‚νμ…,νμ…,pension,150000,150000,,μ¶©λ¶,μ²­μ£Ό / μ§„μ²,300000031,200000322,36.6908908197,127.6330584153
96,99,75343,μ²­μ£Ό λ―Έλ‹νΈν…”,λ¨ν…”,motel,50000,120000,κ°μ‹¤μ•λ‚΄,μ¶©λ¶,μ²­μ£Ό / μ§„μ²,300000031,200000322,36.6307472,127.42865210000002
97,100,68219,μ²­μ£Ό λ¬΄μΈνΈν…” λ” λ°νΈ,λ¨ν…”,motel,37000,0,β£οΈλ‹ΉμΌνΉκ°€ EVETNT / μ• κ²¬λ™λ°β£οΈ μΏ ν°μ κ³µ,μ¶©λ¶,μ²­μ£Ό / μ§„μ²,300000031,200000322,36.6468983,127.4874587
98,101,85352,μ²­μ£Ό μ„ΌνΈλ΄ (CENTRAL HOTEL),λ¨ν…”,motel,45000,0,,μ¶©λ¶,μ²­μ£Ό / μ§„μ²,300000031,200000322,36.62945082169409,127.43105960823925
99,102,69069,μ§„μ² μ¤μ¦μλ§λ²•μ‚¬ λ¬΄μΈν…”,λ¨ν…”,motel,38000,0,1:1 λ“λΌμ΄λΈμΈμΌλ΅ λΉ„λ€λ©΄ μ…μ‹¤μ„ ν•΄λ³΄μ„Έμ”~,μ¶©λ¶,μ²­μ£Ό / μ§„μ²,300000031,200000322,36.9922342,127.43643020000002
100,103,78561,μ²­μ£Ό μ¤μ°½ λ„νΈ,λ¨ν…”,motel,0,0,β— λ―Έλ¦¬ μμ•½μ‹ μ „ν™” λ¬Έμ μ£Όμ„Έμ”.,μ¶©λ¶,μ²­μ£Ό / μ§„μ²,300000031,200000322,36.7142157,127.43980720000002
101,104,67219,μ²­μ£Ό μ¤μ°½ μƒ¤λ¥΄λ§,λ¨ν…”,motel,70000,0,μ „ κ°μ‹¤ λ¦¬λ¨λΈλ§ GRAND OPEN ν• μΈμ¤‘,μ¶©λ¶,μ²­μ£Ό / μ§„μ²,300000031,200000322,36.7164463,127.4311041
102,105,69062,μ²­μ£Ό λ²¤νΈν…” μ²­μ£Όλ€μ ,λ¨ν…”,motel,30000,0,"β…1+1νΉκ°€ν¨ν‚¤μ§€β…μ—°λ°•ν¨ν‚¤μ§€β…νΈμκ°μ‹¤β…λΉ„μ¦λ‹μ¤μ „μ©1μΈμ‹¤β…λΉ λ¥Έμ…μ‹¤/λ¦μ€ν‡΄μ‹¤β…λ¬΄ν•μ™λ°•/λ€μ‹¤β…μ „κ°μ‹¤ λ„·ν”λ¦­μ¤,μ νλΈ",μ¶©λ¶,μ²­μ£Ό / μ§„μ²,300000031,200000322,36.6463542,127.48710849999998
103,106,69063,μ²­μ£Ό μ¤μ°½ νΈν…” λ΄„,λ¨ν…”,motel,0,0,,μ¶©λ¶,μ²­μ£Ό / μ§„μ²,300000031,200000322,36.7124755,127.4315744
104,107,67328,μ²­μ£Ό μλ°”,λ¨ν…”,motel,35000,40000,β–¶ λ€μ‹¤ 3+1 μΏ ν° μ΄λ²¤νΈ!! μ½”λ΅λ‚ λ°©μ—­ μ‹¤μ‹μ¤‘!!,μ¶©λ¶,μ²­μ£Ό / μ§„μ²,300000031,200000322,36.6298541,127.4302046
105,108,73399,μ§„μ² λ£¨ νΈν…”,λ¨ν…”,motel,55000,0,,μ¶©λ¶,μ²­μ£Ό / μ§„μ²,300000031,200000322,36.9198503,127.48847469999998
106,109,68142,μ²­μ£Ό λ¶λ¬Έλ΅ ν† λ§ν† ,λ¨ν…”,motel,35000,0,"β…μ¤λ‚µλ°”, μ¦‰μ„ λΌλ©΄ μ κ³µβ…λ°°κ·Έ ν’€μµμ… κ°€λ¥(μ»¤ν”ν”Όμ”¨λ£Έ)β…ν…λΌμ¤ μ΄μ© κ°€λ¥β…λ„·ν”λ¦­μ¤ μ΄μ©κ°€λ¥β…",μ¶©λ¶,μ²­μ£Ό / μ§„μ²,300000031,200000322,36.638262,127.48808919999999
107,110,82937,μ§„μ²(μ¤μ°½) ν΄λΌλ¦¬μ¤ λ¬΄μΈν…”,λ¨ν…”,motel,50000,0,OPEN κΈ°λ… 18μ‹μ΄ν›„ ν• μΈν–‰μ‚¬!!!!,μ¶©λ¶,μ²­μ£Ό / μ§„μ²,300000031,200000322,36.77457992546329,127.5172567096963
108,111,73528,μ²­μ£Ό LUCE Business Hotel,λ¨ν…”,motel,40000,60000,β– μ „κ°μ‹¤ μ¤νƒ€μΌλ¬ μ™„λΉ„! β–  75μΈμΉ λ€ν•TV β–  νΈν…”μ‹ λ·”νβ– ,μ¶©λ¶,μ²­μ£Ό / μ§„μ²,300000031,200000322,36.6284423,127.4300552
109,112,69180,μ§„μ² λ‘λ°”μ΄,λ¨ν…”,motel,50000,0,,μ¶©λ¶,μ²­μ£Ό / μ§„μ²,300000031,200000322,36.8603794,127.44621099999995
110,113,85724,μ²­μ£Ό μκ¶ν•μ¥λ§μ„νμ…,νμ…,pension,250000,250000,,μ¶©λ¶,μ²­μ£Ό / μ§„μ²,300000031,200000322,36.7210219410506,127.543176375946
111,114,66714,μ²­μ£Ό μ¤μ°½ M+,λ¨ν…”,motel,0,0,"κΈ, ν† , μΌ νΉκ°€ μ΄λ²¤νΈ",μ¶©λ¶,μ²­μ£Ό / μ§„μ²,300000031,200000322,36.7138988,127.4391759
112,115,98494,μ²­μ£Ό λ” λ§ν¬ νΈν…” (THE MARK HOTEL),λ¨ν…”,motel,62000,0,,μ¶©λ¶,μ²­μ£Ό / μ§„μ²,300000031,200000322,36.6256069,127.4286297
113,116,69085,μ²­μ£Ό ν›„ λ¬΄μΈν…”,λ¨ν…”,motel,40000,40000,,μ¶©λ¶,μ²­μ£Ό / μ§„μ²,300000031,200000322,36.6563748,127.4816275
114,117,82184,μ²­μ£Ό μ¶©λ¶λ€ νƒ€μ„,λ¨ν…”,motel,40000,0,GRAND OPEN μ΄λ²¤νΈ μ§„ν–‰μ¤‘,μ¶©λ¶,μ²­μ£Ό / μ§„μ²,300000031,200000322,36.633864901792414,127.45073114977474
115,118,67887,μ²­μ£Ό κΏ€μ  PCνΈν…”,λ¨ν…”,motel,45000,50000,κΏ€μ κ³Ό μ‹ κ·κ²μ„ λ””μ•„λΈ”λ΅4λ¥Ό ν•¨κ»ν•μ„Έμ”~!,μ¶©λ¶,μ²­μ£Ό / μ§„μ²,300000031,200000322,36.6291797,127.4303492
116,119,68299,μ²­μ£Ό Z HOTEL(μ νΈνΈν…”),λ¨ν…”,motel,45000,0,β… μ½”λ΅λ‚ μ‚΄κ· ν¨κ³Ό μ…μ¦λ MD-125λ΅ λ°©μ—­μ†λ… β…,μ¶©λ¶,μ²­μ£Ό / μ§„μ²,300000031,200000322,36.6239921,127.43365500000004
117,121,72918,μ²­μ£Ό YAM μ¶©λ¶λ€μ ,λ¨ν…”,motel,40000,0,β΅μ²­μ£Ό μµλ‹¤λ¦¬λ·° μ™μ† λ¦¬λ·° λ§μ€ κ³³μ—” μ΄μ κ°€ μμµλ‹λ‹¤β΅,μ¶©λ¶,μ²­μ£Ό / μ§„μ²,300000031,200000322,36.6340617,127.45378419999997
118,122,72548,μ§„μ² μ¤ν…μ΄ λ¬΄μΈν…”,λ¨ν…”,motel,40000,0,β†μ£Όμ°¨κ°€λ¥β†,μ¶©λ¶,μ²­μ£Ό / μ§„μ²,300000031,200000322,36.8738615,127.4713819
119,123,67627,μ²­μ£Ό μ¤λ,λ¨ν…”,motel,33000,0,β… μ™λ°•κ³ κ° μ»µλΌλ©΄ μ κ³µ!! β…,μ¶©λ¶,μ²­μ£Ό / μ§„μ²,300000031,200000322,36.6328906,127.48411720000001
120,124,67001,μ²­μ£Ό μλ΅ HOTEL,λ¨ν…”,motel,50000,70000,λ£Έμ—…κ·Έλ μ΄λ“ Event !!! μ „ν™” λ¬Έμμ£Όμ„Έμ”~,μ¶©λ¶,μ²­μ£Ό / μ§„μ²,300000031,200000322,36.6240541,127.4333302
121,125,79149,μ²­μ£Ό νΈν…” μ†λΌ,λ¨ν…”,motel,45000,0,,μ¶©λ¶,μ²­μ£Ό / μ§„μ²,300000031,200000322,36.6042767,127.6229503
122,126,72923,μ²­μ£Ό K7 PCνΈν…”,λ¨ν…”,motel,40000,0,μ™λ°• EVENT,μ¶©λ¶,μ²­μ£Ό / μ§„μ²,300000031,200000322,36.6286781,127.42993209999997
123,127,92276,μ²­μ£Ό μ¤μ°½ μ§€μ¤‘ν•΄μ μ‘μ€λ§μ„,λ¨ν…”,motel,60000,0,β…μ§€μ¤‘ν•΄μ μ‘μ€λ§μ„ μ‹μ„¤ μ•λ‚΄β…,μ¶©λ¶,μ²­μ£Ό / μ§„μ²,300000031,200000322,36.713242582128665,127.43073319978012
124,128,72957,μ²­μ£Ό λ§λ¦¬ HOTEL,λ¨ν…”,motel,50000,65000,β¨μ¶μ¥κΈΈ λ”°λ»ν• λ°¥ν•λΌλ΅ λ“ λ“ ν• μ•„μΉ¨μ„ μ‹μ‘ν•μ„Έμ”!β¨μ „κ°μ‹¤κΈμ—°β¨,μ¶©λ¶,μ²­μ£Ό / μ§„μ²,300000031,200000322,36.6298475,127.42595970000002
125,129,77937,μ§„μ² ν‹°λ΅¤,λ¨ν…”,motel,42000,42000,,μ¶©λ¶,μ²­μ£Ό / μ§„μ²,300000031,200000322,36.9924548,127.4363836
126,130,79833,μ²­μ£Ό λ” & μ €μ¤νΈμ¤ν…μ΄ μ¶©λ¶λ€μ ,λ¨ν…”,motel,40000,0,ν‰μΌ λ€μ‹¤ 11μ‹μ΄μ „ μ…μ‹¤μ‹ 10μ‹κ°„/λ„·ν”λ¦­μ¤/λ°λ ›νν‚Ή/ν¬μΈνΈμ λ¦½/λ€μ‹¤5+1,μ¶©λ¶,μ²­μ£Ό / μ§„μ²,300000031,200000322,36.63441050691141,127.4609008918518
127,131,67856,μ²­μ£Ό(λ‚΄μ) μ½”μ½”,λ¨ν…”,motel,43000,40000,,μ¶©λ¶,μ²­μ£Ό / μ§„μ²,300000031,200000322,36.726217,127.5403581
128,132,69508,μ²­μ£Ό λ” μ  (The Zam),λ¨ν…”,motel,0,0,"β—λ€μ‹¤ , μ™λ°• μ„ μ°©μ μΏ ν° μ¦μ •β—",μ¶©λ¶,μ²­μ£Ό / μ§„μ²,300000031,200000322,36.6549568,127.4822567
129,133,74469,μ²­μ£Ό YAJA μ²­μ£Όμ„λ¬Έλ΅μ ,λ¨ν…”,motel,40000,0,"#μ „ κ°μ‹¤ λ„·ν”λ¦­μ¤ & OTT μν™” #μµκ³ κΈ‰λΌν…μ¤μΉ¨λ€ #λ―Έμ„±λ…„μμμ•½, μ¶μ…κΈμ§€",μ¶©λ¶,μ²­μ£Ό / μ§„μ²,300000031,200000322,36.633461,127.48545809999996
130,134,67991,μ²­μ£Ό SHOW νΈν…”,λ¨ν…”,motel,60000,0,,μ¶©λ¶,μ²­μ£Ό / μ§„μ²,300000031,200000322,36.6646831,127.49520910000001
131,135,69082,μ²­μ£Ό Hotel μ½”μ½” PC Cafe,λ¨ν…”,motel,40000,0,β€»μ΄μ©μ•λ‚΄ μ™Έκ΄€μƒμΌλ΅λ” λ―Έμ„±λ…„μμ™€ μ„±μΈμ„ νΉμ •μ§€μ„ μ μ—†μ–΄ λ¶€λ“μ΄ν•κ² μ‹ λ¶„μ¦ ν™•μΈμ„ μ§„ν–‰ν•©λ‹λ‹¤ β€»,μ¶©λ¶,μ²­μ£Ό / μ§„μ²,300000031,200000322,36.630135236,127.42879414899994
132,136,69061,μ²­μ£Ό YA&JA PC μ¶©λ¶λ€μ ,λ¨ν…”,motel,40000,0,λ¬΄ν•λ€μ‹¤μ¤μ „10μ‹μ…μ‹¤μµλ€11μ‹κ°„μ™λ°•μµλ€25μ‹κ°„,μ¶©λ¶,μ²­μ£Ό / μ§„μ²,300000031,200000322,36.6340617,127.45378419999997
133,137,77610,μ²­μ£Ό λΉ„μ§€λ‹μ¤ νΈν…” JA,λ¨ν…”,motel,40000,0,λ¬΄ν•λ€μ‹¤μ¤μ „10μ‹μ…μ‹¤μµλ€12μ‹κ°„μ™λ°•μµλ€25μ‹κ°„,μ¶©λ¶,μ²­μ£Ό / μ§„μ²,300000031,200000322,36.6340414,127.45393280000008
134,138,68322,μ²­μ£Ό νΈν…” λ¦°,λ¨ν…”,motel,35000,55000,β…λ€μ‹¤ 24μ‹κ°„ μ•Όκ°„λ€μ‹¤ κ°€λ¥ ν•©λ‹λ‹¤!β…,μ¶©λ¶,μ²­μ£Ό / μ§„μ²,300000031,200000322,36.6256044,127.43436799999995
135,139,69616,μ²­μ£Ό ν¬μ‹μ¦,λ¨ν…”,motel,0,0,,μ¶©λ¶,μ²­μ£Ό / μ§„μ²,300000031,200000322,36.6369993,127.48064529999999
136,140,67541,μ²­μ£Ό YAJA μ²­μ£Όν„°λ―Έλ„μ ,λ¨ν…”,motel,45000,0,β­ μ• κ²¬λ™λ° κ°€λ¥ β­,μ¶©λ¶,μ²­μ£Ό / μ§„μ²,300000031,200000322,36.6236884,127.43287080000005
137,141,69066,μ²­μ£Ό νΈν…” ν΄λμ‹,λ¨ν…”,motel,39000,39000,μΏ ν°μ¤‘λ³µν• μΈ!μ „κ°μ‹¤μ „κΈ°μ¥ν~κ²μ„PC+λ€μ‹¤24μ‹,μ¶©λ¶,μ²­μ£Ό / μ§„μ²,300000031,200000322,36.625818911,127.43448482500003
138,142,69071,μ§„μ² 2S,λ¨ν…”,motel,50000,0,*μ›λ‘μ»¤ν”Ό/λΌν…μ¤μΉ¨λ€/μ•μ΅°/λ°°κ·Έκ°€λ¥ PC/μ„Ένƒκ°€λ¥*,μ¶©λ¶,μ²­μ£Ό / μ§„μ²,300000031,200000322,36.9930053,127.43656599999997
139,143,86293,μ²­μ£Ό νΈν…” νλ¥΄μ†λ‚,λ¨ν…”,motel,50000,65000,GRAND OPEN 22λ…„ 4μ›” μ¤ν”,μ¶©λ¶,μ²­μ£Ό / μ§„μ²,300000031,200000322,36.63076248058222,127.42918089341478
140,144,82355,μ²­μ£Ό NU(μ—”μ ) & μ΄ν‹€ PC μ¶©λ¶λ€μ ,λ¨ν…”,motel,40000,0,β¤οΈμ‹ μ¶•/λ¦¬λ¨λΈλ§ OPENβ¤οΈ,μ¶©λ¶,μ²­μ£Ό / μ§„μ²,300000031,200000322,36.63414627446044,127.4550751459408
141,145,69230,μ²­μ£Ό νΈν…” 2855.st,λ¨ν…”,motel,65000,75000,"μ „κ°μ‹¤ NETFLIX κ°€λ¥, μ¤λ‚µλ°”μ΄μ",μ¶©λ¶,μ²­μ£Ό / μ§„μ²,300000031,200000322,36.6308808,127.4289654
142,146,75796,μ²­μ£Ό μ™€,λ¨ν…”,motel,30000,40000,,μ¶©λ¶,μ²­μ£Ό / μ§„μ²,300000031,200000322,36.6576359,127.48285499999997
143,147,69073,μ²­μ£Ό ν’€ν•μ°μ¤ μ¨λ‰λ‚΄λ•μ ,λ¨ν…”,motel,30000,0,β¤μ»µλΌλ©΄ λ¬΄λ£μ κ³µ! λ„·ν”λ¦­μ¤μ΄μ©κ°€λ¥β¤,μ¶©λ¶,μ²­μ£Ό / μ§„μ²,300000031,200000322,36.6628845,127.49267359999999
144,148,67629,μ²­μ£Ό νΈν…” λ³Έ,λ¨ν…”,motel,45000,0,β— λ­μ…”λ¦¬ νΈν…” λ³Έ GRAND OPEN β…μ¤ν”νΉκ°€μ¤‘β…,μ¶©λ¶,μ²­μ£Ό / μ§„μ²,300000031,200000322,36.6475472,127.4872605
145,149,81458,μ²­μ£Ό μ¤μ°½ μ΅°μ•„νΈν…”,λ¨ν…”,motel,78000,84000,,μ¶©λ¶,μ²­μ£Ό / μ§„μ²,300000031,200000322,36.7150087,127.4276608
146,150,94331,μ²­μ£Ό λΈ”λ£¨μ¤ν† λ¦¬1νμ…,νμ…,pension,0,0,,μ¶©λ¶,μ²­μ£Ό / μ§„μ²,300000031,200000322,36.690784552632,127.632198330183
147,151,82142,μ²­μ£Ό λ„λ²„25 μ²­μ£Ό μ„±μ•κΈΈμ ,λ¨ν…”,motel,33000,0,β…μ¤λ‚µλ°”&λ½€κΈ€μ΄ μ κ³µ μµκ³ μ‚¬μ–‘ μ»¤ν”PC λ³΄μ β…,μ¶©λ¶,μ²­μ£Ό / μ§„μ²,300000031,200000322,36.630709311612556,127.48865873316947
148,152,72332,μ²­μ£Ό K λ…ν’λ¬΄μΈν…” λ“λΌμ΄λΈμΈ,λ¨ν…”,motel,50000,50000,β…μ…κµ¬λ¶€ν„° λ‚¨λ‹¤λ¥Έ Kλ§μ λ…ν’ μΈν…λ¦¬μ–΄β…,μ¶©λ¶,μ²­μ£Ό / μ§„μ²,300000031,200000322,36.6313797,127.4858685
149,153,67833,μ§„μ² ν°λ¦¬μ¤,λ¨ν…”,motel,0,0,μ¥κΈ° μ™λ°•μ„ μ„ν• μ„ΈνƒκΈ°λ° κ±΄μ΅°κΈ°λ¥Ό λ³΄μ ν•μ—¬ ν•„μ”μ‹  λ°”λ΅ μ…μ„μ μκ² κ±΄μ΅°κΈ° μ‚¬μ©λ„ κ°€λ¥ν•©λ‹λ‹¤,μ¶©λ¶,μ²­μ£Ό / μ§„μ²,300000031,200000322,36.9903951,127.445967
150,154,67064,μ²­μ£Ό μ²­μ› κ¶,λ¨ν…”,motel,35000,0,,μ¶©λ¶,μ²­μ£Ό / μ§„μ²,300000031,200000322,36.5456839,127.42990459999999
151,155,67851,μ§„μ² μ†ν’μ§ λ¬΄μΈν…”,λ¨ν…”,motel,49000,0,μµλ€ κ°€μ„±λΉ„ 1:1λ¬΄μΈν…”,μ¶©λ¶,μ²­μ£Ό / μ§„μ²,300000031,200000322,36.8973095,127.49313699999993
152,156,67756,μ²­μ£Ό ν•΄λ“ λ‚λ νΈν…”,λ¨ν…”,motel,0,0,β…κ³ κ°λ“¤μ„ μ„ν• μ„λΉ„μ¤β…,μ¶©λ¶,μ²­μ£Ό / μ§„μ²,300000031,200000322,36.6234576,127.4326474
153,157,76288,μ²­μ£Ό ν¬λ¦¬μ¤νƒ,λ¨ν…”,motel,33000,33000,β…λ€μ‹¤ μ†λ‹μ—κ² μ»¤ν”Ό2μ”+ν¬λ£¨μ™€μƒλΉµ2κ° μ κ³µβ…,μ¶©λ¶,μ²­μ£Ό / μ§„μ²,300000031,200000322,36.6561716,127.48410960000001
154,158,85529,μ²­μ£Ό λ™λ³΄μ›μμ—°ν΄μ–‘λ¦Όνμ…,νμ…,pension,200000,200000,,μ¶©λ¶,μ²­μ£Ό / μ§„μ²,300000031,200000322,36.6586825371993,127.700573139456
155,159,77278,"μ²­μ£Ό μ¶”μ •κ³¨ν΄μ–‘μ§€νμ…(MT,μ›ν¬μƒµ)",νμ…,pension,90000,90000,,μ¶©λ¶,μ²­μ£Ό / μ§„μ²,300000031,200000322,36.60330937,127.62275704
156,160,98090,μ²­μ£Ό μ‹ λ°λ λΌ,λ¨ν…”,motel,40000,40000,,μ¶©λ¶,μ²­μ£Ό / μ§„μ²,300000031,200000322,36.54264790501543,127.42971789148267
157,161,69064,μ§„μ² μ•„μΌλλ“ λ¬΄μΈν…”,λ¨ν…”,motel,0,0,,μ¶©λ¶,μ²­μ£Ό / μ§„μ²,300000031,200000322,36.8874786,127.4410234
158,162,68213,μ²­μ£Ό λ®¤μ¦,λ¨ν…”,motel,40000,35000,,μ¶©λ¶,μ²­μ£Ό / μ§„μ²,300000031,200000322,36.6315535,127.42786660000002
159,163,84190,μ²­μ£Ό νΈν…” μ΄μ•Ό(HOTEL IYA) μ¶©λ¶λ€μ ,λ¨ν…”,motel,35000,50000,,μ¶©λ¶,μ²­μ£Ό / μ§„μ²,300000031,200000322,36.63412579570335,127.4548041839391
160,164,81280,μ²­μ£Ό μ©μ•”λ™ ν¬μ ,λ¨ν…”,motel,30000,0,"β™¥λ°°κ·Έ,λ΅¤ 1PC 2PC 3PC κ³ λ°κΈ° κµ¬λΉ„β™¥",μ¶©λ¶,μ²­μ£Ό / μ§„μ²,300000031,200000322,36.6086118,127.5024448
161,165,91079,μ²­μ£Ό λ”ν΄μ‹ μ•„λ‘νΈν…” μ°μ•”1νΈμ ,λ¨ν…”,motel,45000,0,"β™¥λ°λ ¤κ²¬μ„ μ‚¬λ‘ν•μ‹λ” κ³ κ°λ‹λ“¤ μ„ν• νΉλ³„ μ΄λ²¤νΈ!, ν«λ£Έ λ¬Έμ ν™μβ™¥",μ¶©λ¶,μ²­μ£Ό / μ§„μ²,300000031,200000322,36.6467175,127.4874677
162,166,73855,μ²­μ£Ό μΉ΄μΉ΄μ¤,λ¨ν…”,motel,40000,40000,β… μ²­μ£Όλ€ μΈκ·Ό κ°€μ¥ μΆ‹μ€ μ™μ†β…,μ¶©λ¶,μ²­μ£Ό / μ§„μ²,300000031,200000322,36.6567773,127.4810393
163,167,68078,μ²­μ£Ό λ‰΄λ°λ¦¬,λ¨ν…”,motel,35000,40000,"β€» λ€μ‹¤, μ™λ°• μ΄μ©μ‹ μµλ€ 10,000P μ λ¦½ μ΄λ²¤νΈ",μ¶©λ¶,μ²­μ£Ό / μ§„μ²,300000031,200000322,36.6574129,127.48287159999995
164,168,78686,μ²­μ£Ό μμλ¨ν…”,λ¨ν…”,motel,30000,0,,μ¶©λ¶,μ²­μ£Ό / μ§„μ²,300000031,200000322,36.6078419,127.50323779999997
165,169,66787,μ²­μ£Ό λ‚λ¬΄λλ³΄ νΈν…”(μ©μ•”μ ),λ¨ν…”,motel,40000,0,,μ¶©λ¶,μ²­μ£Ό / μ§„μ²,300000031,200000322,36.6088252,127.5044317
166,170,69267,μ²­μ£Ό ν‚Ή,λ¨ν…”,motel,33000,38000,β™¥μ €ν¬ ν‚Ήμ„ λ°©λ¬Έν•΄μ£Όμ…”μ„ κ°μ‚¬ν•©λ‹λ‹¤β™¥,μ¶©λ¶,μ²­μ£Ό / μ§„μ²,300000031,200000322,36.657572,127.4839242
167,171,69263,μ²­μ£Ό μ„νλ¦¬μ–Ό,λ¨ν…”,motel,30000,45000,,μ¶©λ¶,μ²­μ£Ό / μ§„μ²,300000031,200000322,36.6100627,127.50329510000006
168,172,99428,λ”ν΄μ‹ μ•„λ‘νΈν…” μ²­μ£Όμ°μ•” 1νΈμ ,νΈν…”,hotel,50000,50000,,μ¶©λ¶,μ²­μ£Ό / μ§„μ²,300000031,200000322,36.64669929562305,127.48744512490342
169,173,79157,μ²­μ£Ό νƒλ¦Όλ¨ν…”,λ¨ν…”,motel,40000,0,,μ¶©λ¶,μ²­μ£Ό / μ§„μ²,300000031,200000322,36.6235846,127.3712682
170,174,98050,μ§„μ² μ•„λ‘ν›Όμ¤νμ…,νμ…,pension,0,0,,μ¶©λ¶,μ²­μ£Ό / μ§„μ²,300000031,200000322,36.9371151732892,127.406365123162
171,175,94605,μ²­μ£Ό λ§μνμ…,νμ…,pension,250000,250000,,μ¶©λ¶,μ²­μ£Ό / μ§„μ²,300000031,200000322,36.6038157617425,127.695047209831
172,176,85545,μ²­μ£Ό λ””μ¤λ„¤,λ¨ν…”,motel,40000,0,,μ¶©λ¶,μ²­μ£Ό / μ§„μ²,300000031,200000322,36.62394652697624,127.43294505866493
173,177,75683,μ²­μ£Ό μ²­λ‚¨λ€ν’€λΉλΌ,νμ…,pension,260000,260000,,μ¶©λ¶,μ²­μ£Ό / μ§„μ²,300000031,200000322,36.5250981,127.4839222
174,178,98272,μ²­μ£Ό λ―Όλ“¤λ λ―Έμ½”νμ…,νμ…,pension,160000,160000,,μ¶©λ¶,μ²­μ£Ό / μ§„μ²,300000031,200000322,36.6908442788689,127.634150318212
175,179,80924,μ§„μ² νΈν…” μ¬λ¦Όν”Όμ•„,λ¨ν…”,motel,0,0,μ „ κ°μ‹¤ WIFI λ¬΄λ£μ‚¬μ© κ°€λ¥ν•©λ‹λ‹¤.,μ¶©λ¶,μ²­μ£Ό / μ§„μ²,300000031,200000322,36.9884158,127.4464087
176,180,67910,μ²­μ£Ό λ¶λ¬Έλ΅ νƒ€μ„,λ¨ν…”,motel,35000,35000,β…μ΄μ©ν›„κΈ° μ΄λ²¤νΈβ…,μ¶©λ¶,μ²­μ£Ό / μ§„μ²,300000031,200000322,36.639219,127.48764249999999
177,181,67580,μ²­μ£Ό λ² λ¥΄μ‚¬μ²΄,λ¨ν…”,motel,35000,35000,"λ³΄μ€ λ°°μ¶”μ¶•μ  μ°¨λ‰15λ¶„, μΈκ·Ό λ©”λ°€κ½ƒ μ¶•μ  μ§„ν–‰ 3km κ±°λ¦¬",μ¶©λ¶,μ²­μ£Ό / μ§„μ²,300000031,200000322,36.6039038,127.6225944
178,182,87967,μ²­μ£Ό λ”μ¤μ°½νΈκΈ€λ¨ν•‘,νμ…,pension,190000,190000,,μ¶©λ¶,μ²­μ£Ό / μ§„μ²,300000031,200000322,36.7516400159954,127.41514161975
179,183,68089,μ§„μ² G7,λ¨ν…”,motel,50000,0,,μ¶©λ¶,μ²­μ£Ό / μ§„μ²,300000031,200000322,36.9896844,127.4464772
180,184,97782,μ²­μ£Ό λ£¨λΉ„λ…Έ,λ¨ν…”,motel,50000,0,μ£Όμ°¨μ¥ μ •λ³΄,μ¶©λ¶,μ²­μ£Ό / μ§„μ²,300000031,200000322,36.631468,127.4286525
181,185,88148,μ§„μ² μ΄λ£Έμ¤ν…μ΄,λ¨ν…”,motel,40000,0,,μ¶©λ¶,μ²­μ£Ό / μ§„μ²,300000031,200000322,36.859972650497475,127.4460446002245
182,186,67498,μ²­μ£Ό ν΄λ μ¤ννΈλΌ λ¬΄μΈν…”,λ¨ν…”,motel,40000,45000,,μ¶©λ¶,μ²­μ£Ό / μ§„μ²,300000031,200000322,36.5762357,127.5741802
183,187,94189,μ²­μ£Ό μ¶©μ²­ν’‹μ‚΄κ³µμ›νμ…,νμ…,pension,250000,250000,,μ¶©λ¶,μ²­μ£Ό / μ§„μ²,300000031,200000322,36.6323474283898,127.358861424065
184,188,83970,μ§„μ² λ‰΄ λ½λΈ”λ‘,λ¨ν…”,motel,40000,40000,β¨μΌλ°μ‹¤ 1μ‹¤1μ£Όμ°¨ / νΉμ‹¤ 1μ‹¤ 2μ£Όμ°¨β¨,μ¶©λ¶,μ²­μ£Ό / μ§„μ²,300000031,200000322,36.826710666726086,127.38951305308093
185,189,80753,μ²­μ£Ό λ―Έλ¥΄,λ¨ν…”,motel,0,0,,μ¶©λ¶,μ²­μ£Ό / μ§„μ²,300000031,200000322,36.621055606,127.487032814
186,190,95859,μ²­μ£Ό ν•λλ¦¬μ΅°νΈ,νμ…,pension,100000,100000,,μ¶©λ¶,μ²­μ£Ό / μ§„μ²,300000031,200000322,36.6052596257804,127.695480633087
187,191,73916,μ²­μ£Ό λΉ…ν† λ¦¬,λ¨ν…”,motel,35000,40000,β…μ£Όμ°¨μ¥ μ‹μ„¤ μ™„λΉ„β…,μ¶©λ¶,μ²­μ£Ό / μ§„μ²,300000031,200000322,36.6079504,127.50315920000003
188,192,84315,μ²­μ£Ό μ„ΈμΆ…λ¨ν…”,λ¨ν…”,motel,40000,35000,,μ¶©λ¶,μ²­μ£Ό / μ§„μ²,300000031,200000322,36.54537145311761,127.43003017378255
189,193,78655,κ΄‘νμ› μΈ λ¬΄μΈν…”,λ¨ν…”,motel,50000,45000,,μ¶©λ¶,μ²­μ£Ό / μ§„μ²,300000031,200000322,36.992751,127.43670500000007
190,194,98749,μ²­μ£Ό ν•μ¥μ¤ν…μ΄ μ—°,νμ…,pension,490000,700000,,μ¶©λ¶,μ²­μ£Ό / μ§„μ²,300000031,200000322,36.7346233005294,127.40506662755
191,195,97862,μ²­μ£Ό ν¬λ νμ¤νμ…,νμ…,pension,130000,130000,,μ¶©λ¶,μ²­μ£Ό / μ§„μ²,300000031,200000322,36.6077945473342,127.696179719017
192,196,87888,μ²­μ£Ό ν λ¦¬μ²΄,λ¨ν…”,motel,0,0,,μ¶©λ¶,μ²­μ£Ό / μ§„μ²,300000031,200000322,36.52864525441684,127.42988468620382
193,197,80747,μ²­μ£Ό νΈν…” λ£¨μΉ΄,λ¨ν…”,motel,45000,0,λ„“κ³  μΎμ ν• λ°©μΌλ΅ λ¨μ‹κ² μµλ‹λ‹¤,μ¶©λ¶,μ²­μ£Ό / μ§„μ²,300000031,200000322,36.6081018,127.50366880000001
194,198,75632,μ²­μ£Ό μ—κ·Έλ¦°,λ¨ν…”,motel,40000,40000,,μ¶©λ¶,μ²­μ£Ό / μ§„μ²,300000031,200000322,36.632961,127.4833107
195,199,72398,μ²­μ£Ό ν‹°μ¤ν…μ΄λ―Έλ‹νΈν…”,λ¨ν…”,motel,0,0,,μ¶©λ¶,μ²­μ£Ό / μ§„μ²,300000031,200000322,36.6574443,127.4870577
196,200,72945,μ²­μ£Ό μ¤νλΌ,λ¨ν…”,motel,0,0,β…μµλ€ 10 μ‹κ°„ λ¬΄ν• λ€μ‹¤ μ΄λ²¤νΈ μ§„ν–‰μ¤‘ ! β…,μ¶©λ¶,μ²­μ£Ό / μ§„μ²,300000031,200000322,36.6313205,127.483806
197,201,66900,μ²­μ£Ό μ—λ²„κ·Έλ¦°,λ¨ν…”,motel,0,0,"μ „κ°μ‹¤ μ¤λ§νΈ TV, WIFI, KTμ¬λ  νΈν…” μν™”κ΄€ μ„¤μΉ !",μ¶©λ¶,μ²­μ£Ό / μ§„μ²,300000031,200000322,36.6352541,127.4489668
198,202,67434,μ²­μ£Ό M μ‹λ„¤λ§,λ¨ν…”,motel,40000,40000,,μ¶©λ¶,μ²­μ£Ό / μ§„μ²,300000031,200000322,36.6313986,127.42846940000004
199,203,84527,μ²­μ£Ό RG λ¨ν…”,λ¨ν…”,motel,40000,40000,,μ¶©λ¶,μ²­μ£Ό / μ§„μ²,300000031,200000322,36.71226191181819,127.606825885438
200,204,94612,μ²­μ£Ό μ¤λ μ§€νμ…,νμ…,pension,0,0,,μ¶©λ¶,μ²­μ£Ό / μ§„μ²,300000031,200000322,36.6056358927254,127.69558046688
201,205,97600,μ§„μ² λ‹¬κ³Όν•΄νμ…,νμ…,pension,350000,350000,,μ¶©λ¶,μ²­μ£Ό / μ§„μ²,300000031,200000322,36.8846407534334,127.37904589091
202,206,93662,μ²­μ£Ό ν•μ¥μ†”μ†”νμ…,νμ…,pension,350000,350000,,μ¶©λ¶,μ²­μ£Ό / μ§„μ²,300000031,200000322,36.7350502746577,127.404714863471
203,207,98222,μ²­μ£Ό λΌν‚¨νƒ€νμ…,νμ…,pension,120000,120000,,μ¶©λ¶,μ²­μ£Ό / μ§„μ²,300000031,200000322,36.6101614753149,127.756321181522
204,208,98777,μ²­μ£Ό μ΄μ •μ¤νν΄νμ…,νμ…,pension,0,0,,μ¶©λ¶,μ²­μ£Ό / μ§„μ²,300000031,200000322,36.7236923957519,127.606077167651
205,209,69339,μ§„μ² μ΄ν λ¬΄μΈν…”,λ¨ν…”,motel,0,0,,μ¶©λ¶,μ²­μ£Ό / μ§„μ²,300000031,200000322,36.8879152,127.4408903
206,210,99658,λ”ν΄μ‹ μ•„λ‘νΈν…” μ²­μ£Όμ°μ•” 2νΈμ ,νΈν…”,hotel,60000,70000,,μ¶©λ¶,μ²­μ£Ό / μ§„μ²,300000031,200000322,36.64540344544033,127.48667655249376
207,211,88220,μ²­μ£Ό μ‹¤ν¬λ΅λ“,λ¨ν…”,motel,40000,40000,,μ¶©λ¶,μ²­μ£Ό / μ§„μ²,300000031,200000322,36.53082957570379,127.5038898218861
208,212,85298,μ²­μ£Ό λ§λ¨μ¤,λ¨ν…”,motel,0,0,,μ¶©λ¶,μ²­μ£Ό / μ§„μ²,300000031,200000322,36.644512974837404,127.4628745021269
209,213,85593,μ²­μ£Ό μ²­μ›κµ¬ λ΅μ–„λ¨ν…”,λ¨ν…”,motel,40000,40000,,μ¶©λ¶,μ²­μ£Ό / μ§„μ²,300000031,200000322,36.712561872408074,127.6062880954011
210,214,78718,μ§„μ² κ³¤λ‹¬λΉ„νμ…,νμ…,pension,350000,350000,,μ¶©λ¶,μ²­μ£Ό / μ§„μ²,300000031,200000322,36.8791046,127.3980242
211,215,93352,μ²­μ£Ό μ¥ν™”λ€μ¤ν† λ¦¬νμ…,νμ…,pension,100000,100000,,μ¶©λ¶,μ²­μ£Ό / μ§„μ²,300000031,200000322,36.6062320263259,127.694491939562
212,216,87788,μ§„μ² κΈ°μ–µμ„κ±·λ‹¤1νμ…,νμ…,pension,550000,550000,,μ¶©λ¶,μ²­μ£Ό / μ§„μ²,300000031,200000322,36.981902352471,127.444108529636
213,217,87957,μ²­μ£Ό ν† λ§μ¤μΊ ν”„&λ λ“μΊλΉκΈ€λ¨ν•‘,νμ…,pension,138000,138000,,μ¶©λ¶,μ²­μ£Ό / μ§„μ²,300000031,200000322,36.6271411225445,127.641012587238
214,218,75830,μ²­μ£Ό μ‹μ• νΈν…”,νΈν…”,hotel,50000,60000,,μ¶©λ¶,μ²­μ£Ό / μ§„μ²,300000031,200000322,36.623574,127.432525
215,219,67497,μ§„μ² S,λ¨ν…”,motel,0,0,ν€μμ‹μ„¤,μ¶©λ¶,μ²­μ£Ό / μ§„μ²,300000031,200000322,36.9897791,127.4460903
216,220,69067,μ²­μ£Ό κµΏνƒ€μ„λ¨ν…”,λ¨ν…”,motel,0,0,043-272-2800,μ¶©λ¶,μ²­μ£Ό / μ§„μ²,300000031,200000322,36.6362597,127.480092
217,221,83479,μ²­μ£Ό μ¤μ°½ λ¨ν…” μ§,λ¨ν…”,motel,50000,40000,κΈν† μΌ μ΄λ²¤νΈ,μ¶©λ¶,μ²­μ£Ό / μ§„μ²,300000031,200000322,36.76757475870375,127.50195270851498
218,222,74280,μ²­μ£Ό λ‚¨μ΄ λ‘λ°”μ΄,λ¨ν…”,motel,0,0,μ „ κ°μ‹¤ λ¬΄λ£ WIFI μ„¤μΉ,μ¶©λ¶,μ²­μ£Ό / μ§„μ²,300000031,200000322,36.5514711,127.4301195
219,223,76501,μ²­μ£Ό μ§€μ¤‘ν•΄,λ¨ν…”,motel,33000,0,,μ¶©λ¶,μ²­μ£Ό / μ§„μ²,300000031,200000322,36.63035232297622,127.48996426190183
220,224,87887,μ²­μ£Ό μ¤μ†΅,λ¨ν…”,motel,0,0,,μ¶©λ¶,μ²­μ£Ό / μ§„μ²,300000031,200000322,36.63836390294751,127.28446480986071
221,225,87756,μ§„μ² κΈ°μ–µμ„κ±·λ‹¤2νμ…,νμ…,pension,600000,600000,,μ¶©λ¶,μ²­μ£Ό / μ§„μ²,300000031,200000322,36.98203469837,127.444090429526
222,226,87759,μ§„μ² κΈ°μ–µμ„κ±·λ‹¤3νμ…,νμ…,pension,600000,600000,,μ¶©λ¶,μ²­μ£Ό / μ§„μ²,300000031,200000322,36.9821470571613,127.444067832808
223,227,88701,μ²­μ£Ό λ³΄νƒκ°€μ¤ν…μ΄ν’€λΉλΌ,νμ…,pension,570000,570000,,μ¶©λ¶,μ²­μ£Ό / μ§„μ²,300000031,200000322,36.6105190811461,127.563677026753
224,228,88998,μ²­μ£Ό μ¥ν™”9κ²½λ‹¬μ²νμ…,νμ…,pension,135000,135000,,μ¶©λ¶,μ²­μ£Ό / μ§„μ²,300000031,200000322,36.6048263000561,127.695337481466
225,229,95938,μ²­μ£Ό μ²­ν‰μ„Έκ³„νμ¤ν…μ΄νμ…,νμ…,pension,180000,180000,,μ¶©λ¶,μ²­μ£Ό / μ§„μ²,300000031,200000322,36.6999190626955,127.680573671053
226,0,97986,μ μ² λ„λ²„25 μ μ²ν™”μ‚°μ ,λ¨ν…”,motel,0,0,"β¤οΈμ¤λ‚µλ°”,λ„·ν”λ¦­μ¤,μ„ΈνƒκΈ°, κ±΄μ΅°κΈ° λ‹¤μ–‘ν• μ„λΉ„μ¤ λ¬΄λ£β¤οΈ",μ¶©λ¶,μ μ² / μ¶©μ£Ό,300000031,200000323,37.12683477186412,128.21696216384638
227,1,74389,μ²­ν’λ¦¬μ΅°νΈ,4μ„±κΈ‰,resort,157600,157600,,μ¶©λ¶,μ μ² / μ¶©μ£Ό,300000031,200000323,37.016469,128.180445
228,2,92197,ν΄λ½μ΄μ—μ¤μ μ²λ¦¬μ΅°νΈ,λ¦¬μ΅°νΈ,resort,157000,157000,,μ¶©λ¶,μ μ² / μ¶©μ£Ό,300000031,200000323,36.988278245660084,128.1942285540638
229,3,70049,μΌ„μ‹±ν„΄λ¦¬μ΅°νΈ μ¶©μ£Ό,λ¦¬μ΅°νΈ,resort,89900,89900,,μ¶©λ¶,μ μ² / μ¶©μ£Ό,300000031,200000323,37.101801,127.796292
230,4,84309,μμ•λ³΄ μ¤ννΈν…”,νΈν…”,hotel,100000,100000,,μ¶©λ¶,μ μ² / μ¶©μ£Ό,300000031,200000323,36.845725,127.98783
231,5,97999,μ μ² λ¦¬μ† ν¬λ μ¤νΈ&λ μ¤νΈλ¦¬,νΈν…”,hotel,271870,271870,,μ¶©λ¶,μ μ² / μ¶©μ£Ό,300000031,200000323,37.1568394922983,128.04589349474276
232,6,99896,μ¶©μ£Ό μμ•λ³΄ μ¨μ²νλ§νΈν…”,νΈν…”,hotel,90000,90000,,μ¶©λ¶,μ μ² / μ¶©μ£Ό,300000031,200000323,36.847585044267284,127.99137422866775
233,7,97594,μ μ² ν•μ΄λ“νΈν…”,νΈν…”,hotel,100000,100000,,μ¶©λ¶,μ μ² / μ¶©μ£Ό,300000031,200000323,37.131373545635455,128.2068081669689
234,8,84158,μμ•λ³΄μƒλ΅νΈν…”,νΈν…”,hotel,0,0,,μ¶©λ¶,μ μ² / μ¶©μ£Ό,300000031,200000323,36.847555,127.988464
235,9,93890,μ¶©μ£Ό μ΄λ“ ν¬λ  νΈν…”,νΈν…”,hotel,80000,180000,,μ¶©λ¶,μ μ² / μ¶©μ£Ό,300000031,200000323,37.090327535837986,127.7994043614649
236,10,73163,λΌλ§λ‹¤ μμ•λ³΄(Ramada Suanbo),νΈν…”,hotel,111440,111440,,μ¶©λ¶,μ μ² / μ¶©μ£Ό,300000031,200000323,36.845687,127.993964
237,11,88132,μ μ² μ„μΈ κ΄€κ΄‘νΈν…”,νΈν…”,hotel,90000,90000,,μ¶©λ¶,μ μ² / μ¶©μ£Ό,300000031,200000323,37.137626,128.208734
238,12,97970,ν”„λ΅¬μ—μ΄μΉ μ–΄λ°”μ›ƒ μ¶©μ£Όμ‹μ²­μ ,νΈν…”,hotel,70000,70000,,μ¶©λ¶,μ μ² / μ¶©μ£Ό,300000031,200000323,36.98842421408917,127.92892813104895
239,13,73142,μμ•λ³΄ νν¬ νΈν…”,νΈν…”,hotel,114000,114000,,μ¶©λ¶,μ μ² / μ¶©μ£Ό,300000031,200000323,36.84399,127.980735
240,14,84250,μ¶©μ£Ό μ–΄λ°λΈλΌμ΄νΈν…”(μ¶©μ£Όμ‹μ²­μ ),λ¨ν…”,motel,70000,0,β” ν• μ‚¬λμ„ μ„ν•΄ μ—΄ μ‚¬λμ΄ λ‹¬λΌλ¶™λ” νΈν…”,μ¶©λ¶,μ μ² / μ¶©μ£Ό,300000031,200000323,36.98926460907932,127.9289671345755
241,15,89361,μ¶©μ£Ό λΈλΌμ΄λ„νΈ μ‹μ²­μ ,λ¨ν…”,motel,95000,0,,μ¶©λ¶,μ μ² / μ¶©μ£Ό,300000031,200000323,36.98825296823095,127.92888530345957
242,16,91870,μ¶©μ£Ό λ§λ¦¬ νΈν…” μ¶©μ£Όμ—­μ ,λ¨ν…”,motel,50000,60000,"π’™μ „κ°μ‹¤ λ„·ν”λ¦­μ¤,ν‹°λΉ™ μ‹μ²­κ°€λ¥π’™",μ¶©λ¶,μ μ² / μ¶©μ£Ό,300000031,200000323,36.9729316,127.91719650000005
243,17,79126,μ¶©μ£Ό νΈν…” λ΅λ“,λ¨ν…”,motel,90000,85000,,μ¶©λ¶,μ μ² / μ¶©μ£Ό,300000031,200000323,37.00271966284243,127.83153391865017
244,18,86465,μ¶©μ£Ό λ£¨μ—  νΈν…” μ¶©μ£Όμ—­μ ,λ¨ν…”,motel,45000,0,"β¤οΈGRAND OPEN ν• μΈμ΄λ²¤νΈ!! β¤οΈλΉ„μ§€λ‹μ¤ κ³ κ° μ°λ€ ,μ „κΈ°μ°¨ μ¶©μ „κΈ° μ„¤μΉ,λΉ„μ§€λ‹μ¤νΈν…”,μ΅°μ‹λ¬΄λ£",μ¶©λ¶,μ μ² / μ¶©μ£Ό,300000031,200000323,36.9744370912278,127.90992358094196
245,19,87850,μ μ² J&B(μ μ΄μ•¤λΉ„)λ¬΄μΈν…”,λ¨ν…”,motel,50000,70000,,μ¶©λ¶,μ μ² / μ¶©μ£Ό,300000031,200000323,37.18389430300814,128.21925100317483
246,20,92005,μ μ² λ” μ›”(THE WALL) νΈν…” μ μ²μ ,λ¨ν…”,motel,45000,45000,,μ¶©λ¶,μ μ² / μ¶©μ£Ό,300000031,200000323,37.13892081112894,128.20957935809602
247,21,83514,μ μ² λ‹¬λΉ›ν’κ²½νμ…,νμ…,pension,100000,100000,,μ¶©λ¶,μ μ² / μ¶©μ£Ό,300000031,200000323,36.8792272827585,128.079443731201
248,22,87591,μ¶©μ£Ό λ°λνν¬,λ¨ν…”,motel,33000,30000,,μ¶©λ¶,μ μ² / μ¶©μ£Ό,300000031,200000323,36.97307598372169,127.91456452179021
249,23,73858,μ μ² μ›”μ•…λ“¤κµ­ν™”νμ…,νμ…,pension,100000,100000,,μ¶©λ¶,μ μ² / μ¶©μ£Ό,300000031,200000323,36.8679592925,128.1550005353
250,24,70824,μ μ² ν”„λ΅λ°©μ¤νμ…(μ›”μ•…μ‚° μ†΅κ³„κ³„κ³΅),νμ…,pension,70000,70000,,μ¶©λ¶,μ μ² / μ¶©μ£Ό,300000031,200000323,36.8763280154,128.0814884991
251,25,73364,μ¶©μ£Ό μ†”λ‚΄μν•μ¥νμ…,νμ…,pension,400000,400000,,μ¶©λ¶,μ μ² / μ¶©μ£Ό,300000031,200000323,37.1483299922422,127.885308308068
252,26,88977,μ μ² μ²­ν’λ€κµνμ…,νμ…,pension,100000,100000,,μ¶©λ¶,μ μ² / μ¶©μ£Ό,300000031,200000323,37.0012474655856,128.176895785895
253,27,69097,μ¶©μ£Ό μ¤λ”§μ„Έμ΄,λ¨ν…”,motel,50000,0,,μ¶©λ¶,μ μ² / μ¶©μ£Ό,300000031,200000323,36.972757961,127.916812063
254,28,83163,μ¶©μ£Ό κ°•λ³€μν•λ£¨νμ…,νμ…,pension,250000,250000,,μ¶©λ¶,μ μ² / μ¶©μ£Ό,300000031,200000323,37.1202813458018,127.799935672691
255,29,74488,μ¶©μ£Ό λ°μ΄μ•ΌκΈ°νμ…,νμ…,pension,150000,150000,,μ¶©λ¶,μ μ² / μ¶©μ£Ό,300000031,200000323,37.0567549065,127.8292866147
256,30,72851,μ μ² λ² λ„¤μΉμ•„νμ…,νμ…,pension,100000,100000,,μ¶©λ¶,μ μ² / μ¶©μ£Ό,300000031,200000323,36.8764971355,128.0811230055
257,32,75418,μ μ² μ‘μ€μ²κµ­νμ…,νμ…,pension,0,0,,μ¶©λ¶,μ μ² / μ¶©μ£Ό,300000031,200000323,37.0102430828,128.2118706893
258,33,69906,μ¶©μ£Ό μ¶©μ£ΌνΈλ°νμ…,νμ…,pension,140000,140000,,μ¶©λ¶,μ μ² / μ¶©μ£Ό,300000031,200000323,36.9669916977076,128.010742282283
259,34,86106,μ¶©μ£Ό λ™ν–‰νΈν…”,λ¨ν…”,motel,50000,0,π’μ›°μ»΄ ν”½μ—… μ„λΉ„μ¤π’,μ¶©λ¶,μ μ² / μ¶©μ£Ό,300000031,200000323,36.97361663681374,127.91358117535319
260,35,80444,μ μ² μ›”μ•…μ‚°νλ§νμ…,νμ…,pension,300000,300000,,μ¶©λ¶,μ μ² / μ¶©μ£Ό,300000031,200000323,36.8782372689545,128.079208279262
261,36,83060,μ μ² μλ°”λ¬΄μΈν…”,λ¨ν…”,motel,60000,90000,"PC,μ¤νƒ€μΌλ¬,κ³µκΈ°μ²­μ •κΈ°,λ„·ν”λ¦­μ¤,μ „μλ μΈμ§€",μ¶©λ¶,μ μ² / μ¶©μ£Ό,300000031,200000323,37.1533660366198,128.15270433254284
262,37,82032,μ¶©μ£Ό λΈλΌμ΄λ„νΈ μ¶©μ£Όμ—­μ ,λ¨ν…”,motel,60000,0,β¤μ „κΈ°μ°¨μ¶©μ „κΈ°μ„¤μΉβ¤β¤λ…Έλλ°© λ¬΄λ£β¤λ„·ν”λ¦­μ¤ λ¬΄λ£β¤μ¤μΉ΄μ΄λΌμ΄μ§€ λ¬΄λ£(μμ΄κΈ€λ€μ—¬μ λ£),μ¶©λ¶,μ μ² / μ¶©μ£Ό,300000031,200000323,36.974924746197345,127.91023994594646
263,38,78955,μ¶©μ£Ό λ‚­λ§μ¤μΌ€μΉνμ… (μ¶©μ£ΌνΈλ·°),νμ…,pension,162000,180000,,μ¶©λ¶,μ μ² / μ¶©μ£Ό,300000031,200000323,36.987993868022734,127.9957168671412
264,39,79516,μ¶©μ£Ό λλ―Έμ•λ,λ¨ν…”,motel,40000,0,μ²­μ¶ λΉ¨λλ°© λ¦¬λ·° μ΄λ²¤νΈ,μ¶©λ¶,μ μ² / μ¶©μ£Ό,300000031,200000323,37.0255234,127.919878
265,40,82424,μ μ² J5νμ…(μ μ΄μ¤νμ…),νμ…,pension,0,0,,μ¶©λ¶,μ μ² / μ¶©μ£Ό,300000031,200000323,36.9717085650834,128.231352875954
266,41,78895,μ¶©μ£Ό μƒµ λ¬΄μΈν…”,λ¨ν…”,motel,43000,0,,μ¶©λ¶,μ μ² / μ¶©μ£Ό,300000031,200000323,36.9743043,127.91245140000001
267,42,73177,μ μ² M λ¨ν…”,λ¨ν…”,motel,50000,50000,β…λΉ„ν΅μ—° κ°μ‹¤λ§ μμ•½μ„ λ°›κ³  μμµλ‹λ‹¤.β…,μ¶©λ¶,μ μ² / μ¶©μ£Ό,300000031,200000323,37.1267148,128.2165557
268,43,76623,μ¶©μ£Ό μ™€λ³΄λΌνμ…,νμ…,pension,120000,120000,,μ¶©λ¶,μ μ² / μ¶©μ£Ό,300000031,200000323,37.0314812,128.0500945
269,44,85488,μ μ² λΈλΌμ΄λ„νΈ μ μ²μ—­μ ,λ¨ν…”,motel,90000,0,1μΈ μ¶μ¥(λΉ„μ§€λ‹μ¤)κ³ κ°λ‹λ“¤ 1λ§μ› ν• μΈ ν–‰μ‚¬,μ¶©λ¶,μ μ² / μ¶©μ£Ό,300000031,200000323,37.1364810570262,128.2060851332567
270,45,76457,μ¶©μ£Ό μ¶©μ£ΌνΈλ°νλ§νμ…,νμ…,pension,0,0,,μ¶©λ¶,μ μ² / μ¶©μ£Ό,300000031,200000323,36.9669341377551,128.01196729330152
271,46,78370,μ¶©μ£Ό μ¶©μ£ΌνΈμλ§μ„νμ…,νμ…,pension,0,0,,μ¶©λ¶,μ μ² / μ¶©μ£Ό,300000031,200000323,36.9883272754699,127.995617763805
272,47,82532,μ μ² μΉ΄λΌλ°λ”κ·Έλ¦°μ—”μ¤ν† μΊ ν•‘μ¥νμ…,νμ…,pension,0,0,,μ¶©λ¶,μ μ² / μ¶©μ£Ό,300000031,200000323,37.143169557129,128.060438787958
273,48,75093,μ¶©μ£Ό νΈν…”λ§λ£¨ μ¶©μ£Όμ—­μ ,λ¨ν…”,motel,50000,0,,μ¶©λ¶,μ μ² / μ¶©μ£Ό,300000031,200000323,36.9743981,127.9114911
274,49,84819,μ μ² μν23ν’€λΉλΌ,νμ…,pension,176000,220000,,μ¶©λ¶,μ μ² / μ¶©μ£Ό,300000031,200000323,36.9708936732693,128.228822547033
275,50,86810,μ¶©μ£Ό νΈν…” ν”„λ΅¬μ—μ΄μΉ μ–΄λ°”μ›ƒ μ¶©μ£Όμ‹μ²­μ ,λ¨ν…”,motel,60000,0,β­μ΅°μ‹ μ•λ‚΄λ¬Έ  λΉ„μ§€λ‹μ¤μ΅°μ‹PKGκµ¬λ§¤μ‹ 1μΈμ΅°μ‹μ‹μ‚¬κ¶ μ κ³µβ­,μ¶©λ¶,μ μ² / μ¶©μ£Ό,300000031,200000323,36.98842421408917,127.92892813104895
276,51,80994,μ¶©μ£Ό λ¨λκ·Έλ μ΄ νΈν…”,λ¨ν…”,motel,50000,50000,ν‰μΌ μ¤ν…λ‹¤λ“λ£Έ κ°€κ²© ν• μΈ μ΄λ²¤νΈ!!,μ¶©λ¶,μ μ² / μ¶©μ£Ό,300000031,200000323,36.9738295,127.9136222
277,52,76458,μ¶©μ£Ό λΌμ΄νΈν…”,λ¨ν…”,motel,55000,55000,2021λ…„ 10μ›” 8μΌ μµκ³ κΈ‰ PC μ„¤μΉ,μ¶©λ¶,μ μ² / μ¶©μ£Ό,300000031,200000323,36.9877404,127.92668030000004
278,53,85292,μ μ² μ μ²λ¬΄μΈν…”(1λ€1 Drive-in),λ¨ν…”,motel,55000,88000,,μ¶©λ¶,μ μ² / μ¶©μ£Ό,300000031,200000323,37.18356802112301,128.2181985727292
279,54,83137,μ¶©μ£Ό YAJA μ¶©μ£Όμ—­μ ,λ¨ν…”,motel,60000,0,βΏ μ¶©μ£Ό YAJA (μ¶©μ£Όμ—­μ ) μ¶”μ–µμ λ½‘κΈ° μ΄λ²¤νΈ βΏ,μ¶©λ¶,μ μ² / μ¶©μ£Ό,300000031,200000323,36.97454916708466,127.91191757045435
280,55,74642,μ¶©μ£Ό λ©”μ΄,λ¨ν…”,motel,50000,50000,β€» μ¥κΈ°ν¬μ™κ° ν™μ(λ‹¬λ°©κ°€λ¥) β€»,μ¶©λ¶,μ μ² / μ¶©μ£Ό,300000031,200000323,36.9761558,127.80978679999998
281,56,69072,μ¶©μ£Ό λ‚ν΄λ¦¬,λ¨ν…”,motel,45000,45000,μ‹ μ¶• GRAND OPEN,μ¶©λ¶,μ μ² / μ¶©μ£Ό,300000031,200000323,36.973563523,127.91613928200002
282,57,77279,μ¶©μ£Ό μ„±μ‚°νμ…,νμ…,pension,0,0,,μ¶©λ¶,μ μ² / μ¶©μ£Ό,300000031,200000323,37.008701,128.04423116
283,58,99835,μ¶©μ£Ό(μμ•λ³΄) μ¨μ²νλ§νΈν…”,λ¨ν…”,motel,70000,75000,,μ¶©λ¶,μ μ² / μ¶©μ£Ό,300000031,200000323,36.847585044267284,127.99137422866775
284,59,86079,μ μ² λ§λ§νμ…,νμ…,pension,120000,120000,,μ¶©λ¶,μ μ² / μ¶©μ£Ό,300000031,200000323,36.8817929539272,128.077785358231
285,60,73809,μ μ² μΌ€μ΄μ¤νΈν…” μ μ²μ ,λ¨ν…”,motel,60000,70000,β΅ suite κ²μ„λ°©μ— λ°°κ·Έκ°€λ¥ μ΄νΉκΈ‰ κ³ μ‚¬μ–‘ PCκ°€ ?! β΅,μ¶©λ¶,μ μ² / μ¶©μ£Ό,300000031,200000323,37.1300736,128.20455449999997
286,61,78129,μ¶©μ£Ό νλΈ,λ¨ν…”,motel,0,0,μ‹ μ¶• μ¤ν” λ§μ΄ νΉκ°€ ν• μΈ ν–‰μ‚¬μ¤‘μ…λ‹λ‹¤.,μ¶©λ¶,μ μ² / μ¶©μ£Ό,300000031,200000323,36.9759122,127.91145329999995
287,62,89884,μ¶©μ£Ό νΈν…” μ λ‘ μ¶©μ£Όμ‹μ²­μ ,λ¨ν…”,motel,55000,0,β¤μ²­κ²°μ„ μ μΌ μ°μ„  μ‹ ν•λ” νΈν…”β¤(μ „κ°μ‹¤ κ²μ„λ£Έ),μ¶©λ¶,μ μ² / μ¶©μ£Ό,300000031,200000323,36.98843080038807,127.9309145954253
288,63,98083,μ μ² μ°ΈμΆ‹μ€κΈ€λ¨ν•‘,νμ…,pension,120000,150000,,μ¶©λ¶,μ μ² / μ¶©μ£Ό,300000031,200000323,37.1814456002136,128.081104881669
289,64,69076,μ¶©μ£Ό ν€Έ,λ¨ν…”,motel,40000,0,λ„·ν”λ¦­μ¤ μ΄μ© κ°€λ¥!!,μ¶©λ¶,μ μ² / μ¶©μ£Ό,300000031,200000323,36.9688044,127.9338909
290,65,70841,μ μ² νλ§νμ…,νμ…,pension,0,0,,μ¶©λ¶,μ μ² / μ¶©μ£Ό,300000031,200000323,37.1657911969,128.1087423607
291,66,80186,μ¶©μ£Ό ν•λμ•„λμ²μ†νμ…,νμ…,pension,150000,150000,,μ¶©λ¶,μ μ² / μ¶©μ£Ό,300000031,200000323,37.1480961382687,127.917000253886
292,67,85317,μ μ² νΈμμΌμ¶μ¤ννμ…,νμ…,pension,150000,150000,,μ¶©λ¶,μ μ² / μ¶©μ£Ό,300000031,200000323,36.9826062324726,128.118768401025
293,68,79835,μ μ² ν•™ν„νλ§νμ…,νμ…,pension,80000,80000,,μ¶©λ¶,μ μ² / μ¶©μ£Ό,300000031,200000323,37.0110237194346,128.217400004557
294,69,83055,μ μ² μ¤ν…μ΄201 νΈν…”,λ¨ν…”,motel,80000,0,β… μ „ κ°μ‹¤ λ¦¬λ‰΄μ–Ό μ¤ν”β…,μ¶©λ¶,μ μ² / μ¶©μ£Ό,300000031,200000323,37.13009521638299,128.20847098534898
295,70,67535,μ¶©μ£Ό μ• ν” νΈν…”,λ¨ν…”,motel,45000,0,λ„·ν”λ¦­μ¤ .νΈμ•”μ²΄μ΅κ΄€ κ±΄κµ­λ€ν•™κµ. μ‹λ‚΄μ¤‘μ‹¬κ°€,μ¶©λ¶,μ μ² / μ¶©μ£Ό,300000031,200000323,36.9677759,127.93425890000003
296,71,75007,μ μ² λ”νμΈννμ…,νμ…,pension,150000,150000,,μ¶©λ¶,μ μ² / μ¶©μ£Ό,300000031,200000323,36.9735355822,128.2297098488
297,72,69023,μ μ² λ·°νΈν…”,λ¨ν…”,motel,70000,70000,μ „κ°μ‹¤ μΉν™κ²½ λ²½μ§€ λ¦¬λ¨λΈλ§ μ™„λ£,μ¶©λ¶,μ μ² / μ¶©μ£Ό,300000031,200000323,37.1289343,128.2077131
298,73,72826,μ μ² κ³„κ³΅ν’μ€νμ…,νμ…,pension,80000,80000,,μ¶©λ¶,μ μ² / μ¶©μ£Ό,300000031,200000323,37.1660023515,128.1085157736
299,74,74342,μ μ² λ””ν¬μ–΄μ¤μΊ ν”„ν΄λ½,νμ…,pension,189000,189000,,μ¶©λ¶,μ μ² / μ¶©μ£Ό,300000031,200000323,37.0103058365956,128.154573288679
300,75,80022,μ μ² μΊ£μΈ  νΈν…”,λ¨ν…”,motel,50000,70000,λ„·ν”λ¦­μ¤ μ„¤μΉλ΅ λ‹¤μ–‘ν• μν™”μ‹μ²­μ΄ κ°€λ¥ν•©λ‹λ‹¤.,μ¶©λ¶,μ μ² / μ¶©μ£Ό,300000031,200000323,37.1266945,128.2172961
301,76,81562,"μ μ² ν΄λΌμ°λ“νμ…(μ‹ μ¶•,μ²­ν’νΈμΌ€μ΄λΈ”μΉ΄)",νμ…,pension,0,0,,μ¶©λ¶,μ μ² / μ¶©μ£Ό,300000031,200000323,36.9408075111165,128.158870619967
302,77,71846,μ¶©μ£Ό νλ‚ν…μ¤ν’€λΉλΌ,νμ…,pension,0,0,,μ¶©λ¶,μ μ² / μ¶©μ£Ό,300000031,200000323,37.0340607,128.0543801
303,78,85013,μ μ² ν•λ£¨,λ¨ν…”,motel,50000,50000,μ¶μ¥κ³ κ°λ‹ ν‰μΌμ™λ°•λ£ λ§μ¶¤ μ„λΉ„μ¤,μ¶©λ¶,μ μ² / μ¶©μ£Ό,300000031,200000323,37.093717043148466,128.2008489527885
304,79,68401,μ¶©μ£Ό ν† λ΅ ν†  νΈν…”,λ¨ν…”,motel,40000,45000,β¤οΈμ „ κ°μ‹¤ λ„·ν”λ¦­μ¤ λ””μ¦λ‹+ μ ν¬λΈ μ‹μ²­ κ°€λ¥ μ„Έμ¤μ½” λ©¤λ²„μ¤β¤οΈ,μ¶©λ¶,μ μ² / μ¶©μ£Ό,300000031,200000323,36.9756232,127.9107123
305,80,73646,μ¶©μ£Ό 4κ³„μ ,λ¨ν…”,motel,45000,0,β…VOD μµμ‹ μν™”β…,μ¶©λ¶,μ μ² / μ¶©μ£Ό,300000031,200000323,36.9640805,127.85440819999997
306,81,72314,μ¶©μ£Ό the 10μ›”(Drive in Hotel),λ¨ν…”,motel,50000,0,"β…λ‹¤μ–‘ν• κ°„μ‹ , μ μ² κ³ΌμΌ, μ–‘λ§λ¥Ό μ κ³µν•κ³  μμµλ‹λ‹¤ ^_^β…",μ¶©λ¶,μ μ² / μ¶©μ£Ό,300000031,200000323,36.9627718,127.8501387
307,82,87435,μ μ² λ“λΌλ§ν™©ν† νμ…,νμ…,pension,80000,80000,,μ¶©λ¶,μ μ² / μ¶©μ£Ό,300000031,200000323,37.241460971356,128.200652257846
308,83,75170,μ μ² κ±°κΈ° λ¬΄μΈν…” (1λ€1 Drive-In),λ¨ν…”,motel,50000,0,λ°μΉ΄νƒμ§€κΈ° λ³΄μ  μ—…μ²΄λ΅ μ£ΌκΈ°μ μΌλ΅ λ°μΉ΄νƒμ§€λ¥Ό μ§„ν–‰μ¤‘μ…λ‹λ‹¤.(λ°μΉ΄ zero),μ¶©λ¶,μ μ² / μ¶©μ£Ό,300000031,200000323,37.2001936,128.2448909
309,84,69016,μ μ² μΈ,λ¨ν…”,motel,40000,40000,,μ¶©λ¶,μ μ² / μ¶©μ£Ό,300000031,200000323,37.1406127,128.21071619999998
310,85,69068,μ¶©μ£Ό ν”Όμ•„λ…Έ λ¨ν…”,λ¨ν…”,motel,40000,40000,μ¶©μ£Όμ—­ κ·Όμ² μ‹μ„¤λ€λΉ„ κ°€μ¥ μ €λ ΄ν• κ°μ‹¤!,μ¶©λ¶,μ μ² / μ¶©μ£Ό,300000031,200000323,36.973629238,127.91392693
311,86,79970,μ¶©μ£Ό μ”¨μ—655 λ¬΄μΈν…”,λ¨ν…”,motel,50000,50000,,μ¶©λ¶,μ μ² / μ¶©μ£Ό,300000031,200000323,37.0260484,127.9193402
312,87,88328,μ μ² ν•μ΄λ“ μ μ²μ—­,λ¨ν…”,motel,80000,0,,μ¶©λ¶,μ μ² / μ¶©μ£Ό,300000031,200000323,37.131373545635455,128.2068081669689
313,88,87285,μ¶©μ£Ό μ¤‘μ•™νƒ‘νμ…,νμ…,pension,160000,160000,,μ¶©λ¶,μ μ² / μ¶©μ£Ό,300000031,200000323,37.0076109439858,127.86596101211
314,89,93990,μ μ² μ²­ν’μ›”λ“λ‹μ¤κΈ€λ¨ν•‘,νμ…,pension,99000,99000,,μ¶©λ¶,μ μ² / μ¶©μ£Ό,300000031,200000323,37.010805116126,128.187596121907
315,90,77271,μ μ² λ―Έμ†κ°€λ“ νμ…,νμ…,pension,100000,100000,,μ¶©λ¶,μ μ² / μ¶©μ£Ό,300000031,200000323,37.170981006617836,128.1156547563198
316,91,67686,μ¶©μ£Ό(μμ•λ³΄) μ¨μ² μ νΈν…”,λ¨ν…”,motel,40000,0,μ „ κ°μ‹¤ μ²μ—°μ¨μ²μ μ κ³µλ©λ‹λ‹¤.,μ¶©λ¶,μ μ² / μ¶©μ£Ό,300000031,200000323,36.845434,127.9916112
317,92,73311,μ¶©μ£Ό νΈν…” κ°€μ„,λ¨ν…”,motel,50000,0,,μ¶©λ¶,μ μ² / μ¶©μ£Ό,300000031,200000323,36.9757299,127.911192
318,93,75108,μ μ² λ“λ¦Όλ μ΄ν¬νμ…,νμ…,pension,160000,160000,,μ¶©λ¶,μ μ² / μ¶©μ£Ό,300000031,200000323,37.0206503033666,128.16837880582
319,94,86986,μ¶©μ£Ό(μμ•λ³΄) ν¨λ°€λ¦¬μ¤νν…”,λ¨ν…”,motel,0,0,,μ¶©λ¶,μ μ² / μ¶©μ£Ό,300000031,200000323,36.84664943813688,127.98964554739656
320,95,84673,μ μ² μμ¤λ¨ν…”,λ¨ν…”,motel,35000,0,,μ¶©λ¶,μ μ² / μ¶©μ£Ό,300000031,200000323,37.13124827055794,128.2052885443365
321,96,67728,μ μ² μ–΄λ°λΈλΌμ΄ νΈν…”,λ¨ν…”,motel,80000,80000,,μ¶©λ¶,μ μ² / μ¶©μ£Ό,300000031,200000323,37.1267781,128.2163375
322,97,70630,μ μ² λΈ”λ£¨λ°λ°μ΄μ¦νμ…,νμ…,pension,0,0,,μ¶©λ¶,μ μ² / μ¶©μ£Ό,300000031,200000323,37.032177,128.1780566
323,98,88455,μ¶©μ£Ό μ¤ν…μ΄μ…λ΅μ§€,λ¨ν…”,motel,40000,50000,β… GRAND κ·Έλλ“ OPENING μ¤ν”„λ‹ EVENT μ΄λ²¤νΈ β…,μ¶©λ¶,μ μ² / μ¶©μ£Ό,300000031,200000323,36.97568979152804,127.91141280555071
324,99,97617,μ¶©μ£Ό ν«νΈλ¦¬νν¬κΈ€λ¨ν•‘,νμ…,pension,77000,110000,,μ¶©λ¶,μ μ² / μ¶©μ£Ό,300000031,200000323,37.1028496738982,127.710250099381
325,100,88162,μ¶©μ£Ό ν†µλ‚λ¬΄2νμ…,νμ…,pension,0,0,,μ¶©λ¶,μ μ² / μ¶©μ£Ό,300000031,200000323,37.0452232188014,127.762923136548
326,101,80743,μ μ² μ„νλ¦¬μ–Όλ¨ν…”,λ¨ν…”,motel,0,0,,μ¶©λ¶,μ μ² / μ¶©μ£Ό,300000031,200000323,37.139937849,128.212095062
327,102,79475,μ¶©μ£Ό λ” λ°,λ¨ν…”,motel,65000,0,λ§¤μ›” λ² μ¤νΈ ν›„κΈ° μ΄λ²¤νΈ,μ¶©λ¶,μ μ² / μ¶©μ£Ό,300000031,200000323,36.9911266,127.8168014
328,103,66851,μ¶©μ£Ό λ ‰μ‹,λ¨ν…”,motel,42000,0,,μ¶©λ¶,μ μ² / μ¶©μ£Ό,300000031,200000323,36.9760134,127.91125549999992
329,104,83463,μ¶©μ£Ό λ°λ¦¬,λ¨ν…”,motel,44000,0,β…κΉ¨λ—ν• μΉ¨κµ¬μ™€ μ„λΉ„μ¤ μ κ³µβ…μμ „κ±° λ³΄κ΄€ μ¥μ†μ κ³µ,μ¶©λ¶,μ μ² / μ¶©μ£Ό,300000031,200000323,37.02536220027619,127.91971563381074
330,105,78604,μ¶©μ£Ό μΉ΄λ¬,λ¨ν…”,motel,60000,65000,,μ¶©λ¶,μ μ² / μ¶©μ£Ό,300000031,200000323,36.9988535,127.84171300000003
331,106,74329,μ μ² μ²­ν’λ°λ¦¬νΈν…”,λ¨ν…”,motel,50000,0,β…μ£Όλ³€ κ΄€κ΄‘μ½”μ¤ ν• μΈκ¶ μ κ³µ,μ¶©λ¶,μ μ² / μ¶©μ£Ό,300000031,200000323,37.0287143,128.1760043
332,107,86011,μ μ² μ •λ―Όλ°•,νμ…,pension,600000,600000,,μ¶©λ¶,μ μ² / μ¶©μ£Ό,300000031,200000323,37.1768338307999,128.085139508553
333,108,82327,μ μ² λ² λ‹μ¤,λ¨ν…”,motel,35000,0,μ¥κΈ°λ°© λ¬Έμλ” μ „ν™”λ¬Έμ λ¶€νƒλ“λ¦½λ‹λ‹¤.,μ¶©λ¶,μ μ² / μ¶©μ£Ό,300000031,200000323,37.12822678435461,128.2066892659816
334,109,74401,μ¶©μ£Ό μ›”μƒ339νμ…,νμ…,pension,60000,60000,,μ¶©λ¶,μ μ² / μ¶©μ£Ό,300000031,200000323,37.0393949524,127.8678845531
335,110,84104,μ¶©μ£Ό(μμ•λ³΄) μ¤ννΈν…”,λ¨ν…”,motel,100000,0,,μ¶©λ¶,μ μ² / μ¶©μ£Ό,300000031,200000323,36.84575198880025,127.98781204743047
336,111,75200,μ μ² νΈλ°λ΅ν•μ°μ¤λ…μ±„νμ…,νμ…,pension,140000,140000,,μ¶©λ¶,μ μ² / μ¶©μ£Ό,300000031,200000323,37.0272849997,128.1030712121
337,112,68144,μ¶©μ£Ό μ¤ν† λ¦¬ λ¬΄μΈν…”,λ¨ν…”,motel,40000,50000,λ¦¬λ¨λΈλ§ λ§μ΄ νΉκ°€ ν–‰μ‚¬μ¤‘μ…λ‹λ‹¤.,μ¶©λ¶,μ μ² / μ¶©μ£Ό,300000031,200000323,36.958693,127.76879110000004
338,113,72975,μ¶©μ£Ό ν΄ λ“λΌμ΄λΈμΈ,λ¨ν…”,motel,50000,0,κΉ”λ”ν• κ°μ‹¤,μ¶©λ¶,μ μ² / μ¶©μ£Ό,300000031,200000323,37.0877537,127.8024775
339,114,69074,μ¶©μ£Ό ν—¤λΌ,λ¨ν…”,motel,37000,0,"ν‰μΌ,μ£Όλ§[μ¤μ „ 9μ‹μ™λ°•] λ¬΄ν•μ™λ°•,λ¬΄ν•λ€μ‹¤,μ•Όκ°„λ€μ‹¤,μμ „κ±°μ£Όμ°¨μ¥ μ™„λΉ„",μ¶©λ¶,μ μ² / μ¶©μ£Ό,300000031,200000323,37.0252712,127.9193002
340,115,80750,μ¶©μ£Ό νΈν…”μ–΄μΈ,λ¨ν…”,motel,55000,60000,2023λ…„ 8μ›” GRAND OPEN,μ¶©λ¶,μ μ² / μ¶©μ£Ό,300000031,200000323,36.972698665,127.915935711
341,116,74227,μ¶©μ£Ό νλ§ λ¬΄μΈν…”,λ¨ν…”,motel,40000,0,ν„μ΅΄ μ¶©μ£Ό λ¨ν…” λ‚΄ μµκ³ β μ‚¬μ–‘ PCλ³΄μ !,μ¶©λ¶,μ μ² / μ¶©μ£Ό,300000031,200000323,36.968759,127.9354269
342,117,82087,μ¶©μ£Ό μμ•λ³΄ μ¨μ²λλ“,λ¨ν…”,motel,60000,80000,,μ¶©λ¶,μ μ² / μ¶©μ£Ό,300000031,200000323,36.84667388766447,127.98930476151904
343,118,69316,μ¶©μ£Ό(μμ•λ³΄)μ‚¬μ΄ν μ¨μ²νΈν…”,λ¨ν…”,motel,50000,55000,,μ¶©λ¶,μ μ² / μ¶©μ£Ό,300000031,200000323,36.8464878,127.9879287
344,119,68457,μ¶©μ£Ό(μμ•λ³΄) λ°€λΌλ…Έ,λ¨ν…”,motel,55000,50000,,μ¶©λ¶,μ μ² / μ¶©μ£Ό,300000031,200000323,36.8449762,127.9907071
345,120,74176,μ¶©μ£Ό λ―ΈλΌν΄ (μ£Όλ•μ ),λ¨ν…”,motel,0,0,,μ¶©λ¶,μ μ² / μ¶©μ£Ό,300000031,200000323,36.9742058,127.8017936
346,121,69038,μ μ² λ°λ νƒ€μΈ,λ¨ν…”,motel,45000,45000,,μ¶©λ¶,μ μ² / μ¶©μ£Ό,300000031,200000323,37.14201193,128.21029604800003
347,122,85203,μ μ² μ¤νƒ€ λ¬΄μΈν…”,λ¨ν…”,motel,45000,50000,λ¬΄μΈ μΉ΄ν λ¬΄μ ν• μλ£ μ κ³µ μ΄λ²¤νΈ,μ¶©λ¶,μ μ² / μ¶©μ£Ό,300000031,200000323,37.131391930324504,128.12994550148184
348,123,82872,μ μ² ν•™ν„μ²­ν’λ…μ›”νμ…,νμ…,pension,70000,70000,,μ¶©λ¶,μ μ² / μ¶©μ£Ό,300000031,200000323,37.0093545047877,128.20925496628
349,124,75638,μ μ² hotel k,λ¨ν…”,motel,50000,0,,μ¶©λ¶,μ μ² / μ¶©μ£Ό,300000031,200000323,37.1422629,128.2135913
350,125,67506,μ¶©μ£Ό λ¦¬λ²„ κ΄€κ΄‘ νΈν…”,λ¨ν…”,motel,60000,0,β™£ μ λ½ν’ μ΅°μ‹ μ„λΉ„μ¤  β™£ λ§μ¤ν¬ μ¦μ • β™£,μ¶©λ¶,μ μ² / μ¶©μ£Ό,300000031,200000323,36.9743832,127.9138666
351,126,78078,μ¶©μ£Ό μμ•λ³΄νν¬νΈν…”,νμ…,pension,115000,115000,,μ¶©λ¶,μ μ² / μ¶©μ£Ό,300000031,200000323,36.8445033735,127.981292013
352,127,73052,μ μ² μ—” λ¨ν…”,λ¨ν…”,motel,0,0,,μ¶©λ¶,μ μ² / μ¶©μ£Ό,300000031,200000323,37.140240415155404,128.2130924388998
353,128,69235,μ¶©μ£Ό λ²¨λΌμ§€μ¤,λ¨ν…”,motel,50000,0,"β…μ—°μμƒκ°€μ‹μ¥ λ„λ³΄ 2λ¶„, μ—°μλ™ λ¨Ήμκ³¨λ© μ£Όλ³€β…",μ¶©λ¶,μ μ² / μ¶©μ£Ό,300000031,200000323,36.9881393,127.9306848
354,129,69661,μ¶©μ£Ό λ΅λ§μ¤,λ¨ν…”,motel,40000,0,"β…μ „ κ°μ‹¤ λ„·ν”λ¦­μ¤,μ ν¬λΈ μ‹μ²­ κ°€λ¥β…",μ¶©λ¶,μ μ² / μ¶©μ£Ό,300000031,200000323,36.9731892,127.9161892
355,130,73567,μ μ² W,λ¨ν…”,motel,40000,0,κ³ κ°μ„ μ„ν• μ„λΉ„μ¤ μ κ³µ,μ¶©λ¶,μ μ² / μ¶©μ£Ό,300000031,200000323,37.1298069,128.2076168
356,131,68087,μ¶©μ£Ό νΈν…” SOYU,λ¨ν…”,motel,35000,40000,β™¥μ „ κ°μ‹¤ λ„·ν”λ¦­μ¤ ν”„λ¦¬λ―Έμ—„&μ ν¬λΈβ™¥ β™¥λ¬΄ν•λ€μ‹¤12μ‹κ°„μ κ³µ&24μ‹κ°„ ν’€λ‚λ°©μ‹μ¤ν…β™¥,μ¶©λ¶,μ μ² / μ¶©μ£Ό,300000031,200000323,37.0242104,127.9181941
357,132,67289,μ¶©μ£Ό λ΅μ¦ν,λ¨ν…”,motel,39000,0,"β™¥λ„·ν”λ¦­μ¤,λ””μ¦λ‹,μ™“μ± ,ν‹°λΉ™ μ‹μ²­κ°€λ¥! μ„Έμ¤μ½” λ©¤λ²„μ¤ μ§„ν–‰μ—…μ²΄!β™¥",μ¶©λ¶,μ μ² / μ¶©μ£Ό,300000031,200000323,36.9722328,127.91652969999996
358,133,67342,μ μ² μ•λ‹¨ν…,λ¨ν…”,motel,50000,40000,β…μ „ κ°μ‹¤ WIFI μ„¤μΉβ…,μ¶©λ¶,μ μ² / μ¶©μ£Ό,300000031,200000323,37.1272279,128.2180969
359,134,87823,μ¶©μ£Ό(μμ•λ³΄) μμ €κ¶,λ¨ν…”,motel,40000,0,,μ¶©λ¶,μ μ² / μ¶©μ£Ό,300000031,200000323,36.84449111300367,127.99114713745487
360,135,85843,μ¶©μ£Ό ν•΄μ™€λ‹¬νμ…,νμ…,pension,100000,110000,,μ¶©λ¶,μ μ² / μ¶©μ£Ό,300000031,200000323,36.8372742143462,128.049154490641
361,136,78980,μ μ² K2 (1λ€1 Drive-in),λ¨ν…”,motel,60000,0,"νƒ€μ—…μ† λ€λΉ„ λ„“μ€ κ°μ‹¤κ³Ό μ„ νƒν­ (λ¬΄μΈ, μΌλ°, μ•λ§, νΈμ)",μ¶©λ¶,μ μ² / μ¶©μ£Ό,300000031,200000323,37.12675696081425,128.21755224505225
362,137,76816,μ μ² λν‘Έλ¥Ένμ…,νμ…,pension,90000,100000,,μ¶©λ¶,μ μ² / μ¶©μ£Ό,300000031,200000323,37.187404791583724,128.13234727333227
363,138,70863,μ¶©μ£Ό μ›”μ•…λ“λ¦Όνμ…,νμ…,pension,110000,110000,,μ¶©λ¶,μ μ² / μ¶©μ£Ό,300000031,200000323,36.8385911,128.0315031
364,139,67502,μ¶©μ£Ό(μμ•λ³΄) νΈν…” μ¤ν¬λ¦°,λ¨ν…”,motel,55000,0,,μ¶©λ¶,μ μ² / μ¶©μ£Ό,300000031,200000323,36.8463719,127.9870175
365,140,92655,μ¶©μ£Ό μ• ν” νΈν…”,νΈν…”,hotel,70000,70000,,μ¶©λ¶,μ μ² / μ¶©μ£Ό,300000031,200000323,36.96765565805183,127.93457956764527
366,141,76129,μ¶©μ£Ό ν”„μ‹μΌ€ν’€λΉλΌ(λΉ„λ€λ©΄μ²΄ν¬μΈ),νμ…,pension,298000,348000,,μ¶©λ¶,μ μ² / μ¶©μ£Ό,300000031,200000323,37.031671013,128.0506773846
367,142,77522,μ¶©μ£Ό ν’κ²½νμ…,νμ…,pension,120000,120000,,μ¶©λ¶,μ μ² / μ¶©μ£Ό,300000031,200000323,36.966713851887285,128.01455156135992
368,143,67183,μ¶©μ£Ό λ” μ΄λ„μ¤νΈν…”,λ¨ν…”,motel,40000,0,β…λ„·ν”λ¦­μ¤ μµμ‹ μ‘ λ¬΄λ£μν™”. μ»¤ν”μ•μ΅°β…,μ¶©λ¶,μ μ² / μ¶©μ£Ό,300000031,200000323,36.9703088,127.9329007
369,144,79917,μ¶©μ£Ό μ΄μ½λ¦Ώλ¬΄μΈν…”,λ¨ν…”,motel,50000,70000,,μ¶©λ¶,μ μ² / μ¶©μ£Ό,300000031,200000323,37.0264555,127.9162518
370,145,74788,μ¶©μ£Ό κ°€λ“ μ•„λ¦¬λ‘νμ…,νμ…,pension,120000,120000,,μ¶©λ¶,μ μ² / μ¶©μ£Ό,300000031,200000323,37.0362145643,127.8261903676
371,146,83916,μ μ² νƒλΌμ•¤κΈ€λ¨ν•‘νμ…,νμ…,pension,0,0,,μ¶©λ¶,μ μ² / μ¶©μ£Ό,300000031,200000323,37.1748781760241,128.109385325839
372,147,67501,μ¶©μ£Ό(μμ•λ³΄) RIμ¨μ²νΈν…”,λ¨ν…”,motel,45000,45000,μ•λ…•ν•μ„Έμ” μ¶©μ£Ό(μμ•λ³΄) Rlμ¨μ²νΈν…”μ…λ‹λ‹¤^^,μ¶©λ¶,μ μ² / μ¶©μ£Ό,300000031,200000323,36.846525,127.9901714
373,148,67716,μ μ² μΊμ¬,λ¨ν…”,motel,45000,0,,μ¶©λ¶,μ μ² / μ¶©μ£Ό,300000031,200000323,37.1270926,128.21587699999998
374,149,67052,μ μ² λ ‰μ¤,λ¨ν…”,motel,35000,0,"λ„·ν”λ¦­μ¤,μ νλΈ μ „ κ°μ‹¤ μ΄μ©κ°€λ¥",μ¶©λ¶,μ μ² / μ¶©μ£Ό,300000031,200000323,37.140504,128.2108553
375,150,85088,μ¶©μ£Ό μ•Όμƒν™”μ™€κ³ νƒλ‚λ“¤μ΄νμ…,νμ…,pension,70000,70000,,μ¶©λ¶,μ μ² / μ¶©μ£Ό,300000031,200000323,36.8955407480744,127.98041000805
376,151,86793,μ μ² μ†΅κ³„κ³„κ³΅μΊ ν•‘μ¥νμ…,νμ…,pension,0,0,,μ¶©λ¶,μ μ² / μ¶©μ£Ό,300000031,200000323,36.8836296113025,128.078238199745
377,152,69094,μ¶©μ£Ό ν¬μ‹μ¦,λ¨ν…”,motel,30000,0,β¤λ„·ν”λ¦­μ¤ & μ νλΈ β¤[μ™λ°•+νƒκµ­λ§μ‚¬μ§€] β¤ ν„κΈ μ¶”κ°€ν• μΈ (μ™μ†λ¬Έμ),μ¶©λ¶,μ μ² / μ¶©μ£Ό,300000031,200000323,36.988091497,127.93081591
378,153,67047,μ¶©μ£Ό μ¤μ¬λ΅,λ¨ν…”,motel,35000,35000,,μ¶©λ¶,μ μ² / μ¶©μ£Ό,300000031,200000323,36.9697323,127.93416389999993
379,154,98753,μ μ² μλ ν¬λ ν’€λΉλΌ,νμ…,pension,159000,550000,,μ¶©λ¶,μ μ² / μ¶©μ£Ό,300000031,200000323,37.0176565446289,128.144918570478
380,155,67091,μ μ² λ μΈ,λ¨ν…”,motel,0,0,,μ¶©λ¶,μ μ² / μ¶©μ£Ό,300000031,200000323,37.1405952,128.2108866
381,156,81863,μ¶©μ£Ό λ…λν•™κµμΊ ν”„νμ…,νμ…,pension,100000,100000,,μ¶©λ¶,μ μ² / μ¶©μ£Ό,300000031,200000323,37.0708560922163,128.033771712751
382,157,99603,μ¶©μ£Ό(μμ•λ³΄) λΌλ§λ‹¤νΈν…”,λ¨ν…”,motel,129000,0,,μ¶©λ¶,μ μ² / μ¶©μ£Ό,300000031,200000323,36.84567542328367,127.99395170613685
383,158,87979,μ μ² κ°¤λ¬λ¦¬μ•„,λ¨ν…”,motel,50000,50000,,μ¶©λ¶,μ μ² / μ¶©μ£Ό,300000031,200000323,37.14310491953052,128.21403438100646
384,159,74512,μ¶©μ£Ό ν¬μΈ,λ¨ν…”,motel,0,0,λ„·ν”λ¦¬μ¤ κ°€λ¥,μ¶©λ¶,μ μ² / μ¶©μ£Ό,300000031,200000323,37.0256363,127.96915509999997
385,160,91840,μ μ² λ­μ…”λ¦¬λ¨ν…”,λ¨ν…”,motel,40000,40000,,μ¶©λ¶,μ μ² / μ¶©μ£Ό,300000031,200000323,37.1346256,128.2141966
386,161,86158,μ μ² μ›”μ•…μ‚°κ΄‘μ²λ―Όλ°•μ¤ν† μΊ ν•‘μ¥νμ…,νμ…,pension,50000,50000,,μ¶©λ¶,μ μ² / μ¶©μ£Ό,300000031,200000323,36.8827344617283,128.150493112323
387,162,81534,μ μ² μ²­ν’ν™©ν† νμ…,νμ…,pension,90000,90000,,μ¶©λ¶,μ μ² / μ¶©μ£Ό,300000031,200000323,36.9977887689839,128.142051376113
388,163,88141,μ¶©μ£Ό μ΄λΉ„μ drive-in λ¬΄μΈν…”,λ¨ν…”,motel,55000,0,,μ¶©λ¶,μ μ² / μ¶©μ£Ό,300000031,200000323,37.02644894673912,127.91951626265403
389,164,71974,μ¶©μ£Ό ν¬λ¦Ό Drive-in,λ¨ν…”,motel,50000,0,β™¦μµμ‹ μν™”  λ„·ν”λ¦­μ¤ κΉ”λ”ν• κ°μ‹¤ ν¬λ¦Όβ™¦,μ¶©λ¶,μ μ² / μ¶©μ£Ό,300000031,200000323,37.0262467,127.92007209999997
390,165,67724,μ¶©μ£Ό μ¤μ•„μ‹μ¤,λ¨ν…”,motel,40000,40000,,μ¶©λ¶,μ μ² / μ¶©μ£Ό,300000031,200000323,36.9720015,127.9167104
391,166,81733,μ μ² μ°Έμ΅°μ€νμ…,νμ…,pension,70000,70000,,μ¶©λ¶,μ μ² / μ¶©μ£Ό,300000031,200000323,36.8877945410001,128.079867105847
392,167,98760,μ¶©μ£Ό λ§μ΄μ¤μΌ€μΉνμ…,νμ…,pension,118000,158000,,μ¶©λ¶,μ μ² / μ¶©μ£Ό,300000031,200000323,36.9745652276213,128.031406586389
393,168,98571,μ μ² μ‚°μ¤‘λ‹¤μ—°νμ…,νμ…,pension,100000,100000,,μ¶©λ¶,μ μ² / μ¶©μ£Ό,300000031,200000323,36.8530100692002,128.178158872716
394,169,81573,μ μ² λ³„λ™μλ¦¬νμ…,νμ…,pension,0,0,,μ¶©λ¶,μ μ² / μ¶©μ£Ό,300000031,200000323,37.1929093928209,127.99779994679
395,170,89061,μ¶©μ£Ό μ¤ν¬,λ¨ν…”,motel,50000,50000,,μ¶©λ¶,μ μ² / μ¶©μ£Ό,300000031,200000323,37.10030496033371,127.97498873670862
396,171,92414,μ μ² μ²­ν’μ μ¤νΈμ¤ν…”,νμ…,pension,70000,70000,,μ¶©λ¶,μ μ² / μ¶©μ£Ό,300000031,200000323,36.997501438675,128.168963390937
397,172,94917,μ¶©μ£Ό νƒ„κΈνΈνμ…,νμ…,pension,190000,190000,,μ¶©λ¶,μ μ² / μ¶©μ£Ό,300000031,200000323,37.032755570566,127.855978083274
398,173,71085,μ μ² (μ›”μ•…νμ…λΉ)κ³ νμμ§‘,νμ…,pension,120000,120000,,μ¶©λ¶,μ μ² / μ¶©μ£Ό,300000031,200000323,36.8799557,128.0806802
399,174,80587,μ μ² μ›”μ†΅κ°€λ“ νμ…(μ›”μ•…μ‚°),νμ…,pension,80000,80000,,μ¶©λ¶,μ μ² / μ¶©μ£Ό,300000031,200000323,36.8632320840067,128.088552085233
400,175,87975,μ μ² λ‚΄λ§μμ€νΈμμ”νμ…,νμ…,pension,230000,230000,,μ¶©λ¶,μ μ² / μ¶©μ£Ό,300000031,200000323,37.0116271044733,128.104554696377
401,176,88139,μ¶©μ£Ό μƒΉκ·Έλ¦΄λΌ,λ¨ν…”,motel,35000,33000,,μ¶©λ¶,μ μ² / μ¶©μ£Ό,300000031,200000323,37.02558034546645,127.91866294696484
402,177,87588,μ μ² μ‚°κ³Όκ³„κ³΅κ·Έλ¦¬κ³ λ‚νμ…,νμ…,pension,60000,60000,,μ¶©λ¶,μ μ² / μ¶©μ£Ό,300000031,200000323,37.2096965320514,127.97125634778
403,178,69079,μ¶©μ£Ό μ΄μ  ,λ¨ν…”,motel,0,0,"μ „κ°μ‹¤ λ¬΄κ·  μ²­μ • κ³µκ°„ (μ‚΄κ· ,ν–¥κ· ,νƒμ·¨,μ‚΄μ¶© 99.9%) μ΄μ!",μ¶©λ¶,μ μ² / μ¶©μ£Ό,300000031,200000323,36.974796584,127.91056408
404,179,71104,μ μ² (μ›”μ•…νμ…λΉ)κ³ κ°±μμ§‘,νμ…,pension,0,0,,μ¶©λ¶,μ μ² / μ¶©μ£Ό,300000031,200000323,36.8799557,128.0806802
405,180,71608,μ μ² λ¥κ°•μ†΅νμ…,νμ…,pension,120000,120000,,μ¶©λ¶,μ μ² / μ¶©μ£Ό,300000031,200000323,36.9783491,128.2041764
406,181,93815,μ¶©μ£Ό ν•μ°μ¤μ¥,λ¨ν…”,motel,30000,30000,,μ¶©λ¶,μ μ² / μ¶©μ£Ό,300000031,200000323,36.96952243587089,127.93419585207737
407,182,77268,μ μ² ν•μ†”νμ…,νμ…,pension,80000,80000,,μ¶©λ¶,μ μ² / μ¶©μ£Ό,300000031,200000323,36.86294901,128.08860683
408,183,84164,μ μ² κ³ λ¬΄μ„λ¦¬μ‚°μ¥νμ…,νμ…,pension,100000,100000,,μ¶©λ¶,μ μ² / μ¶©μ£Ό,300000031,200000323,36.8586442682139,128.087468403247
409,184,75508,μ μ² νΈμλ―Όλ°•νμ…,νμ…,pension,250000,250000,,μ¶©λ¶,μ μ² / μ¶©μ£Ό,300000031,200000323,36.9826737968,128.1970976689
410,185,71953,μ¶©μ£Ό λ…Έλ¥΄λ”•νμ…,νμ…,pension,200000,200000,,μ¶©λ¶,μ μ² / μ¶©μ£Ό,300000031,200000323,37.0380193,127.8560776
411,186,72364,μ μ² λ…Ήμμ™€μ²­μ‚°μμ§‘νμ…(λ…μ±„νμ…),νμ…,pension,130000,130000,,μ¶©λ¶,μ μ² / μ¶©μ£Ό,300000031,200000323,37.0276294,128.1020782
412,187,72572,μ μ² ν•μ΄λ½κΈ€λ¨ν•‘νμ…,νμ…,pension,115000,135000,,μ¶©λ¶,μ μ² / μ¶©μ£Ό,300000031,200000323,37.1139350959,128.1126840396
413,188,88262,μ¶©μ£Ό μ Έμ¤ν‹΄ν•μ°μ¤νμ…,νμ…,pension,270000,270000,,μ¶©λ¶,μ μ² / μ¶©μ£Ό,300000031,200000323,36.9979939020322,127.87758005155
414,189,95170,μ μ² λ§λ¦°ννμ…,νμ…,pension,80000,80000,,μ¶©λ¶,μ μ² / μ¶©μ£Ό,300000031,200000323,36.9540977916336,128.22402072218
415,190,97603,μ¶©μ£Ό μ• μ΄λ¦¬ν’€λΉλΌ (μ¶©μ£ΌνΈλ·°),νμ…,pension,290000,290000,,μ¶©λ¶,μ μ² / μ¶©μ£Ό,300000031,200000323,36.9665528725376,128.014873945119
416,191,88992,μ μ² νλ μ¤νΈνμ…,νμ…,pension,240000,240000,,μ¶©λ¶,μ μ² / μ¶©μ£Ό,300000031,200000323,36.9095760368786,128.120019080508
417,192,99791,μ¶©μ£Ό μ¶©μ£ΌνΈμΊ ν•‘μ›”λ“,νμ…,pension,180000,400000,,μ¶©λ¶,μ μ² / μ¶©μ£Ό,300000031,200000323,37.0274789461619,128.041622600771
418,193,98654,μ μ² μν”Όμ•„κΈ€λ¨ν•‘νμ…,νμ…,pension,179000,179000,,μ¶©λ¶,μ μ² / μ¶©μ£Ό,300000031,200000323,37.1571555445196,128.102890628488
419,194,98888,μ¶©μ£Ό λ’¤μ•,νμ…,pension,0,0,,μ¶©λ¶,μ μ² / μ¶©μ£Ό,300000031,200000323,37.0166510953775,127.875992899101
420,195,67725,μ¶©μ£Ό GνΈν…”,λ¨ν…”,motel,40000,40000,β™¥λ„λ°° λ° λ‚΄λ¶€ λ¦¬λ¨λΈλ§μ™„λ£β™¥,μ¶©λ¶,μ μ² / μ¶©μ£Ό,300000031,200000323,36.9743132,127.9101339
421,196,68331,μ¶©μ£Ό μ›°νν¬,λ¨ν…”,motel,40000,0,,μ¶©λ¶,μ μ² / μ¶©μ£Ό,300000031,200000323,37.0978726,127.7780633
422,197,87433,μ μ² ν‚Ή,λ¨ν…”,motel,40000,40000,,μ¶©λ¶,μ μ² / μ¶©μ£Ό,300000031,200000323,37.16634077338106,128.1087347725193
423,198,93666,μ μ² Yλ¨ν…”,λ¨ν…”,motel,40000,0,,μ¶©λ¶,μ μ² / μ¶©μ£Ό,300000031,200000323,37.14231801918232,128.21402921158924
424,199,93740,μ μ² νν…”ν•μ°μ¤,λ¨ν…”,motel,60000,0,,μ¶©λ¶,μ μ² / μ¶©μ£Ό,300000031,200000323,37.18941377581191,128.1331443402379
425,200,97636,μ¶©μ£Ό λ‚¨ν•κ°•νν¬,λ¨ν…”,motel,35000,35000,,μ¶©λ¶,μ μ² / μ¶©μ£Ό,300000031,200000323,37.08128774112947,127.87817244210059
426,203,75599,μ μ² ν¬μ‹μ¦νμ…,νμ…,pension,150000,150000,,μ¶©λ¶,μ μ² / μ¶©μ£Ό,300000031,200000323,36.9731603981,128.2297442391
427,204,76417,μ μ² μ¶©μ£ΌλΉ›λ‚λ”μ›”μ•…νμ…,νμ…,pension,150000,150000,,μ¶©λ¶,μ μ² / μ¶©μ£Ό,300000031,200000323,36.88615362531539,128.08182899211164
428,205,71107,μ μ² (μ›”μ•…νμ…λΉ)λ¨λ„¤μμ§‘,νμ…,pension,60000,60000,,μ¶©λ¶,μ μ² / μ¶©μ£Ό,300000031,200000323,36.8799557,128.0806802
429,206,81059,μ μ² μ¥μλ΄‰νμ…,νμ…,pension,90000,90000,,μ¶©λ¶,μ μ² / μ¶©μ£Ό,300000031,200000323,36.92502831,128.22511004
430,207,81068,μ μ² μΉ΄μΉ΄μ¤νμ…,νμ…,pension,120000,120000,,μ¶©λ¶,μ μ² / μ¶©μ£Ό,300000031,200000323,37.1894337591985,128.134683330133
431,208,81340,μ¶©μ£Ό μ›”μ•…μ‚°κ½ƒν”Όλ”μ‚°κ³¨νμ…,νμ…,pension,80000,80000,,μ¶©λ¶,μ μ² / μ¶©μ£Ό,300000031,200000323,36.8961639250638,128.051942426374
432,209,79380,μ μ² κ³„κ³΅μ•„λ¦„λ‹¤μ΄μ„Έμƒνμ…,νμ…,pension,130000,130000,,μ¶©λ¶,μ μ² / μ¶©μ£Ό,300000031,200000323,37.2119116017557,127.962468674569
433,210,83146,μ¶©μ£Ό λ΄‰κ³¨νμ…,νμ…,pension,150000,150000,,μ¶©λ¶,μ μ² / μ¶©μ£Ό,300000031,200000323,37.0389067797566,127.966222969145
434,211,85077,μ μ² μ›”μ•…λ“ μ†”νμ…,νμ…,pension,80000,80000,,μ¶©λ¶,μ μ² / μ¶©μ£Ό,300000031,200000323,36.8728616401472,128.149694532355
435,212,86012,μ μ² ν™”μ΄νΈν’€λΉλΌ,νμ…,pension,500000,500000,,μ¶©λ¶,μ μ² / μ¶©μ£Ό,300000031,200000323,37.1887659742328,128.131646056998
436,213,86271,μ¶©μ£Ό μ‹ μ„ λ΄‰ν•μ¥νμ…,νμ…,pension,120000,120000,,μ¶©λ¶,μ μ² / μ¶©μ£Ό,300000031,200000323,36.8356801713861,128.047495739767
437,214,77988,μ μ² μ†΅κ³„ν…λΌμ¤ν’κ²½νμ…,νμ…,pension,90000,90000,,μ¶©λ¶,μ μ² / μ¶©μ£Ό,300000031,200000323,36.88200158623489,128.07746323323855
438,215,77277,μ¶©μ£Ό μ£Όλ΄‰μ‚°νμ…,νμ…,pension,110000,110000,,μ¶©λ¶,μ μ² / μ¶©μ£Ό,300000031,200000323,37.00664447,128.04488612
439,216,95878,μ μ² ν† λ°•μ΄κ°€λ“ νμ…,νμ…,pension,66500,70000,,μ¶©λ¶,μ μ² / μ¶©μ£Ό,300000031,200000323,36.8625168949013,128.089832417969
440,217,98505,μ μ² λ¬΄λ„κΈ€λ¨ν•‘μΉ΄λΌλ°,νμ…,pension,95000,95000,,μ¶©λ¶,μ μ² / μ¶©μ£Ό,300000031,200000323,37.1715965039056,128.261708354178
441,218,72127,μ¶©μ£Ό νΈν…” μ,λ¨ν…”,motel,50000,50000,β†κ°μΆ… μ„λΉ„μ¤β†,μ¶©λ¶,μ μ² / μ¶©μ£Ό,300000031,200000323,36.9759058,127.9107565
442,219,68357,μ¶©μ£Ό λΉ„μ „νν¬,λ¨ν…”,motel,0,0,,μ¶©λ¶,μ μ² / μ¶©μ£Ό,300000031,200000323,36.9626511,127.7751395
443,220,71770,μ μ² μ†ν’κ°€λ”λ‚ νμ…,νμ…,pension,100000,100000,,μ¶©λ¶,μ μ² / μ¶©μ£Ό,300000031,200000323,37.19605973606,127.98366150553
444,221,72302,μ μ² λ‹¤μΈμ§€νμ…,νμ…,pension,100000,100000,,μ¶©λ¶,μ μ² / μ¶©μ£Ό,300000031,200000323,37.01931838104096,128.18183769242822
445,222,86306,μ μ² μ²­ν’λ―Όλ°•,νμ…,pension,0,0,,μ¶©λ¶,μ μ² / μ¶©μ£Ό,300000031,200000323,37.0333816671144,128.099195573337
446,223,80628,μ μ² λ°€λΌλ…Έ,λ¨ν…”,motel,0,0,μ €λ ΄ν• κ°€κ²©,μ¶©λ¶,μ μ² / μ¶©μ£Ό,300000031,200000323,37.1402722,128.2101975
447,224,78385,μ μ² μ„¤μ•…,λ¨ν…”,motel,50000,0,,μ¶©λ¶,μ μ² / μ¶©μ£Ό,300000031,200000323,37.1376912,128.20712990000004
448,225,71105,μ μ² (μ›”μ•…νμ…λΉ)λ§λ„¤μμ§‘,νμ…,pension,60000,60000,,μ¶©λ¶,μ μ² / μ¶©μ£Ό,300000031,200000323,36.8799557,128.0806802
449,226,71113,μ¶©μ£Ό νΈμμ„μν•λ£¨νμ…,νμ…,pension,330000,330000,,μ¶©λ¶,μ μ² / μ¶©μ£Ό,300000031,200000323,37.038457,127.8564423
450,227,99606,μ μ² H Avenue μ μ²μ—­μ ,λ¨ν…”,motel,70000,0,,μ¶©λ¶,μ μ² / μ¶©μ£Ό,300000031,200000323,37.13792312736564,128.20676830223343
451,228,79984,μ μ² νΈλ°λ³„μ¥νμ…,νμ…,pension,500000,500000,,μ¶©λ¶,μ μ² / μ¶©μ£Ό,300000031,200000323,36.9927947091916,128.128864409576
452,229,83023,μ μ² μ›”μ•…μ‚°λ“¤λ°”λνμ…,νμ…,pension,70000,70000,,μ¶©λ¶,μ μ² / μ¶©μ£Ό,300000031,200000323,36.9117925155675,128.110788608112
453,230,84225,μ¶©μ£Ό λ½λ§λ¥΄λ¨νμ…,νμ…,pension,0,0,,μ¶©λ¶,μ μ² / μ¶©μ£Ό,300000031,200000323,37.0080974702016,128.0459618846
454,231,74741,μ μ² ν•΄λ¥Όν’μ€λ‹¬νμ…,νμ…,pension,120000,120000,,μ¶©λ¶,μ μ² / μ¶©μ£Ό,300000031,200000323,36.9879655692,128.1923508245
455,232,87581,μ μ² THEλ·°νμ…,νμ…,pension,0,0,,μ¶©λ¶,μ μ² / μ¶©μ£Ό,300000031,200000323,36.974038563371,128.212035932258
456,233,98287,μ μ² λ°±μ΄μ‚°μ¥νμ…,νμ…,pension,90000,90000,,μ¶©λ¶,μ μ² / μ¶©μ£Ό,300000031,200000323,36.9681038141613,128.239267888181
457,234,98554,μ μ² λμ†”κΈΈνμ…,νμ…,pension,500000,500000,,μ¶©λ¶,μ μ² / μ¶©μ£Ό,300000031,200000323,36.9685449791677,128.240982316599
458,235,92634,μ μ² μ²­ν’ν•νΈλ μ΄ν¬νμ…,νμ…,pension,120000,120000,,μ¶©λ¶,μ μ² / μ¶©μ£Ό,300000031,200000323,37.0197281920597,128.168323895207
459,236,99080,μ μ²(μ›”μ•…μ‚° μ†΅κ³„ κ³„κ³΅) λ•μ£Όνμ…,νμ…,pension,100000,100000,,μ¶©λ¶,μ μ² / μ¶©μ£Ό,300000031,200000323,36.863989356469,128.087949200005
460,237,94845,μ μ² νΈμν’κ²½νμ…,νμ…,pension,90000,100000,,μ¶©λ¶,μ μ² / μ¶©μ£Ό,300000031,200000323,37.0276129642258,128.179346314625
461,0,70023,μ†λ…Έλ¬Έ λ‹¨μ–‘,λ¦¬μ΅°νΈ,resort,96000,96000,,μ¶©λ¶,λ‹¨μ–‘,300000031,200000324,36.977663,128.362293
462,1,73420,λ‹¨μ–‘κ΄€κ΄‘νΈν…”,3μ„±κΈ‰,hotel,102450,105000,,μ¶©λ¶,λ‹¨μ–‘,300000031,200000324,36.982087,128.348524
463,2,94042,λ‹¨μ–‘ λΉ„λΉ„μ•„λ‚νμ…,νμ…,pension,150000,150000,,μ¶©λ¶,λ‹¨μ–‘,300000031,200000324,36.8916139428042,128.340582701624
464,3,79978,λ‹¨μ–‘ μ—λ¨μ™νμ…(23λ…„ μ¬ λ¦¬λ¨λΈλ§),νμ…,pension,80000,80000,,μ¶©λ¶,λ‹¨μ–‘,300000031,200000324,36.8864671422841,128.339898309466
465,4,73305,λ‹¨μ–‘ λ‚¨ν•κ°•μ†”λ°­νμ…,νμ…,pension,66000,66000,,μ¶©λ¶,λ‹¨μ–‘,300000031,200000324,37.0026481233,128.3765539659
466,5,75280,λ‹¨μ–‘ μ†λ°±μ‚°μ‹ μ„ νμ…,νμ…,pension,0,0,,μ¶©λ¶,λ‹¨μ–‘,300000031,200000324,36.9959153554,128.4227347901
467,6,73678,λ‹¨μ–‘ λΉ„λ΅λ΄‰νμ…,νμ…,pension,100000,100000,,μ¶©λ¶,λ‹¨μ–‘,300000031,200000324,36.9661205788,128.4200466173
468,7,78049,λ‹¨μ–‘ μ—¬μΈν–¥νμ…,νμ…,pension,100000,100000,,μ¶©λ¶,λ‹¨μ–‘,300000031,200000324,37.035045355181445,128.39685135963208
469,8,77283,λ‹¨μ–‘ μ¤ν¬νμ…,νμ…,pension,90000,90000,,μ¶©λ¶,λ‹¨μ–‘,300000031,200000324,37.03879122,128.50119278
470,9,84423,λ‹¨μ–‘ κ°μΈκ°€νμ…,νμ…,pension,150000,150000,,μ¶©λ¶,λ‹¨μ–‘,300000031,200000324,37.0478659845752,128.506232674427
471,10,74517,λ‹¨μ–‘ ν–‰λ³µμ¶©μ „μ†ν–‰λ³µλ§λ‹Ήν•μ¥νμ…,νμ…,pension,100000,100000,,μ¶©λ¶,λ‹¨μ–‘,300000031,200000324,37.0029682807,128.408850735
472,11,71540,λ‹¨μ–‘ λ¶€μ—‰μ΄νμ…,νμ…,pension,80000,80000,,μ¶©λ¶,λ‹¨μ–‘,300000031,200000324,36.9862462,128.4270847
473,12,73740,λ‹¨μ–‘ μ†λ°±μ‚°κ°€λ”κΈΈνμ…,νμ…,pension,100000,100000,,μ¶©λ¶,λ‹¨μ–‘,300000031,200000324,36.9665089299,128.4207230561
474,13,77286,λ‹¨μ–‘ ν¬μ‹μ¦νμ…,νμ…,pension,80000,80000,,μ¶©λ¶,λ‹¨μ–‘,300000031,200000324,37.06137876,128.42301216
475,14,71728,λ‹¨μ–‘ μ¨ν•μ°μ¤νμ…,νμ…,pension,0,0,,μ¶©λ¶,λ‹¨μ–‘,300000031,200000324,36.9873709,128.4632264
476,15,74384,λ‹¨μ–‘ ν’€κ½ƒλ‚λ¬΄νμ…,νμ…,pension,150000,150000,,μ¶©λ¶,λ‹¨μ–‘,300000031,200000324,37.0263704168,128.4725583154
477,16,76991,λ‹¨μ–‘ λ§μΉ΄λ΅±νμ…,νμ…,pension,100000,100000,,μ¶©λ¶,λ‹¨μ–‘,300000031,200000324,37.0442318,128.50471686
478,17,81439,λ‹¨μ–‘ ν‘Έλ¥Έλ†μ›νμ…,νμ…,pension,60000,60000,,μ¶©λ¶,λ‹¨μ–‘,300000031,200000324,36.9665994128361,128.420457721608
479,18,87469,λ‹¨μ–‘ λΌμ¨μ†”νμ…,νμ…,pension,0,0,,μ¶©λ¶,λ‹¨μ–‘,300000031,200000324,36.9871329292982,128.463597734903
480,19,77292,λ‹¨μ–‘ μ„ μ•”νμ…,νμ…,pension,100000,100000,,μ¶©λ¶,λ‹¨μ–‘,300000031,200000324,36.91677124,128.30824588
481,20,71477,λ‹¨μ–‘ λ³„λΉ›ν•μ¥νμ…(λ‹¨λ…νλ§¤),νμ…,pension,110000,110000,,μ¶©λ¶,λ‹¨μ–‘,300000031,200000324,37.003228,128.4081915
482,21,80327,λ‹¨μ–‘ μ •μ°λ„¤νμ…,νμ…,pension,70000,70000,,μ¶©λ¶,λ‹¨μ–‘,300000031,200000324,36.9874342202605,128.466204187716
483,22,73626,λ‹¨μ–‘ λ½λ²¨λ¦¬νμ…,νμ…,pension,80000,80000,,μ¶©λ¶,λ‹¨μ–‘,300000031,200000324,36.9868785637,128.46609547
484,23,75469,λ‹¨μ–‘ λ”λ°Έλ¦¬νμ…,νμ…,pension,90000,90000,,μ¶©λ¶,λ‹¨μ–‘,300000031,200000324,36.8959997985,128.3435252585
485,24,71383,λ‹¨μ–‘ κ½ƒλ“¤μλ¬Όκ°μ°ΎκΈ°νμ…,νμ…,pension,120000,120000,,μ¶©λ¶,λ‹¨μ–‘,300000031,200000324,37.055922854814,128.50245657939
486,25,71577,λ‹¨μ–‘ μ‚°λ§λ£¨νμ…,νμ…,pension,80000,80000,,μ¶©λ¶,λ‹¨μ–‘,300000031,200000324,36.9871806,128.4658485
487,26,70685,λ‹¨μ–‘ λΌλ²¨λΌλΉ„νƒ€νμ…,νμ…,pension,110000,110000,,μ¶©λ¶,λ‹¨μ–‘,300000031,200000324,37.0408238,128.4069835
488,27,85665,λ‹¨μ–‘ μ¨λ‹¬μ¤ν…μ΄νμ…,νμ…,pension,90000,90000,,μ¶©λ¶,λ‹¨μ–‘,300000031,200000324,37.0551043311595,128.502845807717
489,28,81205,λ‹¨μ–‘ λ“λ¦Όμ¤μ„νΈνμ…,νμ…,pension,70000,70000,,μ¶©λ¶,λ‹¨μ–‘,300000031,200000324,37.0537516217241,128.504704972055
490,29,87295,λ‹¨μ–‘ νλ§μ¤ν† λ¦¬νμ…,νμ…,pension,0,0,,μ¶©λ¶,λ‹¨μ–‘,300000031,200000324,37.0405714113398,128.403665417229
491,30,75559,λ‹¨μ–‘ ν•μ¥λ―Όλ°•νμ…,νμ…,pension,79000,79000,,μ¶©λ¶,λ‹¨μ–‘,300000031,200000324,37.0433269349,128.4093805183
492,31,77297,λ‹¨μ–‘ μ§‘νμ…,νμ…,pension,0,0,,μ¶©λ¶,λ‹¨μ–‘,300000031,200000324,37.04285796,128.40911558
493,32,79123,λ‹¨μ–‘ κ°¤λ¬λ¦¬ν•μ°μ¤νμ…,νμ…,pension,60000,60000,,μ¶©λ¶,λ‹¨μ–‘,300000031,200000324,36.91612883017443,128.30898000522976
494,33,71488,λ‹¨μ–‘ μ¶”μ–µνμ…,νμ…,pension,100000,100000,,μ¶©λ¶,λ‹¨μ–‘,300000031,200000324,37.0430182337,128.4092758996
495,34,76996,λ‹¨μ–‘ ν•μ¥νμ…λ‹¨μ΄μ„μ›κ³ νƒνμ…,νμ…,pension,99000,99000,,μ¶©λ¶,λ‹¨μ–‘,300000031,200000324,36.92949981,128.3352287
496,35,83639,λ‹¨μ–‘ μλ¦¬μλ¦¬λ΄‰λ΄‰2νΈμ νμ…,νμ…,pension,120000,120000,,μ¶©λ¶,λ‹¨μ–‘,300000031,200000324,36.8919101455906,128.343052759384
497,36,73540,λ‹¨μ–‘ μ†μ„ μ•”ν™©ν† λ§μ„νμ…,νμ…,pension,120000,120000,,μ¶©λ¶,λ‹¨μ–‘,300000031,200000324,36.9162107908,128.3077560339
498,37,81201,λ‹¨μ–‘ κ³ μΈλνμ…,νμ…,pension,80000,80000,,μ¶©λ¶,λ‹¨μ–‘,300000031,200000324,36.9807854193307,128.392653414277
499,38,71813,λ‹¨μ–‘ ν•λ“λ―Έν•μ°μ¤νμ…,νμ…,pension,80000,80000,,μ¶©λ¶,λ‹¨μ–‘,300000031,200000324,36.9892963,128.4355695
500,39,84253,λ‹¨μ–‘ λ©”λ΅μ¤ νΈν…”,λ¨ν…”,motel,45000,0,,μ¶©λ¶,λ‹¨μ–‘,300000031,200000324,36.97596799962975,128.35957666743602
501,40,71076,λ‹¨μ–‘ λ‹¨μ–‘ν”κ²½νμ…,νμ…,pension,60000,60000,,μ¶©λ¶,λ‹¨μ–‘,300000031,200000324,36.9156976,128.3068632
502,41,79283,λ‹¨μ–‘ λ§μΆ…νμ…,νμ…,pension,100000,100000,,μ¶©λ¶,λ‹¨μ–‘,300000031,200000324,36.9606254785853,128.2835265331313
503,42,71117,λ‹¨μ–‘ μ–΄λ–¤λ‚ νμ…,νμ…,pension,100000,100000,,μ¶©λ¶,λ‹¨μ–‘,300000031,200000324,37.0337323,128.3944332
504,43,74988,λ‹¨μ–‘ μ•„λΉ„μ±„νμ…,νμ…,pension,150000,150000,,μ¶©λ¶,λ‹¨μ–‘,300000031,200000324,37.0895554422,128.4915633436
505,44,77303,λ‹¨μ–‘ ν•λκΏνμ…(λ¦¬λ¨λΈλ§),νμ…,pension,70000,70000,,μ¶©λ¶,λ‹¨μ–‘,300000031,200000324,37.04690259,128.5069682
506,45,75810,λ‹¨μ–‘ μ°μ‚°μ •μ‚¬ν•μ¥νμ…,νμ…,pension,120000,120000,,μ¶©λ¶,λ‹¨μ–‘,300000031,200000324,37.0037813247,128.4083669467
507,46,80307,λ‹¨μ–‘ κ·Έλ¦¬λ‹¤,λ¨ν…”,motel,80000,0,,μ¶©λ¶,λ‹¨μ–‘,300000031,200000324,36.9869563,128.3710042
508,47,81238,λ‹¨μ–‘ λ¨λ‘μ™€ν•μ¥νμ…,νμ…,pension,120000,120000,,μ¶©λ¶,λ‹¨μ–‘,300000031,200000324,37.0034012684888,128.408830978027
509,48,77267,λ‹¨μ–‘ μ‚¬λ‘μ• νμ…(μ „κ°μ‹¤ λ¦¬λ¨λΈλ§),νμ…,pension,80000,80000,,μ¶©λ¶,λ‹¨μ–‘,300000031,200000324,37.04029025,128.50177977
510,49,75319,λ‹¨μ–‘ λ¥΄λΈ”λ‘νμ…,νμ…,pension,120000,120000,,μ¶©λ¶,λ‹¨μ–‘,300000031,200000324,36.8979200043,128.3439134322
511,50,79610,λ‹¨μ–‘ ν•μ¥λ§μ„νμ…λ³΄μƒμ¬,νμ…,pension,120000,120000,,μ¶©λ¶,λ‹¨μ–‘,300000031,200000324,37.0049171373678,128.407576789186
512,51,71098,λ‹¨μ–‘ μ²μ†μν•λ£¨νμ…,νμ…,pension,80000,80000,,μ¶©λ¶,λ‹¨μ–‘,300000031,200000324,37.0487281,128.5062539
513,52,77280,λ‹¨μ–‘ ν”Όν”μ¤ν† λ¦¬νμ…,νμ…,pension,100000,100000,,μ¶©λ¶,λ‹¨μ–‘,300000031,200000324,37.05780607,128.4164835
514,53,81685,λ‹¨μ–‘ νΈν…” λ”μ¦,λ¨ν…”,motel,60000,45000,μ¦κ±°μ΄ μ—¬ν–‰μ΄ λ μμμΌμ‹κ²λ” ν•­μƒ μΉμ ν• μ„λΉ„μ¤μ™€ μ²­κ²°ν• κ°μ‹¤λ΅ μ κ³µν•΄ λ“λ¦½λ‹λ‹¤,μ¶©λ¶,λ‹¨μ–‘,300000031,200000324,36.984174,128.3708238
515,54,77266,λ‹¨μ–‘ ν’κ²½νμ…,νμ…,pension,80000,80000,,μ¶©λ¶,λ‹¨μ–‘,300000031,200000324,37.06300141,128.42863689
516,55,71432,λ‹¨μ–‘ λ¦¬λ”μ¤νμ…,νμ…,pension,70000,70000,,μ¶©λ¶,λ‹¨μ–‘,300000031,200000324,36.9148259,128.307259
517,56,87218,λ‹¨μ–‘ λ°”λκ°λΉ„μΉμ λ§μ„νμ…,νμ…,pension,60000,60000,,μ¶©λ¶,λ‹¨μ–‘,300000031,200000324,36.9737123494641,128.284472981423
518,57,77270,λ‹¨μ–‘ λ¶λ²½μ—ν™λ‚΄μνμ…,νμ…,pension,0,0,,μ¶©λ¶,λ‹¨μ–‘,300000031,200000324,37.08340786,128.49436675
519,58,77304,λ‹¨μ–‘ μ—°ν™”λ΄‰νμ…,νμ…,pension,100000,100000,,μ¶©λ¶,λ‹¨μ–‘,300000031,200000324,37.04808366,128.50789978
520,59,77759,λ‹¨μ–‘ μμ†”νμ…,νμ…,pension,0,0,,μ¶©λ¶,λ‹¨μ–‘,300000031,200000324,36.891949025284966,128.30830221416645
521,60,77282,λ‹¨μ–‘ μ• ν”λ§λ£¨νμ…,νμ…,pension,90000,90000,,μ¶©λ¶,λ‹¨μ–‘,300000031,200000324,37.03836289,128.50086515
522,61,83643,λ‹¨μ–‘ λ¬Όκ³ μ„νμ…,νμ…,pension,70000,70000,,μ¶©λ¶,λ‹¨μ–‘,300000031,200000324,36.9661148490573,128.420962197968
523,62,76903,λ‹¨μ–‘ μλ¦¬μλ¦¬λ΄‰λ΄‰νμ…,νμ…,pension,70000,70000,,μ¶©λ¶,λ‹¨μ–‘,300000031,200000324,36.89200357183102,128.3428225252037
524,63,71196,λ‹¨μ–‘ λ‹¨μ–‘λ°νμ…,νμ…,pension,80000,80000,,μ¶©λ¶,λ‹¨μ–‘,300000031,200000324,36.9151033,128.3070991
525,64,80255,λ‹¨μ–‘ κΈμμ‚°ν™©ν† λΉνμ…,νμ…,pension,80000,80000,,μ¶©λ¶,λ‹¨μ–‘,300000031,200000324,37.0149737739256,128.26536795439
526,65,77307,μ¶©λ¶ λ‹¨μ–‘ μ½λ„μ‹νμ…,νμ…,pension,110000,110000,,μ¶©λ¶,λ‹¨μ–‘,300000031,200000324,36.98122528,128.37035929
527,66,78903,λ‹¨μ–‘ νΈν…”λ§λ£¨ λ‹¨μ–‘μ ,λ¨ν…”,motel,70000,0,,μ¶©λ¶,λ‹¨μ–‘,300000031,200000324,36.9865982,128.37109839999994
528,67,76536,λ‹¨μ–‘ λ§μ΄ν‹΄νμ…,νμ…,pension,80000,80000,,μ¶©λ¶,λ‹¨μ–‘,300000031,200000324,36.99963462051846,128.39970806264196
529,68,75758,λ‹¨μ–‘ νμΈμΉ΄λΌλ°μΊ ν•‘μ¥,νμ…,pension,110000,110000,,μ¶©λ¶,λ‹¨μ–‘,300000031,200000324,37.0569810962,128.4161533862
530,69,74748,λ‹¨μ–‘ κ°€μ•Όνμ…,νμ…,pension,0,0,,μ¶©λ¶,λ‹¨μ–‘,300000031,200000324,37.0407602196,128.4051834231
531,70,75251,λ‹¨μ–‘ λ‹¨μ–‘μ •ν•μ¥νμ…,νμ…,pension,180000,180000,,μ¶©λ¶,λ‹¨μ–‘,300000031,200000324,37.0026398229,128.4085885396
532,71,77816,λ‹¨μ–‘ μ•μ½©λ‹¬μ½©νμ…,νμ…,pension,80000,80000,,μ¶©λ¶,λ‹¨μ–‘,300000031,200000324,36.9673542727,128.4193508988
533,72,76909,λ‹¨μ–‘ μνμ…,νμ…,pension,80000,80000,,μ¶©λ¶,λ‹¨μ–‘,300000031,200000324,36.8913555,128.3436654
534,73,73240,λ‹¨μ–‘ μ†λ°±μ‚°μ—μ„νμ…(μ• κ²¬λ™λ°),νμ…,pension,80000,80000,,μ¶©λ¶,λ‹¨μ–‘,300000031,200000324,36.9671813321,128.4202504744
535,74,97639,λ‹¨μ–‘ λ² λΌ,λ¨ν…”,motel,50000,0,,μ¶©λ¶,λ‹¨μ–‘,300000031,200000324,36.98650341848623,128.37014329008704
536,75,97773,λ‹¨μ–‘ λ•λ•μ΄μ• κ²¬κ°€μ΅±νμ…λΈ”λ™,νμ…,pension,119000,119000,,μ¶©λ¶,λ‹¨μ–‘,300000031,200000324,36.8870893278468,128.306424876656
537,76,77308,λ‹¨μ–‘ μ–΄λ¦°μ™•μνμ…,νμ…,pension,90000,90000,,μ¶©λ¶,λ‹¨μ–‘,300000031,200000324,37.05841662,128.41635994
538,77,72459,λ‹¨μ–‘ λ‹¬λΉ›λ§μ„νμ…,νμ…,pension,100000,100000,,μ¶©λ¶,λ‹¨μ–‘,300000031,200000324,36.92187,128.2905927
539,78,81067,λ‹¨μ–‘ ν†΅νμ…,νμ…,pension,70000,70000,,μ¶©λ¶,λ‹¨μ–‘,300000031,200000324,37.0423174916516,128.502888484041
540,79,70724,λ‹¨μ–‘ μƒ¬λ΅¬νμ…,νμ…,pension,0,0,,μ¶©λ¶,λ‹¨μ–‘,300000031,200000324,36.966709191008,128.41964883039
541,80,77305,λ‹¨μ–‘ λ―Έμ†μ™€μ—¬μ νμ…,νμ…,pension,80000,80000,,μ¶©λ¶,λ‹¨μ–‘,300000031,200000324,37.04672496,128.50761662
542,81,76995,λ‹¨μ–‘ ν΄λ”ν•μ°μ¤νμ…,νμ…,pension,80000,80000,,μ¶©λ¶,λ‹¨μ–‘,300000031,200000324,37.10909371,128.51080969
543,82,77269,λ‹¨μ–‘ μ†λ°±μ‚°ν†µλ‚λ¬΄νμ…,νμ…,pension,100000,100000,,μ¶©λ¶,λ‹¨μ–‘,300000031,200000324,36.95159051,128.40599524
544,83,77312,λ‹¨μ–‘ λ§μ‹¤νμ…,νμ…,pension,81000,90000,,μ¶©λ¶,λ‹¨μ–‘,300000031,200000324,36.90431247,128.31014688
545,84,77010,λ‹¨μ–‘ ν¨λ¬λ§μ„νμ…(ν¨λ¬κΈ€λΌμ΄λ”©),νμ…,pension,80000,80000,,μ¶©λ¶,λ‹¨μ–‘,300000031,200000324,36.9966399,128.3971543
546,85,67387,λ‹¨μ–‘ μ¤μΉ΄μ΄,λ¨ν…”,motel,50000,60000,μ½”λ΅λ‚ μμ²΄ λ°©μ—­ μ‹¤μ‹,μ¶©λ¶,λ‹¨μ–‘,300000031,200000324,36.9843253,128.3708785
547,86,73816,λ‹¨μ–‘ μ¨λ‹¬λ¨ν…”,λ¨ν…”,motel,50000,50000,,μ¶©λ¶,λ‹¨μ–‘,300000031,200000324,37.0701306,128.47274670000002
548,87,72226,λ‹¨μ–‘ μ†λ°±μ‚°ν’κ²½νμ…,νμ…,pension,130000,130000,,μ¶©λ¶,λ‹¨μ–‘,300000031,200000324,36.9566670226,128.4125060228
549,88,73377,λ‹¨μ–‘ ν•λμ •μ›νμ…,νμ…,pension,70000,70000,,μ¶©λ¶,λ‹¨μ–‘,300000031,200000324,37.0404782,128.4057666
550,89,77293,λ‹¨μ–‘ λ¦¬λ²„ν‹°νμ…,νμ…,pension,110000,110000,,μ¶©λ¶,λ‹¨μ–‘,300000031,200000324,37.04304974,128.41056682
551,90,80247,λ‹¨μ–‘ νƒν™”μ‚°νν¬,λ¨ν…”,motel,50000,50000,,μ¶©λ¶,λ‹¨μ–‘,300000031,200000324,37.0699476,128.4860968
552,91,72112,λ‹¨μ–‘ μ²λ…„λ°”μ„νμ…,νμ…,pension,100000,100000,,μ¶©λ¶,λ‹¨μ–‘,300000031,200000324,36.9761312,128.4065815
553,92,77295,λ‹¨μ–‘ μΉ΄λ¥΄νλ””μ— νμ…,νμ…,pension,0,0,,μ¶©λ¶,λ‹¨μ–‘,300000031,200000324,36.97107412,128.4208169
554,93,67272,λ‹¨μ–‘ κ¶μ „,λ¨ν…”,motel,55000,50000,,μ¶©λ¶,λ‹¨μ–‘,300000031,200000324,36.9819898,128.3706008
555,94,76396,λ‹¨μ–‘ μ—¬μ°λ³„νμ…,νμ…,pension,110000,110000,,μ¶©λ¶,λ‹¨μ–‘,300000031,200000324,36.92370190633138,128.34344114145432
556,95,80475,λ‹¨μ–‘ λΉ„κ°€λ©νμ…,νμ…,pension,90000,90000,,μ¶©λ¶,λ‹¨μ–‘,300000031,200000324,36.9900988674285,128.447868761286
557,96,78252,λ‹¨μ–‘ μμ—°μ†ν’κ²½νμ…,νμ…,pension,70000,70000,,μ¶©λ¶,λ‹¨μ–‘,300000031,200000324,37.0496628,128.4198112
558,97,81069,λ‹¨μ–‘ κµ¬κµ¬μ‚°μ¥νμ…,νμ…,pension,80000,80000,,μ¶©λ¶,λ‹¨μ–‘,300000031,200000324,37.0438554724831,128.499051280456
559,98,89244,λ‹¨μ–‘ κ³¨λ“λ―Ένμ…,νμ…,pension,140000,140000,,μ¶©λ¶,λ‹¨μ–‘,300000031,200000324,36.8861998448204,128.339878943593
560,99,71726,λ‹¨μ–‘ μ–΄μΈλ¦Όνμ…,νμ…,pension,130000,130000,,μ¶©λ¶,λ‹¨μ–‘,300000031,200000324,37.0132872,128.397602
561,100,91431,μ¶μ² ν’€ν•μ°μ¤μ΄νλ…μ±„ν’€λΉλΌ,νμ…,pension,189000,189000,,μ¶©λ¶,λ‹¨μ–‘,300000031,200000324,37.8618405738438,127.770348893018
562,101,88245,λ‹¨μ–‘ ν•μ΄λ””ν•μ°μ¤νμ…,νμ…,pension,0,0,,μ¶©λ¶,λ‹¨μ–‘,300000031,200000324,36.9160080443196,128.308681809848
563,102,77298,λ‹¨μ–‘ λ°©κ³΅μ‚°κΈΈλ”°λΌνμ…,νμ…,pension,60000,60000,,μ¶©λ¶,λ‹¨μ–‘,300000031,200000324,36.842425278713215,128.31899135688212
564,103,70683,λ‹¨μ–‘ λ―Όλ“¤λ νμ…,νμ…,pension,110000,110000,,μ¶©λ¶,λ‹¨μ–‘,300000031,200000324,37.0480473805,128.4121745487
565,104,70744,λ‹¨μ–‘ ν–¥κΈ°λ‚λ¬΄νμ…,νμ…,pension,80000,80000,,μ¶©λ¶,λ‹¨μ–‘,300000031,200000324,37.063368,128.4297927
566,105,70857,λ‹¨μ–‘ λ¶λ²½νμ…,νμ…,pension,80000,80000,,μ¶©λ¶,λ‹¨μ–‘,300000031,200000324,37.087018,128.4860668
567,106,71080,λ‹¨μ–‘ μ‚¬μΈμ•”ν’κ²½νμ…,νμ…,pension,80000,80000,,μ¶©λ¶,λ‹¨μ–‘,300000031,200000324,36.8908865,128.3415989
568,107,71199,λ‹¨μ–‘ ν…λΌμ¤μ—λ³„μ΄λ¨λ©΄νμ…,νμ…,pension,100000,100000,,μ¶©λ¶,λ‹¨μ–‘,300000031,200000324,36.9123552,128.3088357
569,108,71542,λ‹¨μ–‘ μ†λ°νμ…(λ‹¨λ…νλ§¤),νμ…,pension,70000,70000,,μ¶©λ¶,λ‹¨μ–‘,300000031,200000324,36.9131337,128.3508338
570,109,71586,λ‹¨μ–‘ μƒμ„ μ•”μν–¥κΈ°νμ…(λ‹¨λ…νλ§¤),νμ…,pension,80000,80000,,μ¶©λ¶,λ‹¨μ–‘,300000031,200000324,36.8748644,128.2928918
571,110,81339,λ‹¨μ–‘ ν°μ–‘μ§€νμ…,νμ…,pension,200000,200000,,μ¶©λ¶,λ‹¨μ–‘,300000031,200000324,36.9770460527994,128.415753537598
572,111,82208,λ‹¨μ–‘ ν•λμ•„λλ³„μ²μ§€νμ…,νμ…,pension,110000,110000,,μ¶©λ¶,λ‹¨μ–‘,300000031,200000324,37.0372779822168,128.499520750658
573,112,82760,λ‹¨μ–‘ μ¤λ§νΈνμ…,νμ…,pension,0,0,,μ¶©λ¶,λ‹¨μ–‘,300000031,200000324,37.0368191357353,128.404271458294
574,113,79588,λ‹¨μ–‘ μ†λ°±μ‚°λ§λ£¨νμ…,νμ…,pension,0,0,,μ¶©λ¶,λ‹¨μ–‘,300000031,200000324,36.9658970398762,128.420272424298
575,114,74461,λ‹¨μ–‘ ν’€λ‚΄μνμ…,νμ…,pension,80000,80000,,μ¶©λ¶,λ‹¨μ–‘,300000031,200000324,37.0606715404,128.4248831865
576,115,74740,λ‹¨μ–‘ κ½ƒλ¨λ€νμ…,νμ…,pension,200000,200000,,μ¶©λ¶,λ‹¨μ–‘,300000031,200000324,36.9740916879,128.4095489577
577,116,75048,λ‹¨μ–‘ λ΄„νμ…,νμ…,pension,0,0,,μ¶©λ¶,λ‹¨μ–‘,300000031,200000324,36.9879022236,128.4602387034
578,117,88382,λ‹¨μ–‘ λ…Έμ—μλ‹¤λ½λ°©νμ…,νμ…,pension,420000,420000,,μ¶©λ¶,λ‹¨μ–‘,300000031,200000324,36.9680186640984,128.274879473216
579,118,84895,λ‹¨μ–‘ μ„μ „56νμ…,νμ…,pension,90000,100000,,μ¶©λ¶,λ‹¨μ–‘,300000031,200000324,36.9869036589292,128.464391117474
580,119,85722,λ‹¨μ–‘ μ°Έλ‚λΌνμ…,νμ…,pension,70000,70000,,μ¶©λ¶,λ‹¨μ–‘,300000031,200000324,37.0430997947978,128.408819044846
581,120,94980,λ‹¨μ–‘ λ² μ–΄λλ“νμ…,νμ…,pension,60000,60000,,μ¶©λ¶,λ‹¨μ–‘,300000031,200000324,36.9760410913458,128.416604905756
582,121,88476,λ‹¨μ–‘ μ„ν’λ‹Ήλ‹Ήνμ…,νμ…,pension,220000,220000,,μ¶©λ¶,λ‹¨μ–‘,300000031,200000324,37.0557334730381,128.629135354763
583,122,93569,λ‹¨μ–‘ λ‹¨λΈλ¦¬μ¨ν’€λΉλΌ,νμ…,pension,336000,420000,,μ¶©λ¶,λ‹¨μ–‘,300000031,200000324,37.0317865894154,128.39539048117
584,123,99583,λ‹¨μ–‘ λΉ„λ²„λ¦¬νμ¦νμ…,νμ…,pension,400000,400000,,μ¶©λ¶,λ‹¨μ–‘,300000031,200000324,37.048272347,128.4131515952
585,124,98881,λ‹¨μ–‘ λ§μμ„μ—¬λ”ν’κ²½νμ…,νμ…,pension,100000,100000,,μ¶©λ¶,λ‹¨μ–‘,300000031,200000324,37.0595020117066,128.417592718755
586,125,98891,λ‹¨μ–‘ κ·Έλ¦°μ—λ΄νμ…,νμ…,pension,0,0,,μ¶©λ¶,λ‹¨μ–‘,300000031,200000324,36.9928637446605,128.427783650868
587,126,75722,λ‹¨μ–‘ ν”Όμ•¤ν”Όνμ…,νμ…,pension,148000,148000,,μ¶©λ¶,λ‹¨μ–‘,300000031,200000324,36.9783916475,128.2709861758
588,127,72118,λ‹¨μ–‘ ν™κ°€λ„¤νμ…,νμ…,pension,100000,100000,,μ¶©λ¶,λ‹¨μ–‘,300000031,200000324,36.9888977,128.4576924
589,128,72506,λ‹¨μ–‘ μ‚Όλ‘¥μ§€μ¤ν…μ΄νμ…,νμ…,pension,99000,99000,,μ¶©λ¶,λ‹¨μ–‘,300000031,200000324,36.9563194622,128.3730070352
590,129,73886,λ‹¨μ–‘ λ³„λ¬΄λ¦¬νμ…,νμ…,pension,140000,140000,,μ¶©λ¶,λ‹¨μ–‘,300000031,200000324,36.990519,128.4470353
591,130,70813,λ‹¨μ–‘ λν‹°λ‚λ¬΄νμ…,νμ…,pension,80000,80000,,μ¶©λ¶,λ‹¨μ–‘,300000031,200000324,36.9618965,128.4103633
592,131,79773,λ‹¨μ–‘ μ‚¬λ‚λνμ…,νμ…,pension,150000,150000,,μ¶©λ¶,λ‹¨μ–‘,300000031,200000324,37.0440127153841,128.503356892864
593,132,80009,λ‹¨μ–‘ μ΅°μ΄λ―Όλ°•νμ…,νμ…,pension,0,0,,μ¶©λ¶,λ‹¨μ–‘,300000031,200000324,37.0265121562946,128.385692688158
594,133,89116,λ‹¨μ–‘ ν¬λ μ¤νΈ67νμ…,νμ…,pension,240000,240000,,μ¶©λ¶,λ‹¨μ–‘,300000031,200000324,37.0556588771855,128.63000058592
595,134,93021,λ‹¨μ–‘ ν™”μ΄νΈν•μ°μ¤νμ…,νμ…,pension,0,0,,μ¶©λ¶,λ‹¨μ–‘,300000031,200000324,36.9682559707481,128.27434454965
596,135,85638,λ‹¨μ–‘ μκ·Έλ¦¬λ‚νμ…,νμ…,pension,72000,80000,,μ¶©λ¶,λ‹¨μ–‘,300000031,200000324,37.0742091900221,128.477791772509
597,136,85707,λ‹¨μ–‘ κΈμμ‚°ν•μ¥μ μ„±μ¬νμ…,νμ…,pension,0,0,,μ¶©λ¶,λ‹¨μ–‘,300000031,200000324,36.9643582132735,128.284337578411
598,137,85708,λ‹¨μ–‘ μ²μ†μ‹κ³¨κΈΈνμ…,νμ…,pension,80000,80000,,μ¶©λ¶,λ‹¨μ–‘,300000031,200000324,37.0544912243353,128.635105435758
599,138,87758,λ‹¨μ–‘ λ³„μ¥κ°κΉνμ…,νμ…,pension,350000,350000,,μ¶©λ¶,λ‹¨μ–‘,300000031,200000324,36.8709617299892,128.29354119283
600,139,77287,λ‹¨μ–‘ λμ‹¤νμ…,νμ…,pension,80000,80000,,μ¶©λ¶,λ‹¨μ–‘,300000031,200000324,37.06127009,128.423959
601,140,99844,λ‹¨μ–‘ λ‚¨μ²λ―Όλ°•,νμ…,pension,70000,70000,,μ¶©λ¶,λ‹¨μ–‘,300000031,200000324,37.0582771745779,128.501137219507
602,141,94747,λ‹¨μ–‘ μ†λ°±μ‚°ν•μ¥νμ…,νμ…,pension,0,0,,μ¶©λ¶,λ‹¨μ–‘,300000031,200000324,37.0030837820709,128.409200446271
603,142,94879,λ‹¨μ–‘ μ²­κ°κµ¬λ¦¬νμ…,νμ…,pension,0,0,,μ¶©λ¶,λ‹¨μ–‘,300000031,200000324,36.8915912729419,128.34311638529
604,143,81016,λ‹¨μ–‘ μλ λ½λΈ”λ‘νμ…,νμ…,pension,0,0,,μ¶©λ¶,λ‹¨μ–‘,300000031,200000324,37.044443085434,128.505249310348
605,144,71736,λ‹¨μ–‘ λ‚λ¬΄ν–¥κΈ°νμ…,νμ…,pension,0,0,,μ¶©λ¶,λ‹¨μ–‘,300000031,200000324,37.0527129,128.5049772
606,145,76993,λ‹¨μ–‘ ν‹°νλ‹νμ…(λ°λ ¤λ™λ¬Ό μ…μ‹¤λ¶κ°€),νμ…,pension,70000,70000,,μ¶©λ¶,λ‹¨μ–‘,300000031,200000324,37.04258953,128.40895775
607,146,77000,λ‹¨μ–‘ ν΄μ•¤ν΄νμ…,νμ…,pension,100000,100000,,μ¶©λ¶,λ‹¨μ–‘,300000031,200000324,36.91525668,128.30635729
608,147,77273,λ‹¨μ–‘ λ―Έμ†ν–‰λ³µνμ…,νμ…,pension,100000,100000,,μ¶©λ¶,λ‹¨μ–‘,300000031,200000324,37.0428207,128.40861134
609,148,77288,λ‹¨μ–‘ ν† λ‹΄νμ…,νμ…,pension,350000,350000,,μ¶©λ¶,λ‹¨μ–‘,300000031,200000324,37.059919181258195,128.50021499715064
610,149,77299,λ‹¨μ–‘ μ†”νμ…,νμ…,pension,60000,60000,,μ¶©λ¶,λ‹¨μ–‘,300000031,200000324,37.0246589,128.29747217
611,150,77306,λ‹¨μ–‘ μ†λ°±μ‚°μλ½νμ…,νμ…,pension,0,0,,μ¶©λ¶,λ‹¨μ–‘,300000031,200000324,36.9763969,128.4169864
612,151,77310,λ‹¨μ–‘ κ°€κ³΅λ™κµ΄νμ…,νμ…,pension,120000,120000,,μ¶©λ¶,λ‹¨μ–‘,300000031,200000324,36.98897980105179,128.43542341334722
613,152,77311,λ‹¨μ–‘ λ“¤κ½ƒν–¥κΈ°νμ…,νμ…,pension,0,0,,μ¶©λ¶,λ‹¨μ–‘,300000031,200000324,36.9002436133531,128.34718749172
614,153,80328,λ‹¨μ–‘ λΉ„ν–‰κΈ°,λ¨ν…”,motel,0,0,,μ¶©λ¶,λ‹¨μ–‘,300000031,200000324,36.9871174,128.370944
615,154,71054,λ‹¨μ–‘ μ²μ†μν΄μ‹νμ…,νμ…,pension,250000,250000,,μ¶©λ¶,λ‹¨μ–‘,300000031,200000324,36.9162889,128.3092637
616,155,71476,λ‹¨μ–‘ λΈ”λ£¨νμ…,νμ…,pension,0,0,,μ¶©λ¶,λ‹¨μ–‘,300000031,200000324,36.988748,128.4569356
617,156,87452,λ‹¨μ–‘ μ΄ν™”νν¬ν…”,λ¨ν…”,motel,60000,0,,μ¶©λ¶,λ‹¨μ–‘,300000031,200000324,36.98330272651385,128.37037837716161
618,157,80117,λ‹¨μ–‘ κ°€ν„μ •νμ…,νμ…,pension,0,0,,μ¶©λ¶,λ‹¨μ–‘,300000031,200000324,37.0046757805603,128.40770400367
619,158,80404,λ‹¨μ–‘ κ°•κ°€μμ•„μΉ¨νμ…,νμ…,pension,0,0,,μ¶©λ¶,λ‹¨μ–‘,300000031,200000324,37.0438902737063,128.41080267887966
620,159,80427,λ‹¨μ–‘ λ λ―Έλ‹μ¤νμ…,νμ…,pension,100000,100000,,μ¶©λ¶,λ‹¨μ–‘,300000031,200000324,37.0257900387558,128.471545421767
621,160,74992,λ‹¨μ–‘ κ°€κ³΅μ—¬μΈνμ…,νμ…,pension,100000,100000,,μ¶©λ¶,λ‹¨μ–‘,300000031,200000324,37.002588586,128.4098682608
622,161,92104,λ‹¨μ–‘ μΉ΄μ‚¬λ²¨λΌνμ…,νμ…,pension,700000,700000,,μ¶©λ¶,λ‹¨μ–‘,300000031,200000324,37.0475785578394,128.413122994059
623,162,92162,λ‹¨μ–‘ μ±„ν›¤λ―Όλ°•νμ…,νμ…,pension,200000,200000,,μ¶©λ¶,λ‹¨μ–‘,300000031,200000324,36.8996499191733,128.342850939985
624,163,94635,λ‹¨μ–‘ ν•λ£»λ°¤κ¶κ¶ν„°νμ…,νμ…,pension,0,0,,μ¶©λ¶,λ‹¨μ–‘,300000031,200000324,36.8498646461666,128.300739246011
625,164,94812,λ‹¨μ–‘ λΉ›λ¨λ€νμ…,νμ…,pension,90000,90000,,μ¶©λ¶,λ‹¨μ–‘,300000031,200000324,36.8909295607192,128.341345532519
626,165,94826,λ‹¨μ–‘ μƒκ³¨μ‚°μ¥νμ…,νμ…,pension,70000,70000,,μ¶©λ¶,λ‹¨μ–‘,300000031,200000324,36.9693001383839,128.419211524176
627,166,95537,λ‹¨μ–‘ κ³„μ κ·Έλ¦¬κΈ° νμ…,νμ…,pension,0,0,,μ¶©λ¶,λ‹¨μ–‘,300000031,200000324,36.9755064491544,128.416354336881
628,167,99553,λ‹¨μ–‘ λ””μ™€μ΄ν’€λΉλΌ,νμ…,pension,350000,350000,,μ¶©λ¶,λ‹¨μ–‘,300000031,200000324,36.8904939648619,128.298469386045
629,168,98418,λ‹¨μ–‘ μ–‘μ§€κ³¨ν™©ν† νμ…,νμ…,pension,50000,50000,,μ¶©λ¶,λ‹¨μ–‘,300000031,200000324,37.1004903047367,128.509595518151
630,0,86456,νΈν…” μ›¨μ¤νΈ μ¤λΈ κ°€λ‚μ•,νΈν…”,hotel,150000,150000,,μ¶©λ¶,κ΄΄μ‚°,300000031,200000325,36.813596,128.035086
631,1,95924,κ΄΄μ‚° μ²μ†μ΄μ•ΌκΈ°νμ…,νμ…,pension,0,0,,μ¶©λ¶,κ΄΄μ‚°,300000031,200000325,36.6360380541009,127.7591941076
632,2,88150,κ΄΄μ‚° μ΄κµλλ“μ μ¤νΈμ¤ν…”,νμ…,pension,54000,60000,,μ¶©λ¶,κ΄΄μ‚°,300000031,200000325,36.7293451392548,127.815267960295
633,3,71498,κ΄΄μ‚° ν™”μ–‘κ³„κ³΅λ¬Όμ΅΄νμ…,νμ…,pension,70000,70000,,μ¶©λ¶,κ΄΄μ‚°,300000031,200000325,36.6690372,127.8099748
634,4,80403,κ΄΄μ‚° μ†λ¦¬μ‚°ν†µλ‚λ¬΄νμ…,νμ…,pension,0,0,,μ¶©λ¶,κ΄΄μ‚°,300000031,200000325,36.6244477394532,127.798102924338
635,5,84531,κ΄΄μ‚° λ§μ΄ν‹΄λ°Έλ¦¬ν΄νμ…,νμ…,pension,100000,100000,,μ¶©λ¶,κ΄΄μ‚°,300000031,200000325,36.8131692668604,128.04048794115
636,6,87427,κ΄΄μ‚° λ”μ§„νμ…(λ…μ±„νμ…),νμ…,pension,250000,250000,,μ¶©λ¶,κ΄΄μ‚°,300000031,200000325,36.6835702284062,127.797233543317
637,7,72790,κ΄΄μ‚° ν™”μ–‘κ³„κ³΅λ„λ…μ‚°νμ…,νμ…,pension,70000,70000,,μ¶©λ¶,κ΄΄μ‚°,300000031,200000325,36.683477725,127.800504732
638,8,73645,κ΄΄μ‚° λ‚λ¬΄μ†λ¦¬νμ…,νμ…,pension,0,0,,μ¶©λ¶,κ΄΄μ‚°,300000031,200000325,36.67395287,127.7629175227
639,9,83949,κ΄΄μ‚° λν‹°λ‚λ¬΄ν•μ°μ¤νμ…,νμ…,pension,160000,160000,,μ¶©λ¶,κ΄΄μ‚°,300000031,200000325,36.80529198255,128.024950423807
640,10,94992,κ΄΄μ‚° νΈμμ¤νμ…,νμ…,pension,140000,140000,,μ¶©λ¶,κ΄΄μ‚°,300000031,200000325,36.6841597842203,127.803900104219
641,11,80390,κ΄΄μ‚° μμ—°μμ†λ¦¬νμ…,νμ…,pension,120000,120000,,μ¶©λ¶,κ΄΄μ‚°,300000031,200000325,36.6778483276587,127.76873763039
642,12,81780,κ΄΄μ‚° ν•΄μ™€λ‹¬νμ…,νμ…,pension,140000,140000,,μ¶©λ¶,κ΄΄μ‚°,300000031,200000325,36.7037638049739,127.808135645054
643,13,81956,κ΄΄μ‚° λ¦¬λ²„λΉλ¦¬μ§€νμ…,νμ…,pension,200000,200000,,μ¶©λ¶,κ΄΄μ‚°,300000031,200000325,36.7289047241958,127.814854031812
644,14,86437,κ΄΄μ‚° κ³°λμ΄μ›ν„°νμ…,νμ…,pension,120000,120000,,μ¶©λ¶,κ΄΄μ‚°,300000031,200000325,36.6804164124458,127.805060673214
645,15,84873,κ΄΄μ‚° λ”κ·Έλ μ΄μ¤2νμ…,νμ…,pension,130000,130000,,μ¶©λ¶,κ΄΄μ‚°,300000031,200000325,36.7016790302608,127.844776503604
646,16,82778,κ΄΄μ‚° μκ·Έλ¦¬λ‚νμ…,νμ…,pension,75000,75000,,μ¶©λ¶,κ΄΄μ‚°,300000031,200000325,36.7403146375832,127.902393123719
647,17,84697,κ΄΄μ‚° μ‚°λ§‰μ΄ν•μ¥νμ…,νμ…,pension,80000,80000,,μ¶©λ¶,κ΄΄μ‚°,300000031,200000325,36.7684395015,127.8342032402
648,18,88458,κ΄΄μ‚° νΈν…” λ”ν‚Ή,λ¨ν…”,motel,65000,65000,β—† κ°„λ‹¨ μ…€ν”„μ΅°μ‹ μ κ³µ β—†,μ¶©λ¶,κ΄΄μ‚°,300000031,200000325,36.81207728988907,127.79269484615632
649,19,91493,μΈμ²(κ²€λ‹¨μ‹ λ„μ‹) H Avenue μΈμ²κ²€λ‹¨μ‹ λ„μ‹μ ,λ¨ν…”,motel,80000,0,ν‰μΌ μ™λ°• μ΄λ²¤νΈ κ°„μ‹ν‚¤νΈ μ¦μ • (λ§¤μ£Ό λ³€κ²½),μ¶©λ¶,κ΄΄μ‚°,300000031,200000325,37.59437726366143,126.71636320883287
650,20,71817,κ΄΄μ‚° μ•„μ΄ννμ…,νμ…,pension,99000,99000,,μ¶©λ¶,κ΄΄μ‚°,300000031,200000325,36.8347107,127.8385649
651,21,87762,κ΄΄μ‚° μ‘μ€μƒμ¬νμ…,νμ…,pension,84600,84600,,μ¶©λ¶,κ΄΄μ‚°,300000031,200000325,36.8128760348608,128.039233657162
652,22,71804,κ΄΄μ‚° μ€ν•μνμ…,νμ…,pension,80000,80000,,μ¶©λ¶,κ΄΄μ‚°,300000031,200000325,36.6743433,127.7631984
653,23,75242,κ΄΄μ‚° μΊ ν”„ν΄λ½νμ…,νμ…,pension,130000,130000,,μ¶©λ¶,κ΄΄μ‚°,300000031,200000325,36.634219057,127.7837692259
654,24,80468,κ΄΄μ‚° μ¤ν…μ΄λ‚λ£¨νμ…,νμ…,pension,120000,120000,,μ¶©λ¶,κ΄΄μ‚°,300000031,200000325,36.6849144040281,127.804428655503
655,25,79288,κ΄΄μ‚° μ¤ν…ννμ…,νμ…,pension,98000,200000,,μ¶©λ¶,κ΄΄μ‚°,300000031,200000325,36.840708268237734,127.82311822975535
656,26,80603,κ΄΄μ‚° μ²­μ²λ‚λ“¤μ΄νμ…,νμ…,pension,70000,70000,,μ¶©λ¶,κ΄΄μ‚°,300000031,200000325,36.635079627671,127.746388279007
657,27,80082,κ΄΄μ‚° Sλ¬΄μΈν…”,λ¨ν…”,motel,50000,0,,μ¶©λ¶,κ΄΄μ‚°,300000031,200000325,36.8282081,127.8140653
658,28,77276,κ΄΄μ‚° λ³„λΉ›λ¨λ½νμ…,νμ…,pension,150000,150000,,μ¶©λ¶,κ΄΄μ‚°,300000031,200000325,36.67497689,127.76342433
659,29,71110,κ΄΄μ‚° λ‚¨κ°•νμ…,νμ…,pension,72000,80000,,μ¶©λ¶,κ΄΄μ‚°,300000031,200000325,36.8128865,128.0395882
660,30,80083,κ΄΄μ‚° Yλ¬΄μΈν…”,λ¨ν…”,motel,50000,0,,μ¶©λ¶,κ΄΄μ‚°,300000031,200000325,36.8282081,127.8140653
661,31,69045,κ΄΄μ‚° νƒ‘ λ¬΄μΈν…”,λ¨ν…”,motel,35000,35000,,μ¶©λ¶,κ΄΄μ‚°,300000031,200000325,36.777655,127.6388931
662,32,68288,μ¦ν‰ κ°¤λ¬λ¦¬ λ¬΄μΈν…”,λ¨ν…”,motel,35000,40000,β…κ°„μ‹ μ κ³µβ…,μ¶©λ¶,κ΄΄μ‚°,300000031,200000325,36.7881512,127.5614355
663,33,77788,κ΄΄μ‚° μ—¬μ°μ²νμ…,νμ…,pension,0,0,,μ¶©λ¶,κ΄΄μ‚°,300000031,200000325,36.76668329610318,127.8234911106558
664,34,74939,κ΄΄μ‚° ν™”μ–‘κ³„κ³΅κ°•κ°€μ—νμ…,νμ…,pension,80000,80000,,μ¶©λ¶,κ΄΄μ‚°,300000031,200000325,36.679148,127.7782569
665,35,94058,κ΄΄μ‚° μ‚¬λ‹΄ μ¤ν…μ΄νμ…,νμ…,pension,150000,150000,,μ¶©λ¶,κ΄΄μ‚°,300000031,200000325,36.6240769796958,127.809714686557
666,36,73545,μ¦ν‰ μνν¬,λ¨ν…”,motel,0,0,β…μ£Όμ°¨ μ‹μ„¤ μ™„λΉ„β…,μ¶©λ¶,κ΄΄μ‚°,300000031,200000325,36.7877928,127.5639994
667,37,68419,μ¦ν‰ μ΄νƒλ¦¬,λ¨ν…”,motel,40000,45000,,μ¶©λ¶,κ΄΄μ‚°,300000031,200000325,36.7875438,127.5656548
668,38,78293,κ΄΄μ‚° λ‚™μ›λ¨ν…”,λ¨ν…”,motel,0,0,,μ¶©λ¶,κ΄΄μ‚°,300000031,200000325,36.7980867,127.75313840000001
669,39,83600,κ΄΄μ‚° λ°μ„νμ…(ν™”μ–‘κ³„κ³΅),νμ…,pension,145000,145000,,μ¶©λ¶,κ΄΄μ‚°,300000031,200000325,36.6792684886777,127.803540656091
670,40,83254,κ΄΄μ‚° ν™”μ–‘λΉλ¦¬μ§€νμ…,νμ…,pension,108000,120000,,μ¶©λ¶,κ΄΄μ‚°,300000031,200000325,36.6847581388262,127.804017094441
671,41,75884,κ΄΄μ‚° λ³„λΉ›νμ…,νμ…,pension,140000,140000,,μ¶©λ¶,κ΄΄μ‚°,300000031,200000325,36.684464,127.8036904
672,42,80292,κ΄΄μ‚° μμ—°ν΄μ‚°μ¥νμ…,νμ…,pension,100000,100000,,μ¶©λ¶,κ΄΄μ‚°,300000031,200000325,36.7382883475884,127.90219228504
673,43,75827,κ΄΄μ‚° κΈμ„±λ―Όλ°•νμ…,νμ…,pension,40000,40000,,μ¶©λ¶,κ΄΄μ‚°,300000031,200000325,36.6687817476,127.8107374095
674,44,69402,μ¦ν‰ νƒν‰,λ¨ν…”,motel,0,0,,μ¶©λ¶,κ΄΄μ‚°,300000031,200000325,36.7829737,127.5809602
675,45,80510,κ΄΄μ‚° ν™”μ΄νΈλΉνμ…,νμ…,pension,70000,70000,,μ¶©λ¶,κ΄΄μ‚°,300000031,200000325,36.6561548944471,127.743706969828
676,46,98963,κ΄΄μ‚° ν‹°νλ‹ λ¬΄μΈ νΈν…”,λ¨ν…”,motel,55000,0,,μ¶©λ¶,κ΄΄μ‚°,300000031,200000325,36.7746155700814,127.62934834660697
677,47,71883,κ΄΄μ‚° ν™”μ–‘ν™©ν† νμ…,νμ…,pension,0,0,,μ¶©λ¶,κ΄΄μ‚°,300000031,200000325,36.6777025543,127.7689150625
678,48,69087,μ¦ν‰ λ²„λ””λ²„λ””,λ¨ν…”,motel,0,0,,μ¶©λ¶,κ΄΄μ‚°,300000031,200000325,36.7305295,127.6130966
679,49,81404,κ΄΄μ‚° κ·Έλ‘λ‘μ΄νμ…,νμ…,pension,100000,100000,,μ¶©λ¶,κ΄΄μ‚°,300000031,200000325,36.6806633560347,127.771431753745
680,51,75945,κ΄΄μ‚° ν–‰λ³µλ„λ¦¬κ³ νμ…,νμ…,pension,0,0,,μ¶©λ¶,κ΄΄μ‚°,300000031,200000325,36.6579936301,127.7565102245
681,52,86103,κ΄΄μ‚° μ‚°λ‚΄λ“¤2νμ…,νμ…,pension,100000,100000,,μ¶©λ¶,κ΄΄μ‚°,300000031,200000325,36.6846939343846,127.804197338246
682,53,86281,κ΄΄μ‚° μ²­μ²μλ©μ›μ•Όμμ¥νμ…,νμ…,pension,0,0,,μ¶©λ¶,κ΄΄μ‚°,300000031,200000325,36.6713531877607,127.781480905437
683,54,86591,κ΄΄μ‚° λΌν”Όλ„¤νμ…,νμ…,pension,100000,100000,,μ¶©λ¶,κ΄΄μ‚°,300000031,200000325,36.6755060875109,127.76352576103
684,55,95404,κ΄΄μ‚° ν™”μ–‘κ³„κ³΅ λ¥μ΄λ€νμ…,νμ…,pension,70000,70000,,μ¶©λ¶,κ΄΄μ‚°,300000031,200000325,36.6660839776834,127.816099146907
685,56,98805,κ΄΄μ‚° κΈ€λ¨νμ…,νμ…,pension,160000,160000,,μ¶©λ¶,κ΄΄μ‚°,300000031,200000325,36.6266642128557,127.749671902287
686,57,98968,μ¦ν‰ νλ§ λ¬΄μΈν…”,λ¨ν…”,motel,50000,0,,μ¶©λ¶,κ΄΄μ‚°,300000031,200000325,36.786388013471964,127.5624500234405
687,58,83859,κ΄΄μ‚° ν„λ―Όμ΄λ„¤ν™©ν† μ§‘νμ…,νμ…,pension,0,0,,μ¶©λ¶,κ΄΄μ‚°,300000031,200000325,36.7617853255183,127.628161840101
688,59,86220,κ΄΄μ‚° μ΅°λ Ήνμ…,νμ…,pension,66500,66500,,μ¶©λ¶,κ΄΄μ‚°,300000031,200000325,36.811910083086,128.035402237528
689,60,73141,κ΄΄μ‚° λ°λ”§λ¶κ°€μ΅±νμ…,νμ…,pension,450000,450000,,μ¶©λ¶,κ΄΄μ‚°,300000031,200000325,36.6742367822,127.7619224765
690,61,80569,κ΄΄μ‚° ν™”μ–‘κ³„κ³΅κΈμ‚¬λ‹΄νμ…,νμ…,pension,90000,90000,,μ¶©λ¶,κ΄΄μ‚°,300000031,200000325,36.6684655924397,127.812304688063
691,62,70920,κ΄΄μ‚° λ΅λ―Έν•μ°μ¤νμ…,νμ…,pension,150000,150000,,μ¶©λ¶,κ΄΄μ‚°,300000031,200000325,36.6984124,127.7248713
692,63,88520,λ…Όμ‚° ν•λΉ›νμ…,νμ…,pension,110000,110000,,μ¶©λ¶,κ΄΄μ‚°,300000031,200000325,36.1268265948291,127.107350199579
693,64,87434,κ΄΄μ‚° μ•„λ¦¬μ†”νμ…,νμ…,pension,80000,80000,,μ¶©λ¶,κ΄΄μ‚°,300000031,200000325,36.6310695185405,127.792806971019
694,65,95238,κ΄΄μ‚° μƒ›κ³ λ‘νμ…,νμ…,pension,70000,70000,,μ¶©λ¶,κ΄΄μ‚°,300000031,200000325,36.8127887025723,128.042385884728
695,66,99008,κ΄΄μ‚° κΈ€λ¨ν•μ°μ¤νμ…,νμ…,pension,150000,150000,,μ¶©λ¶,κ΄΄μ‚°,300000031,200000325,36.6264886527592,127.749790048946
696,67,100050,κ΄΄μ‚° λ”μΆ‹μ€ν•λ£¨,νμ…,pension,120000,120000,,μ¶©λ¶,κ΄΄μ‚°,300000031,200000325,36.6257895786834,127.795895145481
697,68,100336,κ΄΄μ‚° μμ—°μν–¥κΈ°νμ…,νμ…,pension,130000,130000,,μ¶©λ¶,κ΄΄μ‚°,300000031,200000325,36.6774700647499,127.768454971864
698,69,87464,κ΄΄μ‚° μ„Έλνν¬,λ¨ν…”,motel,50000,50000,,μ¶©λ¶,κ΄΄μ‚°,300000031,200000325,36.6824789314969,127.78635699797896
699,70,74749,κ΄΄μ‚° κΈλ¦‰ν™©ν† νμ…,νμ…,pension,90000,90000,,μ¶©λ¶,κ΄΄μ‚°,300000031,200000325,36.6097319625,127.8157522137
700,71,74946,κ΄΄μ‚° λ‹¬λ§μ΄νμ…,νμ…,pension,100000,100000,,μ¶©λ¶,κ΄΄μ‚°,300000031,200000325,36.6746631077,127.7640163584
701,72,75306,κ΄΄μ‚° κ³„κ³΅μμ•„μΉ¨νμ…(ν™”μ–‘κ³„κ³΅),νμ…,pension,0,0,,μ¶©λ¶,κ΄΄μ‚°,300000031,200000325,36.6843789329,127.7864260197
702,73,78946,κ΄΄μ‚° ν•λ£¨νμ…,νμ…,pension,70000,70000,,μ¶©λ¶,κ΄΄μ‚°,300000031,200000325,36.65812403624342,127.75185434709424
703,74,79723,κ΄΄μ‚° μ²μ†μν–¥κΈ°νμ…,νμ…,pension,90000,90000,,μ¶©λ¶,κ΄΄μ‚°,300000031,200000325,36.6773693726998,127.768670328887
704,75,81178,κ΄΄μ‚° κ°λ΅ νμ…,νμ…,pension,100000,100000,,μ¶©λ¶,κ΄΄μ‚°,300000031,200000325,36.7375956599764,127.845500871908
705,76,81243,κ΄΄μ‚° λ³„λΉ›μ‚°λ§‰μ΄νμ…,νμ…,pension,60000,60000,,μ¶©λ¶,κ΄΄μ‚°,300000031,200000325,36.7804043112765,127.83814359712
706,77,91305,μ μ£Ό ν‚¤μ‘μ€μ§‘νμ…,νμ…,pension,180000,180000,,μ¶©λ¶,κ΄΄μ‚°,300000031,200000325,33.5435976653753,126.674517450616
707,78,99640,κ΄΄μ‚° κ³ μ€μ§‘νμ…,νμ…,pension,230000,230000,,μ¶©λ¶,κ΄΄μ‚°,300000031,200000325,36.7703302817355,127.846370484921
708,79,99678,κ΄΄μ‚° μ§€μ¤κΈ€λ¨ν•‘,νμ…,pension,194000,194000,,μ¶©λ¶,κ΄΄μ‚°,300000031,200000325,36.6959790101963,127.800598969355
709,0,67208,μμ„± μ•„λ¦¬μ•„ Drive-in,λ¨ν…”,motel,45000,45000,π24μ‹κ°„ μ¤λ‚µλ°” μ΄μπ­,μ¶©λ¶,μμ„±,300000031,200000326,36.98173,127.55734230000007
710,1,69051,μμ„± μ§€μ¤‘ν•΄μ μ•„μΉ¨,λ¨ν…”,motel,45000,45000,β¤οΈμ „ κ°μ‹¤ λ„·ν”λ¦­μ¤&μ νλΈ / μ¤νƒ€μΌλ¬ / μ•λ§μμβ¤οΈ,μ¶©λ¶,μμ„±,300000031,200000326,36.9806287,127.5600749
711,2,69132,μμ„± λ”μλΌ Drive-in,λ¨ν…”,motel,45000,45000,"μ „ κ°μ‹¤65tv, λ„·ν”λ¦­μ¤,μ•λ§μμ,μ•Όκ°„λ€μ‹¤",μ¶©λ¶,μμ„±,300000031,200000326,36.9744663,127.527966
712,3,72503,μμ„± κ±°μ„± νΈν…”,νΈν…”,hotel,0,0,,μ¶©λ¶,μμ„±,300000031,200000326,36.90542,127.545787
713,4,70132,μ¶©λ¶νμ‹ λ„μ‹ λ‚λ¬΄νΈν…”,νΈν…”,hotel,150000,220000,,μ¶©λ¶,μμ„±,300000031,200000326,36.905034,127.548028
714,5,98822,μμ„±(λ€μ†) νΈν…” λ£¨μ— ,νΈν…”,hotel,60000,60000,,μ¶©λ¶,μμ„±,300000031,200000326,36.974009831720444,127.47322510887425
715,7,76154,μμ„± μ¶©λ¶νμ‹ λ„μ‹ νΈν…”λ¨λ‹μΊ„,λ¨ν…”,motel,0,0,,μ¶©λ¶,μμ„±,300000031,200000326,36.9069902,127.54357989999994
716,9,78975,μμ„± μλ°”λΌ(Drive-in),λ¨ν…”,motel,50000,50000,,μ¶©λ¶,μμ„±,300000031,200000326,36.9524425,127.64271329999997
717,10,69048,μμ„± μ²Όλ΅,λ¨ν…”,motel,40000,40000,λ¬΄ν•λ€μ‹¤ μ΄λ²¤νΈ μ§„ν–‰μ¤‘,μ¶©λ¶,μμ„±,300000031,200000326,36.9934375,127.61217669999996
718,12,87509,μμ„±(λ€μ†) νΈν…” λ£¨μ— ,λ¨ν…”,motel,55000,0,,μ¶©λ¶,μμ„±,300000031,200000326,36.974009831720444,127.47322510887425
719,13,67550,μμ„±(λ€μ†) μ„μΈ νΈν…”,λ¨ν…”,motel,40000,0,,μ¶©λ¶,μμ„±,300000031,200000326,36.973579,127.47337659999994
720,14,68060,μμ„± μ¶©λ¶νμ‹ λ„μ‹ λ‚λ¬΄νΈν…”,λ¨ν…”,motel,150000,0,βΏλ·”νμ‹ μ΅°μ‹(λ³„λ„)βΏ,μ¶©λ¶,μμ„±,300000031,200000326,36.9045749,127.5487583
721,15,87079,μμ„± MK νΈν…”,λ¨ν…”,motel,50000,45000,,μ¶©λ¶,μμ„±,300000031,200000326,36.99260087503558,127.59324047646552
722,16,76156,μμ„± μ¶©λ¶νμ‹ λ„μ‹ λ¦¬μΉλ¬΄μΈν…”,λ¨ν…”,motel,65000,0,,μ¶©λ¶,μμ„±,300000031,200000326,36.9084849,127.54413950000003
723,17,74262,μμ„± μ¶©λ¶νμ‹ λ„μ‹ Hλ¨ν…”,λ¨ν…”,motel,77000,0,"λ¬΄ν•λ€μ‹¤ μ΄λ²¤νΈ(10μ‹~18μ‹ 30,000μ›)",μ¶©λ¶,μμ„±,300000031,200000326,36.9069399,127.5428136
724,18,75679,μμ„± λ‘λ°”μ΄,λ¨ν…”,motel,50000,50000,,μ¶©λ¶,μμ„±,300000031,200000326,36.9939905,127.59836429999996
725,19,69070,μμ„± ν•λ£¨,λ¨ν…”,motel,40000,0,,μ¶©λ¶,μμ„±,300000031,200000326,36.9418118,127.72552389999998
